{"type": "FeatureCollection", "features": [{"type": "Feature", "geometry": {"type": "Point", "coordinates": [-79.52345275878906, 43.78335952758789]}, "properties": {"stop_id": "15660", "stop_name": "Highway 407 Station - Southbound Platform"}}, {"type": "Feature", "geometry": {"type": "Point", "coordinates": [-79.44379425048828, 43.71474838256836]}, "properties": {"stop_id": "13835", "stop_name": "Lawrence West Station - Southbound Platform"}}, {"type": "Feature", "geometry": {"type": "Point", "coordinates": [-79.52790832519531, 43.79402160644531]}, "properties": {"stop_id": "15663", "stop_name": "Vaughan Metropolitan Centre Station - Southbound Platform"}}, {"type": "Feature", "geometry": {"type": "Point", "coordinates": [-79.44989013671875, 43.733848571777344]}, "properties": {"stop_id": "13839", "stop_name": "Wilson Station - Southbound Platform"}}, {"type": "Feature", "geometry": {"type": "Point", "coordinates": [-79.39028930664062, 43.65924835205078]}, "properties": {"stop_id": "13823", "stop_name": "Queen's Park Station - Southbound Platform"}}, {"type": "Feature", "geometry": {"type": "Point", "coordinates": [-79.4472885131836, 43.72394943237305]}, "properties": {"stop_id": "13838", "stop_name": "Yorkdale Station - Southbound Platform"}}, {"type": "Feature", "geometry": {"type": "Point", "coordinates": [-79.49988555908203, 43.77409744262695]}, "properties": {"stop_id": "15667", "stop_name": "York University - Southbound Platform"}}, {"type": "Feature", "geometry": {"type": "Point", "coordinates": [-79.43629455566406, 43.69934844970703]}, "properties": {"stop_id": "13831", "stop_name": "Cedarvale Station - Southbound Platform"}}, {"type": "Feature", "geometry": {"type": "Point", "coordinates": [-79.50936889648438, 43.77674865722656]}, "properties": {"stop_id": "15657", "stop_name": "Pioneer Village Station - Southbound Platform"}}, {"type": "Feature", "geometry": {"type": "Point", "coordinates": [-79.38308715820312, 43.66144943237305]}, "properties": {"stop_id": "13808", "stop_name": "College Station - Northbound Platform"}}, {"type": "Feature", "geometry": {"type": "Point", "coordinates": [-79.39729309082031, 43.69824981689453]}, "properties": {"stop_id": "13797", "stop_name": "Davisville Station - Northbound Platform"}}, {"type": "Feature", "geometry": {"type": "Point", "coordinates": [-79.410888671875, 43.76164627075195]}, "properties": {"stop_id": "13859", "stop_name": "Sheppard-Yonge Station - Northbound Platform"}}, {"type": "Feature", "geometry": {"type": "Point", "coordinates": [-79.39118957519531, 43.683349609375]}, "properties": {"stop_id": "13801", "stop_name": "Summerhill Station - Northbound Platform"}}, {"type": "Feature", "geometry": {"type": "Point", "coordinates": [-79.38591766357422, 43.671043395996094]}, "properties": {"stop_id": "13863", "stop_name": "Bloor Station - Northbound Platform"}}, {"type": "Feature", "geometry": {"type": "Point", "coordinates": [-79.40669250488281, 43.67374801635742]}, "properties": {"stop_id": "13827", "stop_name": "Dupont Station - Southbound Platform"}}, {"type": "Feature", "geometry": {"type": "Point", "coordinates": [-79.37808990478516, 43.64965057373047]}, "properties": {"stop_id": "13813", "stop_name": "King Station - Northbound Platform"}}, {"type": "Feature", "geometry": {"type": "Point", "coordinates": [-79.3837890625, 43.6661491394043]}, "properties": {"stop_id": "13805", "stop_name": "Wellesley Station - Northbound Platform"}}, {"type": "Feature", "geometry": {"type": "Point", "coordinates": [-79.47869110107422, 43.75331115722656]}, "properties": {"stop_id": "15665", "stop_name": "Downsview Park Station - Southbound Platform"}}, {"type": "Feature", "geometry": {"type": "Point", "coordinates": [-79.37968444824219, 43.64584732055664]}, "properties": {"stop_id": "13816", "stop_name": "Union Station - Northbound Platform Towards Finch"}}, {"type": "Feature", "geometry": {"type": "Point", "coordinates": [-79.38648986816406, 43.650447845458984]}, "properties": {"stop_id": "13819", "stop_name": "Osgoode Station - Southbound Platform"}}, {"type": "Feature", "geometry": {"type": "Point", "coordinates": [-79.40479278564453, 43.66904830932617]}, "properties": {"stop_id": "13854", "stop_name": "Spadina Station - Southbound Platform"}}, {"type": "Feature", "geometry": {"type": "Point", "coordinates": [-79.41539001464844, 43.6839485168457]}, "properties": {"stop_id": "13830", "stop_name": "St Clair West Station - Southbound Platform"}}, {"type": "Feature", "geometry": {"type": "Point", "coordinates": [-79.38858795166016, 43.677249908447266]}, "properties": {"stop_id": "13804", "stop_name": "Rosedale Station - Northbound Platform"}}, {"type": "Feature", "geometry": {"type": "Point", "coordinates": [-79.39348602294922, 43.68864822387695]}, "properties": {"stop_id": "13800", "stop_name": "St Clair Station - Northbound Platform"}}, {"type": "Feature", "geometry": {"type": "Point", "coordinates": [-79.37958526611328, 43.653350830078125]}, "properties": {"stop_id": "13812", "stop_name": "Queen Station - Northbound Platform"}}, {"type": "Feature", "geometry": {"type": "Point", "coordinates": [-79.39788818359375, 43.668548583984375]}, "properties": {"stop_id": "13857", "stop_name": "St George Station - Southbound Platform"}}, {"type": "Feature", "geometry": {"type": "Point", "coordinates": [-79.44019317626953, 43.70804977416992]}, "properties": {"stop_id": "13834", "stop_name": "Glencairn Station - Southbound Platform"}}, {"type": "Feature", "geometry": {"type": "Point", "coordinates": [-79.38798522949219, 43.654048919677734]}, "properties": {"stop_id": "13822", "stop_name": "St Patrick Station - Southbound Platform"}}, {"type": "Feature", "geometry": {"type": "Point", "coordinates": [-79.39299011230469, 43.665950775146484]}, "properties": {"stop_id": "13826", "stop_name": "Museum Station - Southbound Platform"}}, {"type": "Feature", "geometry": {"type": "Point", "coordinates": [-79.40618896484375, 43.744449615478516]}, "properties": {"stop_id": "13791", "stop_name": "York Mills Station - Northbound Platform"}}, {"type": "Feature", "geometry": {"type": "Point", "coordinates": [-79.41259002685547, 43.76854705810547]}, "properties": {"stop_id": "13790", "stop_name": "North York Centre Station - Northbound Platform"}}, {"type": "Feature", "geometry": {"type": "Point", "coordinates": [-79.4024887084961, 43.72654724121094]}, "properties": {"stop_id": "13794", "stop_name": "Lawrence Station - Northbound Platform"}}, {"type": "Feature", "geometry": {"type": "Point", "coordinates": [-79.39839172363281, 43.706546783447266]}, "properties": {"stop_id": "13796", "stop_name": "Eglinton Station - Northbound Platform"}}, {"type": "Feature", "geometry": {"type": "Point", "coordinates": [-79.38118743896484, 43.65715026855469]}, "properties": {"stop_id": "13809", "stop_name": "TMU Station - Northbound Platform"}}, {"type": "Feature", "geometry": {"type": "Point", "coordinates": [-79.38449096679688, 43.64704895019531]}, "properties": {"stop_id": "13818", "stop_name": "St Andrew Station - Southbound Platform"}}, {"type": "Feature", "geometry": {"type": "Point", "coordinates": [-79.46199035644531, 43.7491455078125]}, "properties": {"stop_id": "14110", "stop_name": "Sheppard West Station - Southbound Platform"}}, {"type": "Feature", "geometry": {"type": "Point", "coordinates": [-79.41529083251953, 43.780845642089844]}, "properties": {"stop_id": "14944", "stop_name": "Finch Station - Subway Platform"}}, {"type": "Feature", "geometry": {"type": "Point", "coordinates": [-79.49111938476562, 43.764854431152344]}, "properties": {"stop_id": "15658", "stop_name": "Finch West Station - Southbound Platform"}}]}