{"type": "FeatureCollection", "features": [{"type": "Feature", "geometry": {"type": "Point", "coordinates": [-79.3348159790039, 43.78773880004883]}, "properties": {"stop_id": "6266", "stop_name": "Brian Ave at Van Horne Ave"}}, {"type": "Feature", "geometry": {"type": "Point", "coordinates": [-79.3489990234375, 43.779239654541016]}, "properties": {"stop_id": "1928", "stop_name": "Don Mills Rd at Esterbrooke Ave"}}, {"type": "Feature", "geometry": {"type": "Point", "coordinates": [-79.34688568115234, 43.77579879760742]}, "properties": {"stop_id": "15330", "stop_name": "Don Mills Station"}}, {"type": "Feature", "geometry": {"type": "Point", "coordinates": [-79.33992004394531, 43.78700256347656]}, "properties": {"stop_id": "7386", "stop_name": "Van Horne Ave at Edmonton Dr"}}, {"type": "Feature", "geometry": {"type": "Point", "coordinates": [-79.33747863769531, 43.78754425048828]}, "properties": {"stop_id": "7394", "stop_name": "Van Horne Ave at Lucifer Dr"}}, {"type": "Feature", "geometry": {"type": "Point", "coordinates": [-79.34514617919922, 43.78660202026367]}, "properties": {"stop_id": "7392", "stop_name": "Van Horne Ave at Kingslake Rd"}}, {"type": "Feature", "geometry": {"type": "Point", "coordinates": [-79.3477783203125, 43.787803649902344]}, "properties": {"stop_id": "7389", "stop_name": "Van Horne Ave at Houston Cres (West) West Side"}}, {"type": "Feature", "geometry": {"type": "Point", "coordinates": [-79.35232543945312, 43.782310485839844]}, "properties": {"stop_id": "13422", "stop_name": "2980 Don Mills Rd"}}, {"type": "Feature", "geometry": {"type": "Point", "coordinates": [-79.35308074951172, 43.786746978759766]}, "properties": {"stop_id": "16485", "stop_name": "Don Mills Rd at Van Horne Ave South Side"}}, {"type": "Feature", "geometry": {"type": "Point", "coordinates": [-79.35360717773438, 43.78520584106445]}, "properties": {"stop_id": "16758", "stop_name": "Don Mills Rd at Walkway to O'Shea Crescent"}}, {"type": "Feature", "geometry": {"type": "Point", "coordinates": [-79.34947967529297, 43.78806686401367]}, "properties": {"stop_id": "7388", "stop_name": "Van Horne Ave at Hobart Dr"}}]}