{"type": "FeatureCollection", "features": [{"type": "Feature", "geometry": {"type": "Point", "coordinates": [-79.35714721679688, 43.683555603027344]}, "properties": {"stop_id": "659", "stop_name": "Broadview Ave at Pottery Rd South Side"}}, {"type": "Feature", "geometry": {"type": "Point", "coordinates": [-79.3504638671875, 43.693359375]}, "properties": {"stop_id": "5988", "stop_name": "Pape Ave at O'Connor Dr"}}, {"type": "Feature", "geometry": {"type": "Point", "coordinates": [-79.33035278320312, 43.71162033081055]}, "properties": {"stop_id": "3634", "stop_name": "Gateway Blvd South Side at Sunny Glenway East Side"}}, {"type": "Feature", "geometry": {"type": "Point", "coordinates": [-79.34944915771484, 43.69683837890625]}, "properties": {"stop_id": "16696", "stop_name": "Pape Ave at Hopedale Ave"}}, {"type": "Feature", "geometry": {"type": "Point", "coordinates": [-79.32850646972656, 43.72908401489258]}, "properties": {"stop_id": "11230", "stop_name": "Concorde Pl at Concorde Gate South Side"}}, {"type": "Feature", "geometry": {"type": "Point", "coordinates": [-79.32622528076172, 43.725276947021484]}, "properties": {"stop_id": "16664", "stop_name": "Wynford Dr at Eglinton Ave East Access Ramp"}}, {"type": "Feature", "geometry": {"type": "Point", "coordinates": [-79.3515625, 43.70354461669922]}, "properties": {"stop_id": "12127", "stop_name": "Overlea Blvd at Leaside Park Dr"}}, {"type": "Feature", "geometry": {"type": "Point", "coordinates": [-79.33659362792969, 43.723388671875]}, "properties": {"stop_id": "4725", "stop_name": "Wynford Dr at Gervais Dr"}}, {"type": "Feature", "geometry": {"type": "Point", "coordinates": [-79.3301773071289, 43.716121673583984]}, "properties": {"stop_id": "3474", "stop_name": "Deauville Lane at Grenoble Dr South Side"}}, {"type": "Feature", "geometry": {"type": "Point", "coordinates": [-79.34626770019531, 43.706974029541016]}, "properties": {"stop_id": "2977", "stop_name": "46 Overlea Blvd"}}, {"type": "Feature", "geometry": {"type": "Point", "coordinates": [-79.32823181152344, 43.71549606323242]}, "properties": {"stop_id": "3693", "stop_name": "Grenoble Dr at Vendome Pl"}}, {"type": "Feature", "geometry": {"type": "Point", "coordinates": [-79.35249328613281, 43.70155715942383]}, "properties": {"stop_id": "2927", "stop_name": "Millwood Rd at Overlea Blvd South Side"}}, {"type": "Feature", "geometry": {"type": "Point", "coordinates": [-79.32829284667969, 43.727943420410156]}, "properties": {"stop_id": "11260", "stop_name": "Concorde Pl at McDonald's Pl"}}, {"type": "Feature", "geometry": {"type": "Point", "coordinates": [-79.33039855957031, 43.71867370605469]}, "properties": {"stop_id": "4633", "stop_name": "St Dennis Dr at Deauville Lane"}}, {"type": "Feature", "geometry": {"type": "Point", "coordinates": [-79.33834075927734, 43.72309875488281]}, "properties": {"stop_id": "4720", "stop_name": "Wynford Dr at Don Mills Rd East Side"}}, {"type": "Feature", "geometry": {"type": "Point", "coordinates": [-79.33411407470703, 43.710174560546875]}, "properties": {"stop_id": "3689", "stop_name": "Gateway Blvd at Don Mills Rd"}}, {"type": "Feature", "geometry": {"type": "Point", "coordinates": [-79.33372497558594, 43.725059509277344]}, "properties": {"stop_id": "4724", "stop_name": "Wynford Dr at Sakura Way"}}, {"type": "Feature", "geometry": {"type": "Point", "coordinates": [-79.35548400878906, 43.68818283081055]}, "properties": {"stop_id": "653", "stop_name": "Broadview Ave at Cosburn Ave South Side"}}, {"type": "Feature", "geometry": {"type": "Point", "coordinates": [-79.34420013427734, 43.70745849609375]}, "properties": {"stop_id": "4518", "stop_name": "Overlea Blvd at Thorncliffe Park Dr (East) West Side"}}, {"type": "Feature", "geometry": {"type": "Point", "coordinates": [-79.358154296875, 43.67974853515625]}, "properties": {"stop_id": "649", "stop_name": "876 Broadview Ave"}}, {"type": "Feature", "geometry": {"type": "Point", "coordinates": [-79.33169555664062, 43.71068572998047]}, "properties": {"stop_id": "9508", "stop_name": "Gateway Blvd at Sunny Glenway (West) West Side"}}, {"type": "Feature", "geometry": {"type": "Point", "coordinates": [-79.32491302490234, 43.72379684448242]}, "properties": {"stop_id": "11338", "stop_name": "195-205-215 Wynford Dr"}}, {"type": "Feature", "geometry": {"type": "Point", "coordinates": [-79.33539581298828, 43.70980453491211]}, "properties": {"stop_id": "2978", "stop_name": "Overlea Blvd at Don Mills Rd West Side"}}, {"type": "Feature", "geometry": {"type": "Point", "coordinates": [-79.35804748535156, 43.67700958251953]}, "properties": {"stop_id": "14635", "stop_name": "Broadview Station"}}, {"type": "Feature", "geometry": {"type": "Point", "coordinates": [-79.35772705078125, 43.681396484375]}, "properties": {"stop_id": "651", "stop_name": "Broadview Ave at Chester Hill Rd"}}, {"type": "Feature", "geometry": {"type": "Point", "coordinates": [-79.3553695678711, 43.69062805175781]}, "properties": {"stop_id": "16621", "stop_name": "Broadview Ave at Don Valley Dr"}}, {"type": "Feature", "geometry": {"type": "Point", "coordinates": [-79.35847473144531, 43.67852020263672]}, "properties": {"stop_id": "660", "stop_name": "Broadview Ave at Pretoria Ave"}}, {"type": "Feature", "geometry": {"type": "Point", "coordinates": [-79.33108520507812, 43.71771240234375]}, "properties": {"stop_id": "3475", "stop_name": "Deauville Lane at St Dennis Dr South Side"}}, {"type": "Feature", "geometry": {"type": "Point", "coordinates": [-79.32691955566406, 43.71314239501953]}, "properties": {"stop_id": "9141", "stop_name": "Grenoble Dr at Spanbridge Rd"}}, {"type": "Feature", "geometry": {"type": "Point", "coordinates": [-79.34173583984375, 43.70804214477539]}, "properties": {"stop_id": "2986", "stop_name": "Overlea Blvd at William Morgan Dr West Side"}}, {"type": "Feature", "geometry": {"type": "Point", "coordinates": [-79.3274917602539, 43.726234436035156]}, "properties": {"stop_id": "4731", "stop_name": "Wynford Dr at Wynford Heights Cres South Side"}}, {"type": "Feature", "geometry": {"type": "Point", "coordinates": [-79.35200500488281, 43.69294738769531]}, "properties": {"stop_id": "16623", "stop_name": "O'Connor Dr at Hopedale Ave"}}, {"type": "Feature", "geometry": {"type": "Point", "coordinates": [-79.32798767089844, 43.71961975097656]}, "properties": {"stop_id": "4728", "stop_name": "St Dennis Dr at Linkwood Lane"}}, {"type": "Feature", "geometry": {"type": "Point", "coordinates": [-79.32825469970703, 43.730037689208984]}, "properties": {"stop_id": "11229", "stop_name": "Concorde Pl at Concorde Pl Cul De Sac"}}, {"type": "Feature", "geometry": {"type": "Point", "coordinates": [-79.349853515625, 43.705196380615234]}, "properties": {"stop_id": "8012", "stop_name": "Overlea Blvd at Thorncliffe Park Dr (West)"}}, {"type": "Feature", "geometry": {"type": "Point", "coordinates": [-79.33137512207031, 43.72645568847656]}, "properties": {"stop_id": "4729", "stop_name": "Opposite 100 Wynford Dr"}}, {"type": "Feature", "geometry": {"type": "Point", "coordinates": [-79.35619354248047, 43.68647766113281]}, "properties": {"stop_id": "656", "stop_name": "Broadview Ave at Hillside Dr"}}, {"type": "Feature", "geometry": {"type": "Point", "coordinates": [-79.32913970947266, 43.726924896240234]}, "properties": {"stop_id": "4726", "stop_name": "123 Wynford Dr"}}, {"type": "Feature", "geometry": {"type": "Point", "coordinates": [-79.32816314697266, 43.72814178466797]}, "properties": {"stop_id": "11259", "stop_name": "1 and 3 Concorde Pl North Side"}}]}