{"type": "FeatureCollection", "features": [{"type": "Feature", "geometry": {"type": "Point", "coordinates": [-79.47025299072266, 43.786712646484375]}, "properties": {"stop_id": "7658", "stop_name": "Dufferin St at Steeles Ave West South Side"}}, {"type": "Feature", "geometry": {"type": "Point", "coordinates": [-79.4669418334961, 43.76800537109375]}, "properties": {"stop_id": "12176", "stop_name": "Dufferin St at Finch Ave West South Side"}}, {"type": "Feature", "geometry": {"type": "Point", "coordinates": [-79.4625473022461, 43.74953079223633]}, "properties": {"stop_id": "14652", "stop_name": "Sheppard West Station"}}, {"type": "Feature", "geometry": {"type": "Point", "coordinates": [-79.46857452392578, 43.77528381347656]}, "properties": {"stop_id": "7655", "stop_name": "Dufferin St at Martin Ross Ave"}}, {"type": "Feature", "geometry": {"type": "Point", "coordinates": [-79.46553039550781, 43.76186752319336]}, "properties": {"stop_id": "9417", "stop_name": "Dufferin St at Steeprock Dr"}}, {"type": "Feature", "geometry": {"type": "Point", "coordinates": [-79.46792602539062, 43.772159576416016]}, "properties": {"stop_id": "978", "stop_name": "4610 Dufferin St"}}, {"type": "Feature", "geometry": {"type": "Point", "coordinates": [-79.4692611694336, 43.77808380126953]}, "properties": {"stop_id": "7661", "stop_name": "Dufferin St at Supertest Rd"}}, {"type": "Feature", "geometry": {"type": "Point", "coordinates": [-79.46517181396484, 43.75798416137695]}, "properties": {"stop_id": "14835", "stop_name": "William R Allen Rd at Rimrock Rd"}}, {"type": "Feature", "geometry": {"type": "Point", "coordinates": [-79.46633911132812, 43.765560150146484]}, "properties": {"stop_id": "11342", "stop_name": "4400 Dufferin St"}}, {"type": "Feature", "geometry": {"type": "Point", "coordinates": [-79.47027587890625, 43.784000396728516]}, "properties": {"stop_id": "7662", "stop_name": "Dufferin St at Gerry Fitzgerald Dr"}}, {"type": "Feature", "geometry": {"type": "Point", "coordinates": [-79.4671859741211, 43.76917266845703]}, "properties": {"stop_id": "981", "stop_name": "Dufferin St at Finch Ave West"}}, {"type": "Feature", "geometry": {"type": "Point", "coordinates": [-79.4699935913086, 43.78104782104492]}, "properties": {"stop_id": "7649", "stop_name": "Dufferin St at Dolomite Dr"}}]}