{"type": "FeatureCollection", "features": [{"type": "Feature", "geometry": {"type": "Point", "coordinates": [-79.49974822998047, 43.76078796386719]}, "properties": {"stop_id": "8081", "stop_name": "Sentinel Rd at Finch Ave West"}}, {"type": "Feature", "geometry": {"type": "Point", "coordinates": [-79.4827651977539, 43.752994537353516]}, "properties": {"stop_id": "3113", "stop_name": "Sheppard Ave West at Tuscan Gate"}}, {"type": "Feature", "geometry": {"type": "Point", "coordinates": [-79.51121520996094, 43.772239685058594]}, "properties": {"stop_id": "14422", "stop_name": "The Pond Rd at Arboretum Lane - Sobeys Stadium"}}, {"type": "Feature", "geometry": {"type": "Point", "coordinates": [-79.49323272705078, 43.7488899230957]}, "properties": {"stop_id": "16727", "stop_name": "Sentinel Rd at Dovehouse Ave"}}, {"type": "Feature", "geometry": {"type": "Point", "coordinates": [-79.50103759765625, 43.76456069946289]}, "properties": {"stop_id": "8090", "stop_name": "Sentinel Rd at Murray Ross Pkwy"}}, {"type": "Feature", "geometry": {"type": "Point", "coordinates": [-79.49901580810547, 43.756988525390625]}, "properties": {"stop_id": "8086", "stop_name": "Sentinel Rd at Hucknall Rd (North)"}}, {"type": "Feature", "geometry": {"type": "Point", "coordinates": [-79.5089340209961, 43.776668548583984]}, "properties": {"stop_id": "15571", "stop_name": "Pioneer Village Station"}}, {"type": "Feature", "geometry": {"type": "Point", "coordinates": [-79.4805908203125, 43.75431823730469]}, "properties": {"stop_id": "3106", "stop_name": "Sheppard Ave West at Bakersfield St West Side - Downsview Park Station"}}, {"type": "Feature", "geometry": {"type": "Point", "coordinates": [-79.4693603515625, 43.75396728515625]}, "properties": {"stop_id": "6076", "stop_name": "Sheppard Ave West at Kodiak Cres (North)"}}, {"type": "Feature", "geometry": {"type": "Point", "coordinates": [-79.48883819580078, 43.744388580322266]}, "properties": {"stop_id": "13438", "stop_name": "1450 Sheppard Ave West"}}, {"type": "Feature", "geometry": {"type": "Point", "coordinates": [-79.46204376220703, 43.74919509887695]}, "properties": {"stop_id": "14655", "stop_name": "Sheppard West Station"}}, {"type": "Feature", "geometry": {"type": "Point", "coordinates": [-79.4940414428711, 43.75035858154297]}, "properties": {"stop_id": "9224", "stop_name": "Sentinel Rd at Stilecroft Dr (North)"}}, {"type": "Feature", "geometry": {"type": "Point", "coordinates": [-79.48294830322266, 43.748435974121094]}, "properties": {"stop_id": "6071", "stop_name": "Sheppard Ave West at John Drury Dr"}}, {"type": "Feature", "geometry": {"type": "Point", "coordinates": [-79.48609924316406, 43.744972229003906]}, "properties": {"stop_id": "6072", "stop_name": "Sheppard Ave West at Keele St"}}, {"type": "Feature", "geometry": {"type": "Point", "coordinates": [-79.46390533447266, 43.75025177001953]}, "properties": {"stop_id": "4598", "stop_name": "Sheppard Ave West at William R Allen Rd West Side"}}, {"type": "Feature", "geometry": {"type": "Point", "coordinates": [-79.50045776367188, 43.76262283325195]}, "properties": {"stop_id": "8084", "stop_name": "Sentinel Rd at Fountainhead Rd North Side"}}, {"type": "Feature", "geometry": {"type": "Point", "coordinates": [-79.46260833740234, 43.75054168701172]}, "properties": {"stop_id": "7275", "stop_name": "Sheppard Ave West at Dufferin St - Sheppard West Station"}}, {"type": "Feature", "geometry": {"type": "Point", "coordinates": [-79.47380065917969, 43.755611419677734]}, "properties": {"stop_id": "3108", "stop_name": "Sheppard Ave West at Chesswood Dr"}}, {"type": "Feature", "geometry": {"type": "Point", "coordinates": [-79.49237823486328, 43.74592971801758]}, "properties": {"stop_id": "9222", "stop_name": "Sentinel Rd at Fredrick Mowat Lane"}}, {"type": "Feature", "geometry": {"type": "Point", "coordinates": [-79.49191284179688, 43.74419021606445]}, "properties": {"stop_id": "9221", "stop_name": "Sentinel Rd at Sheppard Ave West North Side"}}, {"type": "Feature", "geometry": {"type": "Point", "coordinates": [-79.49532318115234, 43.7515869140625]}, "properties": {"stop_id": "9225", "stop_name": "Sentinel Rd at Grandravine Dr"}}, {"type": "Feature", "geometry": {"type": "Point", "coordinates": [-79.49935913085938, 43.7537841796875]}, "properties": {"stop_id": "8088", "stop_name": "Sentinel Rd at Lamberton Blvd"}}, {"type": "Feature", "geometry": {"type": "Point", "coordinates": [-79.4669189453125, 43.75186538696289]}, "properties": {"stop_id": "4596", "stop_name": "Sheppard Ave West at Kodiak Cres (South)"}}, {"type": "Feature", "geometry": {"type": "Point", "coordinates": [-79.5009765625, 43.766937255859375]}, "properties": {"stop_id": "14284", "stop_name": "Sentinel Rd at Cook Rd"}}, {"type": "Feature", "geometry": {"type": "Point", "coordinates": [-79.50302124023438, 43.769981384277344]}, "properties": {"stop_id": "7763", "stop_name": "The Pond Rd at Sentinel Rd West Side"}}, {"type": "Feature", "geometry": {"type": "Point", "coordinates": [-79.51046752929688, 43.7777214050293]}, "properties": {"stop_id": "1601", "stop_name": "Steeles Ave West at Northwest Gate East Side"}}]}