{"type": "FeatureCollection", "features": [{"type": "Feature", "geometry": {"type": "Point", "coordinates": [-79.48397064208984, 43.75402069091797]}, "properties": {"stop_id": "4679", "stop_name": "Tuscan Gate at St Regis Cres (South) South Side"}}, {"type": "Feature", "geometry": {"type": "Point", "coordinates": [-79.50988006591797, 43.776939392089844]}, "properties": {"stop_id": "15575", "stop_name": "Pioneer Village Station"}}, {"type": "Feature", "geometry": {"type": "Point", "coordinates": [-79.50212097167969, 43.745887756347656]}, "properties": {"stop_id": "9218", "stop_name": "Arleta Ave at John Lindsay Crt"}}, {"type": "Feature", "geometry": {"type": "Point", "coordinates": [-79.51925659179688, 43.769161224365234]}, "properties": {"stop_id": "15620", "stop_name": "Shoreham Dr at Shoreham Crt West Side"}}, {"type": "Feature", "geometry": {"type": "Point", "coordinates": [-79.51690673828125, 43.775840759277344]}, "properties": {"stop_id": "11511", "stop_name": "Murray Ross Pkwy at Steeles Ave West South Side"}}, {"type": "Feature", "geometry": {"type": "Point", "coordinates": [-79.50159454345703, 43.743797302246094]}, "properties": {"stop_id": "9219", "stop_name": "Arleta Ave at Spenvalley Dr"}}, {"type": "Feature", "geometry": {"type": "Point", "coordinates": [-79.5105209350586, 43.74924850463867]}, "properties": {"stop_id": "2001", "stop_name": "Driftwood Ave at Grandravine Dr"}}, {"type": "Feature", "geometry": {"type": "Point", "coordinates": [-79.51632690429688, 43.7598876953125]}, "properties": {"stop_id": "2008", "stop_name": "Driftwood Ave at Wilmont Dr"}}, {"type": "Feature", "geometry": {"type": "Point", "coordinates": [-79.49532318115234, 43.7515869140625]}, "properties": {"stop_id": "9225", "stop_name": "Sentinel Rd at Grandravine Dr"}}, {"type": "Feature", "geometry": {"type": "Point", "coordinates": [-79.51908111572266, 43.765960693359375]}, "properties": {"stop_id": "2003", "stop_name": "Driftwood Ave at Jane St East Side"}}, {"type": "Feature", "geometry": {"type": "Point", "coordinates": [-79.51162719726562, 43.76561737060547]}, "properties": {"stop_id": "1997", "stop_name": "Driftwood Ave at Cobbler Cres (South)"}}, {"type": "Feature", "geometry": {"type": "Point", "coordinates": [-79.51416015625, 43.755584716796875]}, "properties": {"stop_id": "2010", "stop_name": "Driftwood Ave at Yewtree Blvd"}}, {"type": "Feature", "geometry": {"type": "Point", "coordinates": [-79.4940414428711, 43.75035858154297]}, "properties": {"stop_id": "9224", "stop_name": "Sentinel Rd at Stilecroft Dr (North)"}}, {"type": "Feature", "geometry": {"type": "Point", "coordinates": [-79.4804916381836, 43.754173278808594]}, "properties": {"stop_id": "15631", "stop_name": "Sheppard Ave West at Vitti St - Downsview Park Station"}}, {"type": "Feature", "geometry": {"type": "Point", "coordinates": [-79.50836181640625, 43.74816131591797]}, "properties": {"stop_id": "14053", "stop_name": "275 Grandravine Dr"}}, {"type": "Feature", "geometry": {"type": "Point", "coordinates": [-79.4917984008789, 43.7529296875]}, "properties": {"stop_id": "2662", "stop_name": "Grandravine Dr at Derrydown Rd"}}, {"type": "Feature", "geometry": {"type": "Point", "coordinates": [-79.5107650756836, 43.77791976928711]}, "properties": {"stop_id": "1602", "stop_name": "Steeles Ave West at Northwest Gate"}}, {"type": "Feature", "geometry": {"type": "Point", "coordinates": [-79.49237823486328, 43.74592971801758]}, "properties": {"stop_id": "9222", "stop_name": "Sentinel Rd at Fredrick Mowat Lane"}}, {"type": "Feature", "geometry": {"type": "Point", "coordinates": [-79.483154296875, 43.752899169921875]}, "properties": {"stop_id": "3151", "stop_name": "Tuscan Gate at Sheppard Ave West"}}, {"type": "Feature", "geometry": {"type": "Point", "coordinates": [-79.51394653320312, 43.772003173828125]}, "properties": {"stop_id": "15634", "stop_name": "Murray Ross Pkwy at Shoreham Dr"}}, {"type": "Feature", "geometry": {"type": "Point", "coordinates": [-79.46746826171875, 43.75193405151367]}, "properties": {"stop_id": "3109", "stop_name": "Sheppard Ave West at Yukon Lane"}}, {"type": "Feature", "geometry": {"type": "Point", "coordinates": [-79.5129165649414, 43.751705169677734]}, "properties": {"stop_id": "2011", "stop_name": "Driftwood Ave at Yorkwoods Gate"}}, {"type": "Feature", "geometry": {"type": "Point", "coordinates": [-79.49323272705078, 43.7488899230957]}, "properties": {"stop_id": "16727", "stop_name": "Sentinel Rd at Dovehouse Ave"}}, {"type": "Feature", "geometry": {"type": "Point", "coordinates": [-79.51213073730469, 43.76432800292969]}, "properties": {"stop_id": "2002", "stop_name": "Driftwood Ave at Hoover Cres"}}, {"type": "Feature", "geometry": {"type": "Point", "coordinates": [-79.5169677734375, 43.7620849609375]}, "properties": {"stop_id": "2006", "stop_name": "Driftwood Ave at Stong Crt"}}, {"type": "Feature", "geometry": {"type": "Point", "coordinates": [-79.48775482177734, 43.75462341308594]}, "properties": {"stop_id": "13925", "stop_name": "St Regis Cres at Keele St East Side"}}, {"type": "Feature", "geometry": {"type": "Point", "coordinates": [-79.49191284179688, 43.74419021606445]}, "properties": {"stop_id": "9221", "stop_name": "Sentinel Rd at Sheppard Ave West North Side"}}, {"type": "Feature", "geometry": {"type": "Point", "coordinates": [-79.51520538330078, 43.766990661621094]}, "properties": {"stop_id": "1998", "stop_name": "Driftwood Ave at Driftwood Crt"}}, {"type": "Feature", "geometry": {"type": "Point", "coordinates": [-79.51355743408203, 43.758182525634766]}, "properties": {"stop_id": "2000", "stop_name": "Driftwood Ave at Finch Ave West"}}, {"type": "Feature", "geometry": {"type": "Point", "coordinates": [-79.48553466796875, 43.754703521728516]}, "properties": {"stop_id": "3125", "stop_name": "53 St Regis Cres (South)"}}, {"type": "Feature", "geometry": {"type": "Point", "coordinates": [-79.49651336669922, 43.74246597290039]}, "properties": {"stop_id": "6090", "stop_name": "Sheppard Ave West at Downsview Dells Park"}}, {"type": "Feature", "geometry": {"type": "Point", "coordinates": [-79.48860931396484, 43.75187683105469]}, "properties": {"stop_id": "2669", "stop_name": "Grandravine Dr at Keele St"}}, {"type": "Feature", "geometry": {"type": "Point", "coordinates": [-79.51526641845703, 43.7633056640625]}, "properties": {"stop_id": "2004", "stop_name": "Driftwood Ave at Laskay Cres"}}, {"type": "Feature", "geometry": {"type": "Point", "coordinates": [-79.50664520263672, 43.74751663208008]}, "properties": {"stop_id": "9217", "stop_name": "Arleta Ave at Medal Lane"}}, {"type": "Feature", "geometry": {"type": "Point", "coordinates": [-79.46243286132812, 43.749210357666016]}, "properties": {"stop_id": "14660", "stop_name": "Sheppard West Station"}}, {"type": "Feature", "geometry": {"type": "Point", "coordinates": [-79.47459411621094, 43.75539779663086]}, "properties": {"stop_id": "7271", "stop_name": "Sheppard Ave West at Chesswood Dr"}}]}