{"type": "FeatureCollection", "features": [{"type": "Feature", "geometry": {"type": "Point", "coordinates": [-79.4384536743164, 43.732086181640625]}, "properties": {"stop_id": "6618", "stop_name": "Neptune Dr at Rajah St"}}, {"type": "Feature", "geometry": {"type": "Point", "coordinates": [-79.44135284423828, 43.719642639160156]}, "properties": {"stop_id": "6389", "stop_name": "Flemington Rd at Varna Dr"}}, {"type": "Feature", "geometry": {"type": "Point", "coordinates": [-79.43340301513672, 43.731285095214844]}, "properties": {"stop_id": "6613", "stop_name": "Neptune Dr at Bathurst St"}}, {"type": "Feature", "geometry": {"type": "Point", "coordinates": [-79.4404067993164, 43.70039367675781]}, "properties": {"stop_id": "6558", "stop_name": "Marlee Ave at Whitmore Ave"}}, {"type": "Feature", "geometry": {"type": "Point", "coordinates": [-79.43584442138672, 43.699302673339844]}, "properties": {"stop_id": "14682", "stop_name": "Cedarvale Station"}}, {"type": "Feature", "geometry": {"type": "Point", "coordinates": [-79.44629669189453, 43.7149658203125]}, "properties": {"stop_id": "6545", "stop_name": "Marlee Ave at Lawrence Ave West South Side"}}, {"type": "Feature", "geometry": {"type": "Point", "coordinates": [-79.44325256347656, 43.71945571899414]}, "properties": {"stop_id": "6385", "stop_name": "Flemington Rd at Replin Rd East Side"}}, {"type": "Feature", "geometry": {"type": "Point", "coordinates": [-79.44451904296875, 43.710514068603516]}, "properties": {"stop_id": "6544", "stop_name": "Marlee Ave at Glengrove Ave South Side"}}, {"type": "Feature", "geometry": {"type": "Point", "coordinates": [-79.44857025146484, 43.72288513183594]}, "properties": {"stop_id": "6390", "stop_name": "Flemington Rd at Ranee Ave South Side"}}, {"type": "Feature", "geometry": {"type": "Point", "coordinates": [-79.44184875488281, 43.70392990112305]}, "properties": {"stop_id": "6549", "stop_name": "Marlee Ave at Ridelle Ave"}}, {"type": "Feature", "geometry": {"type": "Point", "coordinates": [-79.44390869140625, 43.71562957763672]}, "properties": {"stop_id": "14732", "stop_name": "Lawrence West Station"}}, {"type": "Feature", "geometry": {"type": "Point", "coordinates": [-79.43357849121094, 43.733131408691406]}, "properties": {"stop_id": "6421", "stop_name": "Hotspur Rd at Bathurst St West Side"}}, {"type": "Feature", "geometry": {"type": "Point", "coordinates": [-79.4395980834961, 43.719444274902344]}, "properties": {"stop_id": "7397", "stop_name": "Varna Dr at Tundra Lane"}}, {"type": "Feature", "geometry": {"type": "Point", "coordinates": [-79.44835662841797, 43.719112396240234]}, "properties": {"stop_id": "6382", "stop_name": "Flemington Rd at Blossomfield Dr"}}, {"type": "Feature", "geometry": {"type": "Point", "coordinates": [-79.44940948486328, 43.72093963623047]}, "properties": {"stop_id": "6388", "stop_name": "Flemington Rd at Stockton Rd"}}, {"type": "Feature", "geometry": {"type": "Point", "coordinates": [-79.44268035888672, 43.724613189697266]}, "properties": {"stop_id": "6929", "stop_name": "Ranee Ave at Mikado Ave"}}, {"type": "Feature", "geometry": {"type": "Point", "coordinates": [-79.4430160522461, 43.706878662109375]}, "properties": {"stop_id": "6554", "stop_name": "Marlee Ave at Viewmount Ave South Side"}}, {"type": "Feature", "geometry": {"type": "Point", "coordinates": [-79.44120025634766, 43.729713439941406]}, "properties": {"stop_id": "6611", "stop_name": "150 Neptune Dr"}}, {"type": "Feature", "geometry": {"type": "Point", "coordinates": [-79.43785095214844, 43.717830657958984]}, "properties": {"stop_id": "7405", "stop_name": "Varna Dr at Lawrence Ave West"}}, {"type": "Feature", "geometry": {"type": "Point", "coordinates": [-79.43968963623047, 43.72533416748047]}, "properties": {"stop_id": "6236", "stop_name": "Ameer Ave at Ranee Ave"}}, {"type": "Feature", "geometry": {"type": "Point", "coordinates": [-79.4455795288086, 43.71314239501953]}, "properties": {"stop_id": "6556", "stop_name": "Marlee Ave at Wenderly Dr South Side"}}, {"type": "Feature", "geometry": {"type": "Point", "coordinates": [-79.44390106201172, 43.709075927734375]}, "properties": {"stop_id": "6542", "stop_name": "Marlee Ave at Glencairn Ave"}}, {"type": "Feature", "geometry": {"type": "Point", "coordinates": [-79.44253540039062, 43.70564651489258]}, "properties": {"stop_id": "6553", "stop_name": "Marlee Ave at Stayner Ave"}}, {"type": "Feature", "geometry": {"type": "Point", "coordinates": [-79.44120025634766, 43.70231246948242]}, "properties": {"stop_id": "6551", "stop_name": "Marlee Ave at Roselawn Ave"}}, {"type": "Feature", "geometry": {"type": "Point", "coordinates": [-79.44673919677734, 43.718814849853516]}, "properties": {"stop_id": "13622", "stop_name": "Flemington Rd at Dynasty Lane"}}, {"type": "Feature", "geometry": {"type": "Point", "coordinates": [-79.43559265136719, 43.73250198364258]}, "properties": {"stop_id": "6422", "stop_name": "Hotspur Rd at Neptune Dr"}}, {"type": "Feature", "geometry": {"type": "Point", "coordinates": [-79.44805145263672, 43.72346496582031]}, "properties": {"stop_id": "6932", "stop_name": "Ranee Ave at Flemington Rd - Yorkdale Station"}}, {"type": "Feature", "geometry": {"type": "Point", "coordinates": [-79.4397964477539, 43.69889450073242]}, "properties": {"stop_id": "6547", "stop_name": "Marlee Ave at Livingstone Ave"}}, {"type": "Feature", "geometry": {"type": "Point", "coordinates": [-79.44035339355469, 43.7270393371582]}, "properties": {"stop_id": "6240", "stop_name": "Ameer Ave at Sultana Ave"}}, {"type": "Feature", "geometry": {"type": "Point", "coordinates": [-79.44103240966797, 43.71685791015625]}, "properties": {"stop_id": "5408", "stop_name": "Lawrence Ave West at Shermount Ave"}}, {"type": "Feature", "geometry": {"type": "Point", "coordinates": [-79.44074249267578, 43.72793960571289]}, "properties": {"stop_id": "6235", "stop_name": "Ameer Ave at Baycrest Ave"}}, {"type": "Feature", "geometry": {"type": "Point", "coordinates": [-79.44369506835938, 43.71567153930664]}, "properties": {"stop_id": "14731", "stop_name": "Lawrence West Station"}}]}