{"type": "FeatureCollection", "features": [{"type": "Feature", "geometry": {"type": "Point", "coordinates": [-79.39258575439453, 43.78789138793945]}, "properties": {"stop_id": "315", "stop_name": "Bayview Ave at Ruddington Dr"}}, {"type": "Feature", "geometry": {"type": "Point", "coordinates": [-79.37776947021484, 43.721378326416016]}, "properties": {"stop_id": "11996", "stop_name": "Wellness Way at Hospital Rd - Odette Cancer Centre"}}, {"type": "Feature", "geometry": {"type": "Point", "coordinates": [-79.3930892944336, 43.79043960571289]}, "properties": {"stop_id": "313", "stop_name": "3311 Bayview Ave"}}, {"type": "Feature", "geometry": {"type": "Point", "coordinates": [-79.3761978149414, 43.72257614135742]}, "properties": {"stop_id": "11247", "stop_name": "Raab Blvd at Hospital Rd West Side - K & L Wings"}}, {"type": "Feature", "geometry": {"type": "Point", "coordinates": [-79.3768539428711, 43.721778869628906]}, "properties": {"stop_id": "1729", "stop_name": "Hospital Rd at Wellness Way East Side - Sunnybrook Main Entrance"}}, {"type": "Feature", "geometry": {"type": "Point", "coordinates": [-79.38976287841797, 43.77482986450195]}, "properties": {"stop_id": "284", "stop_name": "Bayview Ave at Citation Dr North Side"}}, {"type": "Feature", "geometry": {"type": "Point", "coordinates": [-79.38184356689453, 43.736778259277344]}, "properties": {"stop_id": "311", "stop_name": "Bayview Ave at Post Rd North Side"}}, {"type": "Feature", "geometry": {"type": "Point", "coordinates": [-79.38365936279297, 43.74599075317383]}, "properties": {"stop_id": "326", "stop_name": "Bayview Ave at Wilket Rd"}}, {"type": "Feature", "geometry": {"type": "Point", "coordinates": [-79.3879165649414, 43.76713943481445]}, "properties": {"stop_id": "317", "stop_name": "Bayview Ave at Sheppard Ave East North Side - Bayview Station"}}, {"type": "Feature", "geometry": {"type": "Point", "coordinates": [-79.3913803100586, 43.78221130371094]}, "properties": {"stop_id": "282", "stop_name": "Bayview Ave at Byng Ave North Side"}}, {"type": "Feature", "geometry": {"type": "Point", "coordinates": [-79.38920593261719, 43.77233123779297]}, "properties": {"stop_id": "302", "stop_name": "Bayview Ave at Hillcrest Ave"}}, {"type": "Feature", "geometry": {"type": "Point", "coordinates": [-79.39452362060547, 43.79700469970703]}, "properties": {"stop_id": "320", "stop_name": "3377 Bayview Ave"}}, {"type": "Feature", "geometry": {"type": "Point", "coordinates": [-79.39213562011719, 43.785614013671875]}, "properties": {"stop_id": "292", "stop_name": "Bayview Ave at Finch Ave East North Side"}}, {"type": "Feature", "geometry": {"type": "Point", "coordinates": [-79.37628173828125, 43.70899200439453]}, "properties": {"stop_id": "1730", "stop_name": "Bayview Ave at Parkhurst Blvd North Side"}}, {"type": "Feature", "geometry": {"type": "Point", "coordinates": [-79.39385223388672, 43.794029235839844]}, "properties": {"stop_id": "274", "stop_name": "Bayview Ave at Argonne Cres"}}, {"type": "Feature", "geometry": {"type": "Point", "coordinates": [-79.39686584472656, 43.6976318359375]}, "properties": {"stop_id": "14648", "stop_name": "Davisville Station"}}, {"type": "Feature", "geometry": {"type": "Point", "coordinates": [-79.37811279296875, 43.70208740234375]}, "properties": {"stop_id": "1871", "stop_name": "Davisville Ave at Cleveland St"}}, {"type": "Feature", "geometry": {"type": "Point", "coordinates": [-79.37745666503906, 43.71376037597656]}, "properties": {"stop_id": "16540", "stop_name": "Bayview Ave at Broadway Ave"}}, {"type": "Feature", "geometry": {"type": "Point", "coordinates": [-79.39085388183594, 43.779720306396484]}, "properties": {"stop_id": "280", "stop_name": "Bayview Ave at Burleigh Heights Dr North Side"}}, {"type": "Feature", "geometry": {"type": "Point", "coordinates": [-79.38980102539062, 43.699649810791016]}, "properties": {"stop_id": "1866", "stop_name": "Davisville Ave at Acacia Rd"}}, {"type": "Feature", "geometry": {"type": "Point", "coordinates": [-79.38216400146484, 43.73835754394531]}, "properties": {"stop_id": "278", "stop_name": "Bayview Ave at The Bridle Path"}}, {"type": "Feature", "geometry": {"type": "Point", "coordinates": [-79.3884506225586, 43.76927185058594]}, "properties": {"stop_id": "276", "stop_name": "Bayview Ave at Bayview Mews Lane"}}, {"type": "Feature", "geometry": {"type": "Point", "coordinates": [-79.37872314453125, 43.72085952758789]}, "properties": {"stop_id": "1713", "stop_name": "Bayview Ave at Wellness Way"}}, {"type": "Feature", "geometry": {"type": "Point", "coordinates": [-79.39044189453125, 43.77790069580078]}, "properties": {"stop_id": "306", "stop_name": "Bayview Ave at McKee Ave"}}, {"type": "Feature", "geometry": {"type": "Point", "coordinates": [-79.37944030761719, 43.72422790527344]}, "properties": {"stop_id": "9122", "stop_name": "Bayview Ave at Valleyanna Dr"}}, {"type": "Feature", "geometry": {"type": "Point", "coordinates": [-79.38318634033203, 43.743656158447266]}, "properties": {"stop_id": "324", "stop_name": "Bayview Ave at Tudor Gate North Side"}}, {"type": "Feature", "geometry": {"type": "Point", "coordinates": [-79.39200592041016, 43.69919204711914]}, "properties": {"stop_id": "1867", "stop_name": "Davisville Ave at Pailton Cres"}}, {"type": "Feature", "geometry": {"type": "Point", "coordinates": [-79.38250732421875, 43.74026870727539]}, "properties": {"stop_id": "285", "stop_name": "Bayview Ave at Country Lane"}}, {"type": "Feature", "geometry": {"type": "Point", "coordinates": [-79.38715362548828, 43.7001953125]}, "properties": {"stop_id": "1878", "stop_name": "Davisville Ave at Mt Pleasant Rd"}}, {"type": "Feature", "geometry": {"type": "Point", "coordinates": [-79.38343048095703, 43.70099639892578]}, "properties": {"stop_id": "1875", "stop_name": "Davisville Ave at Belle Ayre Blvd"}}, {"type": "Feature", "geometry": {"type": "Point", "coordinates": [-79.38600158691406, 43.75812530517578]}, "properties": {"stop_id": "294", "stop_name": "Bayview Ave at Forest Heights Blvd"}}, {"type": "Feature", "geometry": {"type": "Point", "coordinates": [-79.37802124023438, 43.717220306396484]}, "properties": {"stop_id": "1717", "stop_name": "Bayview Ave at Kilgour Rd North Side - CNIB"}}, {"type": "Feature", "geometry": {"type": "Point", "coordinates": [-79.39503479003906, 43.79906463623047]}, "properties": {"stop_id": "297", "stop_name": "Bayview Ave at Garnier Crt"}}, {"type": "Feature", "geometry": {"type": "Point", "coordinates": [-79.37469482421875, 43.70280456542969]}, "properties": {"stop_id": "1869", "stop_name": "Davisville Ave at Bayview Ave"}}, {"type": "Feature", "geometry": {"type": "Point", "coordinates": [-79.39619445800781, 43.69831848144531]}, "properties": {"stop_id": "1882", "stop_name": "Davisville Ave at Yonge St East Side"}}, {"type": "Feature", "geometry": {"type": "Point", "coordinates": [-79.37560272216797, 43.707183837890625]}, "properties": {"stop_id": "1722", "stop_name": "Bayview Ave at Fleming Cres North Side"}}, {"type": "Feature", "geometry": {"type": "Point", "coordinates": [-79.39344024658203, 43.792144775390625]}, "properties": {"stop_id": "286", "stop_name": "Bayview Ave at Cummer Ave"}}, {"type": "Feature", "geometry": {"type": "Point", "coordinates": [-79.38878631591797, 43.7704963684082]}, "properties": {"stop_id": "296", "stop_name": "Bayview Ave at Foxwarren Dr"}}, {"type": "Feature", "geometry": {"type": "Point", "coordinates": [-79.38479614257812, 43.752071380615234]}, "properties": {"stop_id": "301", "stop_name": "Bayview Ave at Heathcote Ave"}}, {"type": "Feature", "geometry": {"type": "Point", "coordinates": [-79.3807373046875, 43.70154571533203]}, "properties": {"stop_id": "1873", "stop_name": "Davisville Ave at Forman Ave"}}, {"type": "Feature", "geometry": {"type": "Point", "coordinates": [-79.37861633300781, 43.723602294921875]}, "properties": {"stop_id": "14510", "stop_name": "Wellness Way at Armistice Dr - Wellspring Centre"}}, {"type": "Feature", "geometry": {"type": "Point", "coordinates": [-79.39549255371094, 43.80105209350586]}, "properties": {"stop_id": "273", "stop_name": "Bayview Ave at Garnier Park"}}, {"type": "Feature", "geometry": {"type": "Point", "coordinates": [-79.37444305419922, 43.70415115356445]}, "properties": {"stop_id": "1728", "stop_name": "Bayview Ave at Millwood Rd"}}, {"type": "Feature", "geometry": {"type": "Point", "coordinates": [-79.3853759765625, 43.75473403930664]}, "properties": {"stop_id": "289", "stop_name": "Bayview Ave at Fife Rd"}}, {"type": "Feature", "geometry": {"type": "Point", "coordinates": [-79.3839340209961, 43.74785232543945]}, "properties": {"stop_id": "328", "stop_name": "Bayview Ave at York Mills Rd"}}, {"type": "Feature", "geometry": {"type": "Point", "coordinates": [-79.3769302368164, 43.710933685302734]}, "properties": {"stop_id": "1721", "stop_name": "Bayview Ave at Eglinton Ave East"}}, {"type": "Feature", "geometry": {"type": "Point", "coordinates": [-79.3815689086914, 43.72726821899414]}, "properties": {"stop_id": "1726", "stop_name": "Bayview Ave at Lawrence Ave East - York University Glendon Campus"}}, {"type": "Feature", "geometry": {"type": "Point", "coordinates": [-79.38127136230469, 43.73394775390625]}, "properties": {"stop_id": "298", "stop_name": "2395 Bayview Ave - Bob Rumball Centre For The Deaf"}}, {"type": "Feature", "geometry": {"type": "Point", "coordinates": [-79.3973388671875, 43.80343246459961]}, "properties": {"stop_id": "1254", "stop_name": "Steeles Ave East Loop at Bayview Ave"}}, {"type": "Feature", "geometry": {"type": "Point", "coordinates": [-79.37772369384766, 43.72147750854492]}, "properties": {"stop_id": "11997", "stop_name": "Wellness Way at Hospital Rd - Odette Cancer Centre"}}, {"type": "Feature", "geometry": {"type": "Point", "coordinates": [-79.38639831542969, 43.76042938232422]}, "properties": {"stop_id": "323", "stop_name": "Bayview Ave at Truman Rd"}}]}