{"type": "FeatureCollection", "features": [{"type": "Feature", "geometry": {"type": "Point", "coordinates": [-79.51696014404297, 43.629215240478516]}, "properties": {"stop_id": "2713", "stop_name": "Islington Ave at Ambleside Ave"}}, {"type": "Feature", "geometry": {"type": "Point", "coordinates": [-79.51028442382812, 43.61680221557617]}, "properties": {"stop_id": "13922", "stop_name": "791 Islington Ave"}}, {"type": "Feature", "geometry": {"type": "Point", "coordinates": [-79.51097869873047, 43.618202209472656]}, "properties": {"stop_id": "3787", "stop_name": "Islington Ave at Evans Ave"}}, {"type": "Feature", "geometry": {"type": "Point", "coordinates": [-79.51548767089844, 43.61172103881836]}, "properties": {"stop_id": "3722", "stop_name": "Horner Ave at Judson St"}}, {"type": "Feature", "geometry": {"type": "Point", "coordinates": [-79.51463317871094, 43.609554290771484]}, "properties": {"stop_id": "3709", "stop_name": "Toronto South Detention Centre"}}, {"type": "Feature", "geometry": {"type": "Point", "coordinates": [-79.52328491210938, 43.60654067993164]}, "properties": {"stop_id": "3725", "stop_name": "289 Horner Ave"}}, {"type": "Feature", "geometry": {"type": "Point", "coordinates": [-79.5287094116211, 43.605323791503906]}, "properties": {"stop_id": "3710", "stop_name": "Horner Ave at Belvia Rd"}}, {"type": "Feature", "geometry": {"type": "Point", "coordinates": [-79.52474975585938, 43.644813537597656]}, "properties": {"stop_id": "16045", "stop_name": "Islington Station"}}, {"type": "Feature", "geometry": {"type": "Point", "coordinates": [-79.54265594482422, 43.59640121459961]}, "properties": {"stop_id": "3384", "stop_name": "Brown's Line at Jellicoe Ave"}}, {"type": "Feature", "geometry": {"type": "Point", "coordinates": [-79.51473999023438, 43.624046325683594]}, "properties": {"stop_id": "2728", "stop_name": "Islington Ave at The Queensway North Side"}}, {"type": "Feature", "geometry": {"type": "Point", "coordinates": [-79.52682495117188, 43.605751037597656]}, "properties": {"stop_id": "3721", "stop_name": "Horner Ave at Fima Cres"}}, {"type": "Feature", "geometry": {"type": "Point", "coordinates": [-79.52117919921875, 43.639610290527344]}, "properties": {"stop_id": "2718", "stop_name": "Islington Ave at Bering Ave North Side"}}, {"type": "Feature", "geometry": {"type": "Point", "coordinates": [-79.54501342773438, 43.601524353027344]}, "properties": {"stop_id": "3383", "stop_name": "Brown's Line at Horner Ave"}}, {"type": "Feature", "geometry": {"type": "Point", "coordinates": [-79.53150939941406, 43.604679107666016]}, "properties": {"stop_id": "3716", "stop_name": "Horner Ave at Edilou Dr"}}, {"type": "Feature", "geometry": {"type": "Point", "coordinates": [-79.51593780517578, 43.62671661376953]}, "properties": {"stop_id": "2714", "stop_name": "Islington Ave at Athol Ave"}}, {"type": "Feature", "geometry": {"type": "Point", "coordinates": [-79.51985931396484, 43.63632583618164]}, "properties": {"stop_id": "2730", "stop_name": "Islington Ave at Saybrook Ave"}}, {"type": "Feature", "geometry": {"type": "Point", "coordinates": [-79.5208740234375, 43.60707473754883]}, "properties": {"stop_id": "3723", "stop_name": "Horner Ave at Kipling Ave"}}, {"type": "Feature", "geometry": {"type": "Point", "coordinates": [-79.5123291015625, 43.61278533935547]}, "properties": {"stop_id": "3950", "stop_name": "Judson St at Magnificent Rd"}}, {"type": "Feature", "geometry": {"type": "Point", "coordinates": [-79.54085540771484, 43.602596282958984]}, "properties": {"stop_id": "3707", "stop_name": "Horner Ave at Alderbrae Ave"}}, {"type": "Feature", "geometry": {"type": "Point", "coordinates": [-79.53581237792969, 43.60374450683594]}, "properties": {"stop_id": "3714", "stop_name": "Horner Ave at Delta St East Side"}}, {"type": "Feature", "geometry": {"type": "Point", "coordinates": [-79.51889038085938, 43.634117126464844]}, "properties": {"stop_id": "2726", "stop_name": "Islington Ave at Norseman St"}}, {"type": "Feature", "geometry": {"type": "Point", "coordinates": [-79.53387451171875, 43.604156494140625]}, "properties": {"stop_id": "3705", "stop_name": "Horner Ave at Thirtieth St"}}, {"type": "Feature", "geometry": {"type": "Point", "coordinates": [-79.5389633178711, 43.60304260253906]}, "properties": {"stop_id": "3711", "stop_name": "Horner Ave at Beta St"}}, {"type": "Feature", "geometry": {"type": "Point", "coordinates": [-79.53931427001953, 43.59326171875]}, "properties": {"stop_id": "3386", "stop_name": "Brown's Line at Lake Shore Blvd West North Side"}}, {"type": "Feature", "geometry": {"type": "Point", "coordinates": [-79.50839233398438, 43.61404037475586]}, "properties": {"stop_id": "3804", "stop_name": "Islington Ave at Judson St North Side"}}, {"type": "Feature", "geometry": {"type": "Point", "coordinates": [-79.51757049560547, 43.6307258605957]}, "properties": {"stop_id": "3849", "stop_name": "Islington Ave at Titan Rd"}}, {"type": "Feature", "geometry": {"type": "Point", "coordinates": [-79.52193450927734, 43.64141082763672]}, "properties": {"stop_id": "2733", "stop_name": "Islington Ave at Van Dusen Blvd"}}, {"type": "Feature", "geometry": {"type": "Point", "coordinates": [-79.54186248779297, 43.59246826171875]}, "properties": {"stop_id": "15428", "stop_name": "Lake Shore Blvd West at Fortieth St"}}, {"type": "Feature", "geometry": {"type": "Point", "coordinates": [-79.54395294189453, 43.599212646484375]}, "properties": {"stop_id": "15805", "stop_name": "Brown's Line at Woodbury Rd"}}, {"type": "Feature", "geometry": {"type": "Point", "coordinates": [-79.543701171875, 43.59210968017578]}, "properties": {"stop_id": "4435", "stop_name": "Long Branch Loop"}}, {"type": "Feature", "geometry": {"type": "Point", "coordinates": [-79.5431900024414, 43.60205078125]}, "properties": {"stop_id": "3726", "stop_name": "Horner Ave at Sheldon Ave"}}, {"type": "Feature", "geometry": {"type": "Point", "coordinates": [-79.51770782470703, 43.60771179199219]}, "properties": {"stop_id": "3719", "stop_name": "215 Horner Ave"}}, {"type": "Feature", "geometry": {"type": "Point", "coordinates": [-79.52359008789062, 43.645408630371094]}, "properties": {"stop_id": "9901", "stop_name": "Islington Ave at Bloor St West North Side"}}]}