{"type": "FeatureCollection", "features": [{"type": "Feature", "geometry": {"type": "Point", "coordinates": [-79.36849212646484, 43.64398956298828]}, "properties": {"stop_id": "15320", "stop_name": "Queens Quay East at Lower Jarvis St"}}, {"type": "Feature", "geometry": {"type": "Point", "coordinates": [-79.37547302246094, 43.64154815673828]}, "properties": {"stop_id": "1465", "stop_name": "Queens Quay West at Bay St East Side"}}, {"type": "Feature", "geometry": {"type": "Point", "coordinates": [-79.36567687988281, 43.64496612548828]}, "properties": {"stop_id": "15514", "stop_name": "Queens Quay East at Dockside Dr"}}, {"type": "Feature", "geometry": {"type": "Point", "coordinates": [-79.37781524658203, 43.64620590209961]}, "properties": {"stop_id": "16754", "stop_name": "1 Front St West - Union Station"}}, {"type": "Feature", "geometry": {"type": "Point", "coordinates": [-79.3503189086914, 43.64616775512695]}, "properties": {"stop_id": "16449", "stop_name": "Commissioners St at Munition St"}}, {"type": "Feature", "geometry": {"type": "Point", "coordinates": [-79.33573913574219, 43.652462005615234]}, "properties": {"stop_id": "11915", "stop_name": "Commissioners St at Carlaw Ave"}}, {"type": "Feature", "geometry": {"type": "Point", "coordinates": [-79.3612289428711, 43.64738464355469]}, "properties": {"stop_id": "15513", "stop_name": "Parliament St at Lake Shore Blvd East"}}, {"type": "Feature", "geometry": {"type": "Point", "coordinates": [-79.33019256591797, 43.656150817871094]}, "properties": {"stop_id": "851", "stop_name": "Lakeshore Garage"}}, {"type": "Feature", "geometry": {"type": "Point", "coordinates": [-79.3423843383789, 43.64952087402344]}, "properties": {"stop_id": "4898", "stop_name": "Commissioners St at Saulter St"}}, {"type": "Feature", "geometry": {"type": "Point", "coordinates": [-79.37738037109375, 43.6417350769043]}, "properties": {"stop_id": "254", "stop_name": "Bay St at Harbour St South Side - Jack Layton Ferry Terminal"}}, {"type": "Feature", "geometry": {"type": "Point", "coordinates": [-79.33797454833984, 43.65142059326172]}, "properties": {"stop_id": "4895", "stop_name": "Commissioners St at Logan Ave"}}, {"type": "Feature", "geometry": {"type": "Point", "coordinates": [-79.34442901611328, 43.64870071411133]}, "properties": {"stop_id": "16441", "stop_name": "Commissioners St at Don Roadway East Side"}}, {"type": "Feature", "geometry": {"type": "Point", "coordinates": [-79.35311889648438, 43.64495849609375]}, "properties": {"stop_id": "16436", "stop_name": "Commissioners St at Cherry St East Side"}}, {"type": "Feature", "geometry": {"type": "Point", "coordinates": [-79.3565902709961, 43.648372650146484]}, "properties": {"stop_id": "16433", "stop_name": "Cherry St at Lake Shore Blvd East South Side"}}, {"type": "Feature", "geometry": {"type": "Point", "coordinates": [-79.34705352783203, 43.64756393432617]}, "properties": {"stop_id": "4897", "stop_name": "75 Commissioners St"}}, {"type": "Feature", "geometry": {"type": "Point", "coordinates": [-79.33954620361328, 43.650779724121094]}, "properties": {"stop_id": "16486", "stop_name": "Commissioners St at Bouchette St East Side"}}, {"type": "Feature", "geometry": {"type": "Point", "coordinates": [-79.37899780273438, 43.645484924316406]}, "properties": {"stop_id": "246", "stop_name": "Bay St at Front St West South Side - Union Station"}}, {"type": "Feature", "geometry": {"type": "Point", "coordinates": [-79.37321472167969, 43.642356872558594]}, "properties": {"stop_id": "15087", "stop_name": "Queens Quay East at Freeland St"}}]}