{"type": "FeatureCollection", "features": [{"type": "Feature", "geometry": {"type": "Point", "coordinates": [-79.40496063232422, 43.74446105957031]}, "properties": {"stop_id": "11334", "stop_name": "York Mills Rd at Old York Mills Rd"}}, {"type": "Feature", "geometry": {"type": "Point", "coordinates": [-79.36752319335938, 43.7620735168457]}, "properties": {"stop_id": "6340", "stop_name": "24 Davean Dr"}}, {"type": "Feature", "geometry": {"type": "Point", "coordinates": [-79.38481903076172, 43.74801254272461]}, "properties": {"stop_id": "9069", "stop_name": "York Mills Rd at Bayview Ave West Side"}}, {"type": "Feature", "geometry": {"type": "Point", "coordinates": [-79.36860656738281, 43.76042175292969]}, "properties": {"stop_id": "6341", "stop_name": "Davean Dr at Bannatyne Dr"}}, {"type": "Feature", "geometry": {"type": "Point", "coordinates": [-79.3609619140625, 43.75651550292969]}, "properties": {"stop_id": "5452", "stop_name": "Leslie St at Kirkwood Rd"}}, {"type": "Feature", "geometry": {"type": "Point", "coordinates": [-79.39928436279297, 43.74492645263672]}, "properties": {"stop_id": "9074", "stop_name": "York Mills Rd at Old Yonge St"}}, {"type": "Feature", "geometry": {"type": "Point", "coordinates": [-79.36061096191406, 43.754947662353516]}, "properties": {"stop_id": "5441", "stop_name": "Leslie St at Farmstead Rd"}}, {"type": "Feature", "geometry": {"type": "Point", "coordinates": [-79.37030029296875, 43.75164031982422]}, "properties": {"stop_id": "7464", "stop_name": "York Mills Rd at Banbury Rd (West)"}}, {"type": "Feature", "geometry": {"type": "Point", "coordinates": [-79.36612701416016, 43.75920486450195]}, "properties": {"stop_id": "6242", "stop_name": "Bannatyne Dr at Beaverhall Dr"}}, {"type": "Feature", "geometry": {"type": "Point", "coordinates": [-79.37474822998047, 43.75069046020508]}, "properties": {"stop_id": "7473", "stop_name": "York Mills Rd at Sandfield Rd"}}, {"type": "Feature", "geometry": {"type": "Point", "coordinates": [-79.36837768554688, 43.76136016845703]}, "properties": {"stop_id": "6342", "stop_name": "Davean Dr at Dunlace Dr"}}, {"type": "Feature", "geometry": {"type": "Point", "coordinates": [-79.36436462402344, 43.758018493652344]}, "properties": {"stop_id": "6247", "stop_name": "Bannatyne Dr at Riderwood Dr"}}, {"type": "Feature", "geometry": {"type": "Point", "coordinates": [-79.36154174804688, 43.75859451293945]}, "properties": {"stop_id": "6246", "stop_name": "Bannatyne Dr at Leslie St"}}, {"type": "Feature", "geometry": {"type": "Point", "coordinates": [-79.39218139648438, 43.74641036987305]}, "properties": {"stop_id": "16701", "stop_name": "York Mills Rd at Birchwood Ave West Side"}}, {"type": "Feature", "geometry": {"type": "Point", "coordinates": [-79.36076354980469, 43.75300216674805]}, "properties": {"stop_id": "9077", "stop_name": "York Mills Rd at Leslie St West Side"}}, {"type": "Feature", "geometry": {"type": "Point", "coordinates": [-79.36526489257812, 43.75263977050781]}, "properties": {"stop_id": "7466", "stop_name": "York Mills Rd at Banbury Rd (East)"}}, {"type": "Feature", "geometry": {"type": "Point", "coordinates": [-79.40141296386719, 43.744468688964844]}, "properties": {"stop_id": "3265", "stop_name": "York Mills Rd at York Ridge Rd"}}, {"type": "Feature", "geometry": {"type": "Point", "coordinates": [-79.39635467529297, 43.745540618896484]}, "properties": {"stop_id": "7474", "stop_name": "York Mills Rd at Upper Highland Cres"}}, {"type": "Feature", "geometry": {"type": "Point", "coordinates": [-79.40658569335938, 43.745262145996094]}, "properties": {"stop_id": "14810", "stop_name": "York Mills Station"}}, {"type": "Feature", "geometry": {"type": "Point", "coordinates": [-79.37866973876953, 43.7498893737793]}, "properties": {"stop_id": "7469", "stop_name": "York Mills Rd at Harrison Rd"}}, {"type": "Feature", "geometry": {"type": "Point", "coordinates": [-79.39449310302734, 43.74595260620117]}, "properties": {"stop_id": "3255", "stop_name": "York Mills Rd at Cedarwood Ave West Side"}}, {"type": "Feature", "geometry": {"type": "Point", "coordinates": [-79.38887786865234, 43.74713134765625]}, "properties": {"stop_id": "3258", "stop_name": "York Mills Rd at Fenn Ave"}}, {"type": "Feature", "geometry": {"type": "Point", "coordinates": [-79.36461639404297, 43.76264953613281]}, "properties": {"stop_id": "6343", "stop_name": "Davean Dr at Woodsworth Rd West Side"}}]}