{"type": "FeatureCollection", "features": [{"type": "Feature", "geometry": {"type": "Point", "coordinates": [-79.22138214111328, 43.81953048706055]}, "properties": {"stop_id": "14559", "stop_name": "Morningside Ave at Finch Ave East"}}, {"type": "Feature", "geometry": {"type": "Point", "coordinates": [-79.26351928710938, 43.7324333190918]}, "properties": {"stop_id": "14709", "stop_name": "Kennedy Station - Platform A"}}, {"type": "Feature", "geometry": {"type": "Point", "coordinates": [-79.24575805664062, 43.73733901977539]}, "properties": {"stop_id": "2260", "stop_name": "Eglinton Ave East at Danforth Rd"}}, {"type": "Feature", "geometry": {"type": "Point", "coordinates": [-79.19462585449219, 43.789520263671875]}, "properties": {"stop_id": "2957", "stop_name": "Morningside Ave at Military Trail"}}, {"type": "Feature", "geometry": {"type": "Point", "coordinates": [-79.20486450195312, 43.749210357666016]}, "properties": {"stop_id": "11372", "stop_name": "Guildwood Pkwy at Kingston Rd"}}, {"type": "Feature", "geometry": {"type": "Point", "coordinates": [-79.1980209350586, 43.79792404174805]}, "properties": {"stop_id": "14188", "stop_name": "Morningside Ave at Cinemart Dr"}}, {"type": "Feature", "geometry": {"type": "Point", "coordinates": [-79.1894302368164, 43.77605056762695]}, "properties": {"stop_id": "2936", "stop_name": "350 Morningside Ave - West Hill Collegiate"}}, {"type": "Feature", "geometry": {"type": "Point", "coordinates": [-79.18794250488281, 43.77281951904297]}, "properties": {"stop_id": "2969", "stop_name": "Morningside Ave at Tefft Rd"}}, {"type": "Feature", "geometry": {"type": "Point", "coordinates": [-79.21154022216797, 43.81636047363281]}, "properties": {"stop_id": "9502", "stop_name": "Morningside Ave at Sewells Rd"}}, {"type": "Feature", "geometry": {"type": "Point", "coordinates": [-79.25799560546875, 43.73482131958008]}, "properties": {"stop_id": "15278", "stop_name": "Eglinton Ave East at Midland Ave"}}, {"type": "Feature", "geometry": {"type": "Point", "coordinates": [-79.22595977783203, 43.74177169799805]}, "properties": {"stop_id": "15902", "stop_name": "Eglinton Ave East at Mason Rd West Side"}}, {"type": "Feature", "geometry": {"type": "Point", "coordinates": [-79.1806869506836, 43.754974365234375]}, "properties": {"stop_id": "2939", "stop_name": "Morningside Ave at Cumber Ave"}}, {"type": "Feature", "geometry": {"type": "Point", "coordinates": [-79.20301818847656, 43.80902862548828]}, "properties": {"stop_id": "2956", "stop_name": "Morningside Ave at McLevin Ave"}}, {"type": "Feature", "geometry": {"type": "Point", "coordinates": [-79.23582458496094, 43.73955154418945]}, "properties": {"stop_id": "1040", "stop_name": "Eglinton Ave East at Torrance Rd West Side"}}, {"type": "Feature", "geometry": {"type": "Point", "coordinates": [-79.19670104980469, 43.795013427734375]}, "properties": {"stop_id": "15159", "stop_name": "Morningside Ave at Hwy 401 South Side - Wlkwy to Lampman Dr"}}, {"type": "Feature", "geometry": {"type": "Point", "coordinates": [-79.18270874023438, 43.759613037109375]}, "properties": {"stop_id": "2945", "stop_name": "Morningside Ave at Gardentree St South Side"}}, {"type": "Feature", "geometry": {"type": "Point", "coordinates": [-79.22193145751953, 43.74264144897461]}, "properties": {"stop_id": "2242", "stop_name": "Eglinton Ave East at Beachell St"}}, {"type": "Feature", "geometry": {"type": "Point", "coordinates": [-79.25308990478516, 43.735774993896484]}, "properties": {"stop_id": "1033", "stop_name": "Eglinton Ave East at Gilder Dr"}}, {"type": "Feature", "geometry": {"type": "Point", "coordinates": [-79.18714904785156, 43.750205993652344]}, "properties": {"stop_id": "2677", "stop_name": "Guildwood Pkwy at Forsythia Dr"}}, {"type": "Feature", "geometry": {"type": "Point", "coordinates": [-79.18582916259766, 43.766700744628906]}, "properties": {"stop_id": "14612", "stop_name": "Morningside Ave at Ling Rd"}}, {"type": "Feature", "geometry": {"type": "Point", "coordinates": [-79.19029235839844, 43.74950408935547]}, "properties": {"stop_id": "2683", "stop_name": "Guildwood Pkwy at Navarre Cres"}}, {"type": "Feature", "geometry": {"type": "Point", "coordinates": [-79.23260498046875, 43.740238189697266]}, "properties": {"stop_id": "15901", "stop_name": "Eglinton Ave East at Bellamy Rd North West Side - Eglinton GO Station"}}, {"type": "Feature", "geometry": {"type": "Point", "coordinates": [-79.19397735595703, 43.74872589111328]}, "properties": {"stop_id": "2679", "stop_name": "Guildwood Pkwy at Guild Park and Gardens West Side"}}, {"type": "Feature", "geometry": {"type": "Point", "coordinates": [-79.1993179321289, 43.80040740966797]}, "properties": {"stop_id": "2960", "stop_name": "Morningside Ave at Milner Ave"}}, {"type": "Feature", "geometry": {"type": "Point", "coordinates": [-79.1799545288086, 43.75331497192383]}, "properties": {"stop_id": "2947", "stop_name": "Morningside Ave at Guildwood Pkwy"}}, {"type": "Feature", "geometry": {"type": "Point", "coordinates": [-79.20169067382812, 43.747074127197266]}, "properties": {"stop_id": "16738", "stop_name": "Guildwood Pkwy at Rowatson Rd West Side"}}, {"type": "Feature", "geometry": {"type": "Point", "coordinates": [-79.26351165771484, 43.73222732543945]}, "properties": {"stop_id": "16453", "stop_name": "Kennedy Station Drop-off Platform"}}, {"type": "Feature", "geometry": {"type": "Point", "coordinates": [-79.18708801269531, 43.77070999145508]}, "properties": {"stop_id": "2951", "stop_name": "Morningside Ave at Kingston Rd"}}, {"type": "Feature", "geometry": {"type": "Point", "coordinates": [-79.19359588623047, 43.78547286987305]}, "properties": {"stop_id": "2943", "stop_name": "Morningside Ave at Ellesmere Rd"}}, {"type": "Feature", "geometry": {"type": "Point", "coordinates": [-79.18377685546875, 43.76203155517578]}, "properties": {"stop_id": "2938", "stop_name": "Morningside Ave at Coronation Dr"}}, {"type": "Feature", "geometry": {"type": "Point", "coordinates": [-79.19573211669922, 43.74835968017578]}, "properties": {"stop_id": "2675", "stop_name": "Guildwood Pkwy at Chancery Lane"}}, {"type": "Feature", "geometry": {"type": "Point", "coordinates": [-79.20661163330078, 43.81334686279297]}, "properties": {"stop_id": "2949", "stop_name": "Morningside Ave at John Stoner Dr"}}, {"type": "Feature", "geometry": {"type": "Point", "coordinates": [-79.2000732421875, 43.802146911621094]}, "properties": {"stop_id": "2967", "stop_name": "Morningside Ave at Sheppard Ave East"}}, {"type": "Feature", "geometry": {"type": "Point", "coordinates": [-79.21536254882812, 43.81882095336914]}, "properties": {"stop_id": "9500", "stop_name": "Morningside Ave at Old Finch Ave"}}, {"type": "Feature", "geometry": {"type": "Point", "coordinates": [-79.2382583618164, 43.739009857177734]}, "properties": {"stop_id": "2293", "stop_name": "Eglinton Ave East at McCowan Rd"}}, {"type": "Feature", "geometry": {"type": "Point", "coordinates": [-79.1829605102539, 43.751319885253906]}, "properties": {"stop_id": "2690", "stop_name": "Guildwood Pkwy at Scarcliff Gardens"}}, {"type": "Feature", "geometry": {"type": "Point", "coordinates": [-79.21234130859375, 43.74407958984375]}, "properties": {"stop_id": "2282", "stop_name": "Eglinton Ave East at Kingston Rd West Side"}}, {"type": "Feature", "geometry": {"type": "Point", "coordinates": [-79.20027160644531, 43.80340576171875]}, "properties": {"stop_id": "2929", "stop_name": "Opposite 1275 Morningside Ave"}}, {"type": "Feature", "geometry": {"type": "Point", "coordinates": [-79.20645904541016, 43.7494010925293]}, "properties": {"stop_id": "6486", "stop_name": "Kingston Rd at Cromwell Rd West Side"}}, {"type": "Feature", "geometry": {"type": "Point", "coordinates": [-79.18505859375, 43.76498794555664]}, "properties": {"stop_id": "14611", "stop_name": "Morningside Ave at Danzig St"}}, {"type": "Feature", "geometry": {"type": "Point", "coordinates": [-79.2654800415039, 43.733028411865234]}, "properties": {"stop_id": "1038", "stop_name": "North Service Rd at Eglinton Ave East"}}, {"type": "Feature", "geometry": {"type": "Point", "coordinates": [-79.20973205566406, 43.745784759521484]}, "properties": {"stop_id": "15905", "stop_name": "Kingston Rd at Scarborough Golf Club Rd West Side"}}, {"type": "Feature", "geometry": {"type": "Point", "coordinates": [-79.21548461914062, 43.74409484863281]}, "properties": {"stop_id": "2257", "stop_name": "Eglinton Ave East at Cedar Dr"}}, {"type": "Feature", "geometry": {"type": "Point", "coordinates": [-79.19141387939453, 43.78047561645508]}, "properties": {"stop_id": "2963", "stop_name": "Morningside Ave at Morningside Park"}}, {"type": "Feature", "geometry": {"type": "Point", "coordinates": [-79.21963500976562, 43.743167877197266]}, "properties": {"stop_id": "2288", "stop_name": "Eglinton Ave East at Markham Rd West Side"}}, {"type": "Feature", "geometry": {"type": "Point", "coordinates": [-79.20370483398438, 43.81059646606445]}, "properties": {"stop_id": "2971", "stop_name": "Morningside Ave at Walkway to McKnight Dr"}}, {"type": "Feature", "geometry": {"type": "Point", "coordinates": [-79.20128631591797, 43.80573654174805]}, "properties": {"stop_id": "2931", "stop_name": "Opposite 1315 Morningside Ave"}}, {"type": "Feature", "geometry": {"type": "Point", "coordinates": [-79.21395874023438, 43.81787872314453]}, "properties": {"stop_id": "9501", "stop_name": "Morningside Ave at Halfway Ave"}}, {"type": "Feature", "geometry": {"type": "Point", "coordinates": [-79.19914245605469, 43.747657775878906]}, "properties": {"stop_id": "2682", "stop_name": "Guildwood Pkwy at Livingston Rd"}}, {"type": "Feature", "geometry": {"type": "Point", "coordinates": [-79.18638610839844, 43.76858139038086]}, "properties": {"stop_id": "2953", "stop_name": "Morningside Ave at Lawrence Ave East"}}, {"type": "Feature", "geometry": {"type": "Point", "coordinates": [-79.19573974609375, 43.79216003417969]}, "properties": {"stop_id": "2961", "stop_name": "Morningside Ave at Tams Rd"}}]}