{"type": "FeatureCollection", "features": [{"type": "Feature", "geometry": {"type": "Point", "coordinates": [-79.45084381103516, 43.734710693359375]}, "properties": {"stop_id": "14802", "stop_name": "Wilson Station"}}, {"type": "Feature", "geometry": {"type": "Point", "coordinates": [-79.54845428466797, 43.729251861572266]}, "properties": {"stop_id": "11271", "stop_name": "Opposite 840 Tandridge Cres"}}, {"type": "Feature", "geometry": {"type": "Point", "coordinates": [-79.54727935791016, 43.72250747680664]}, "properties": {"stop_id": "14315", "stop_name": "Albion Rd at Shendale Dr"}}, {"type": "Feature", "geometry": {"type": "Point", "coordinates": [-79.50614166259766, 43.72138977050781]}, "properties": {"stop_id": "8856", "stop_name": "Wilson Ave at Epic Lane Rd"}}, {"type": "Feature", "geometry": {"type": "Point", "coordinates": [-79.51661682128906, 43.719261169433594]}, "properties": {"stop_id": "15755", "stop_name": "Wilson Ave at Beverly Hills Dr"}}, {"type": "Feature", "geometry": {"type": "Point", "coordinates": [-79.55799865722656, 43.73405075073242]}, "properties": {"stop_id": "6221", "stop_name": "Albion Rd at Calstock Dr"}}, {"type": "Feature", "geometry": {"type": "Point", "coordinates": [-79.55378723144531, 43.741275787353516]}, "properties": {"stop_id": "11570", "stop_name": "Thistle Down Blvd at Kenhill Dr"}}, {"type": "Feature", "geometry": {"type": "Point", "coordinates": [-79.5459976196289, 43.72895812988281]}, "properties": {"stop_id": "11265", "stop_name": "75 Tandridge Cres"}}, {"type": "Feature", "geometry": {"type": "Point", "coordinates": [-79.50033569335938, 43.722679138183594]}, "properties": {"stop_id": "8888", "stop_name": "Wilson Ave at William Cragg Dr"}}, {"type": "Feature", "geometry": {"type": "Point", "coordinates": [-79.5567398071289, 43.73781204223633]}, "properties": {"stop_id": "11573", "stop_name": "Thistle Down Blvd at Bentwick Cres (East)"}}, {"type": "Feature", "geometry": {"type": "Point", "coordinates": [-79.52350616455078, 43.71772003173828]}, "properties": {"stop_id": "8844", "stop_name": "Wilson Ave at Clayson Rd West Side"}}, {"type": "Feature", "geometry": {"type": "Point", "coordinates": [-79.54545593261719, 43.72125244140625]}, "properties": {"stop_id": "6217", "stop_name": "Albion Rd at Armel Crt"}}, {"type": "Feature", "geometry": {"type": "Point", "coordinates": [-79.51093292236328, 43.720550537109375]}, "properties": {"stop_id": "8879", "stop_name": "1700 Wilson Ave - Sheridan Mall"}}, {"type": "Feature", "geometry": {"type": "Point", "coordinates": [-79.55068969726562, 43.741390228271484]}, "properties": {"stop_id": "14959", "stop_name": "Thistle Down Blvd at Atwood Pl"}}, {"type": "Feature", "geometry": {"type": "Point", "coordinates": [-79.55620574951172, 43.73826217651367]}, "properties": {"stop_id": "11568", "stop_name": "Thistle Down Blvd at Thistle Down Blvd North Side"}}, {"type": "Feature", "geometry": {"type": "Point", "coordinates": [-79.468017578125, 43.73046112060547]}, "properties": {"stop_id": "8857", "stop_name": "Wilson Ave at Garratt Blvd"}}, {"type": "Feature", "geometry": {"type": "Point", "coordinates": [-79.55945587158203, 43.737098693847656]}, "properties": {"stop_id": "11574", "stop_name": "Thistle Down Blvd at Barkwin Dr West Side"}}, {"type": "Feature", "geometry": {"type": "Point", "coordinates": [-79.56079864501953, 43.73579406738281]}, "properties": {"stop_id": "11566", "stop_name": "Thistle Down Blvd at Albion Rd East Side"}}, {"type": "Feature", "geometry": {"type": "Point", "coordinates": [-79.46434020996094, 43.73129653930664]}, "properties": {"stop_id": "8870", "stop_name": "Wilson Ave at Lady York Ave"}}, {"type": "Feature", "geometry": {"type": "Point", "coordinates": [-79.5490493774414, 43.72740936279297]}, "properties": {"stop_id": "11266", "stop_name": "Tandridge Cres at Byng Ave"}}, {"type": "Feature", "geometry": {"type": "Point", "coordinates": [-79.55029296875, 43.725040435791016]}, "properties": {"stop_id": "6222", "stop_name": "Albion Rd at Elmhurst Dr"}}, {"type": "Feature", "geometry": {"type": "Point", "coordinates": [-79.53848266601562, 43.717594146728516]}, "properties": {"stop_id": "6233", "stop_name": "Albion Rd at Weston Rd West Side"}}, {"type": "Feature", "geometry": {"type": "Point", "coordinates": [-79.55135345458984, 43.72695541381836]}, "properties": {"stop_id": "11269", "stop_name": "Arcot Blvd at Albion Rd East Side"}}, {"type": "Feature", "geometry": {"type": "Point", "coordinates": [-79.51367950439453, 43.71992874145508]}, "properties": {"stop_id": "8850", "stop_name": "Wilson Ave at Dallner Rd"}}, {"type": "Feature", "geometry": {"type": "Point", "coordinates": [-79.55876159667969, 43.73722839355469]}, "properties": {"stop_id": "11567", "stop_name": "Thistle Down Blvd at Barkwin Dr East Side"}}, {"type": "Feature", "geometry": {"type": "Point", "coordinates": [-79.47140502929688, 43.72970962524414]}, "properties": {"stop_id": "8876", "stop_name": "Wilson Ave at Murray Rd"}}, {"type": "Feature", "geometry": {"type": "Point", "coordinates": [-79.45941925048828, 43.73214340209961]}, "properties": {"stop_id": "1656", "stop_name": "Wilson Ave at Dufferin St West Side"}}, {"type": "Feature", "geometry": {"type": "Point", "coordinates": [-79.47750091552734, 43.72833251953125]}, "properties": {"stop_id": "8851", "stop_name": "Wilson Ave at Dubray Ave"}}, {"type": "Feature", "geometry": {"type": "Point", "coordinates": [-79.48639678955078, 43.72581100463867]}, "properties": {"stop_id": "8833", "stop_name": "Wilson Ave at Agate Rd West Side"}}, {"type": "Feature", "geometry": {"type": "Point", "coordinates": [-79.54959869384766, 43.72804260253906]}, "properties": {"stop_id": "11270", "stop_name": "Tandridge Cres at Arcot Blvd North Side"}}, {"type": "Feature", "geometry": {"type": "Point", "coordinates": [-79.50839233398438, 43.7210693359375]}, "properties": {"stop_id": "8862", "stop_name": "Wilson Ave at Jane St"}}, {"type": "Feature", "geometry": {"type": "Point", "coordinates": [-79.52693939208984, 43.716949462890625]}, "properties": {"stop_id": "8854", "stop_name": "Wilson Ave at Wendell Ave"}}, {"type": "Feature", "geometry": {"type": "Point", "coordinates": [-79.55414581298828, 43.730648040771484]}, "properties": {"stop_id": "6219", "stop_name": "Albion Rd at Bankfield Dr"}}, {"type": "Feature", "geometry": {"type": "Point", "coordinates": [-79.54876708984375, 43.723751068115234]}, "properties": {"stop_id": "6225", "stop_name": "Albion Rd at Golfdown Dr West Side"}}, {"type": "Feature", "geometry": {"type": "Point", "coordinates": [-79.55253601074219, 43.73880386352539]}, "properties": {"stop_id": "11572", "stop_name": "Thistle Down Blvd at Bridgenorth Cres"}}, {"type": "Feature", "geometry": {"type": "Point", "coordinates": [-79.48173522949219, 43.726924896240234]}, "properties": {"stop_id": "8869", "stop_name": "Wilson Ave at Keele St"}}, {"type": "Feature", "geometry": {"type": "Point", "coordinates": [-79.49459075927734, 43.72393035888672]}, "properties": {"stop_id": "8881", "stop_name": "Wilson Ave at Ridge Rd West Side"}}, {"type": "Feature", "geometry": {"type": "Point", "coordinates": [-79.49705505371094, 43.723419189453125]}, "properties": {"stop_id": "8872", "stop_name": "Wilson Ave at Lexfield Ave West Side"}}, {"type": "Feature", "geometry": {"type": "Point", "coordinates": [-79.45511627197266, 43.73300552368164]}, "properties": {"stop_id": "13470", "stop_name": "Opposite 675 Wilson Ave"}}, {"type": "Feature", "geometry": {"type": "Point", "coordinates": [-79.53118896484375, 43.716007232666016]}, "properties": {"stop_id": "8885", "stop_name": "Wilson Ave at Walsh Ave"}}, {"type": "Feature", "geometry": {"type": "Point", "coordinates": [-79.55170440673828, 43.72699737548828]}, "properties": {"stop_id": "11267", "stop_name": "Arcot Blvd at Albion Rd"}}, {"type": "Feature", "geometry": {"type": "Point", "coordinates": [-79.47576904296875, 43.728721618652344]}, "properties": {"stop_id": "8843", "stop_name": "Wilson Ave at Apex Lane"}}, {"type": "Feature", "geometry": {"type": "Point", "coordinates": [-79.49149322509766, 43.72467041015625]}, "properties": {"stop_id": "8866", "stop_name": "Wilson Ave at Julian Rd West Side - Humber River Hospital"}}, {"type": "Feature", "geometry": {"type": "Point", "coordinates": [-79.55630493164062, 43.74006271362305]}, "properties": {"stop_id": "11569", "stop_name": "Thistle Down Blvd at Dashwood Cres (South)"}}, {"type": "Feature", "geometry": {"type": "Point", "coordinates": [-79.53721618652344, 43.717159271240234]}, "properties": {"stop_id": "8524", "stop_name": "Walsh Ave at Weston Rd"}}]}