{"type": "FeatureCollection", "features": [{"type": "Feature", "geometry": {"type": "Point", "coordinates": [-79.22645568847656, 43.73011016845703]}, "properties": {"stop_id": "4253", "stop_name": "Kingston Rd at Pine Ridge Dr"}}, {"type": "Feature", "geometry": {"type": "Point", "coordinates": [-79.26481628417969, 43.69133758544922]}, "properties": {"stop_id": "4205", "stop_name": "Kingston Rd at Birchcliff Ave"}}, {"type": "Feature", "geometry": {"type": "Point", "coordinates": [-79.276123046875, 43.6840705871582]}, "properties": {"stop_id": "4270", "stop_name": "Kingston Rd at Wood Glen Rd"}}, {"type": "Feature", "geometry": {"type": "Point", "coordinates": [-79.2342300415039, 43.72336959838867]}, "properties": {"stop_id": "4247", "stop_name": "Kingston Rd at Neilson Ave"}}, {"type": "Feature", "geometry": {"type": "Point", "coordinates": [-79.19135284423828, 43.7808837890625]}, "properties": {"stop_id": "2962", "stop_name": "Morningside Ave at Opposite Morningside Park"}}, {"type": "Feature", "geometry": {"type": "Point", "coordinates": [-79.19310760498047, 43.785186767578125]}, "properties": {"stop_id": "2942", "stop_name": "Morningside Ave at Ellesmere Rd"}}, {"type": "Feature", "geometry": {"type": "Point", "coordinates": [-79.28919219970703, 43.692935943603516]}, "properties": {"stop_id": "14962", "stop_name": "Victoria Park Ave at Denton Ave"}}, {"type": "Feature", "geometry": {"type": "Point", "coordinates": [-79.20899963378906, 43.74619674682617]}, "properties": {"stop_id": "15904", "stop_name": "Kingston Rd at Scarborough Golf Club Rd East Side"}}, {"type": "Feature", "geometry": {"type": "Point", "coordinates": [-79.19039916992188, 43.78776550292969]}, "properties": {"stop_id": "15281", "stop_name": "Military Trail at Pan Am Dr"}}, {"type": "Feature", "geometry": {"type": "Point", "coordinates": [-79.23250579833984, 43.724857330322266]}, "properties": {"stop_id": "4211", "stop_name": "Kingston Rd at Cathedral Bluffs Dr"}}, {"type": "Feature", "geometry": {"type": "Point", "coordinates": [-79.18700408935547, 43.77128601074219]}, "properties": {"stop_id": "15280", "stop_name": "Morningside Ave at Kingston Rd"}}, {"type": "Feature", "geometry": {"type": "Point", "coordinates": [-79.19117736816406, 43.765655517578125]}, "properties": {"stop_id": "4255", "stop_name": "Kingston Rd at Poplar Rd"}}, {"type": "Feature", "geometry": {"type": "Point", "coordinates": [-79.28693389892578, 43.68754196166992]}, "properties": {"stop_id": "4692", "stop_name": "Victoria Park Ave at Gerrard St East"}}, {"type": "Feature", "geometry": {"type": "Point", "coordinates": [-79.19436645507812, 43.76221466064453]}, "properties": {"stop_id": "15908", "stop_name": "Kingston Rd at Galloway Rd East Side"}}, {"type": "Feature", "geometry": {"type": "Point", "coordinates": [-79.2562026977539, 43.6980094909668]}, "properties": {"stop_id": "4227", "stop_name": "Kingston Rd at Glen Everest Rd East Side"}}, {"type": "Feature", "geometry": {"type": "Point", "coordinates": [-79.25800323486328, 43.696163177490234]}, "properties": {"stop_id": "4233", "stop_name": "Kingston Rd at Lakehurst Dr"}}, {"type": "Feature", "geometry": {"type": "Point", "coordinates": [-79.267333984375, 43.68996047973633]}, "properties": {"stop_id": "4232", "stop_name": "Kingston Rd at Kildonan Dr"}}, {"type": "Feature", "geometry": {"type": "Point", "coordinates": [-79.22481536865234, 43.731624603271484]}, "properties": {"stop_id": "4258", "stop_name": "Kingston Rd at Ravine Dr"}}, {"type": "Feature", "geometry": {"type": "Point", "coordinates": [-79.25264739990234, 43.703800201416016]}, "properties": {"stop_id": "4217", "stop_name": "Kingston Rd at Cliffside Dr"}}, {"type": "Feature", "geometry": {"type": "Point", "coordinates": [-79.24336242675781, 43.715423583984375]}, "properties": {"stop_id": "16719", "stop_name": "2661 Kingston Rd"}}, {"type": "Feature", "geometry": {"type": "Point", "coordinates": [-79.22179412841797, 43.73432159423828]}, "properties": {"stop_id": "4269", "stop_name": "Kingston Rd at Whitecap Blvd East Side"}}, {"type": "Feature", "geometry": {"type": "Point", "coordinates": [-79.20550537109375, 43.74987030029297]}, "properties": {"stop_id": "4229", "stop_name": "Kingston Rd at Guildwood Pkwy East Side"}}, {"type": "Feature", "geometry": {"type": "Point", "coordinates": [-79.2404556274414, 43.71795654296875]}, "properties": {"stop_id": "12540", "stop_name": "Kingston Rd at Brimley Rd"}}, {"type": "Feature", "geometry": {"type": "Point", "coordinates": [-79.26936340332031, 43.68866729736328]}, "properties": {"stop_id": "4235", "stop_name": "Kingston Rd at Manderley Dr"}}, {"type": "Feature", "geometry": {"type": "Point", "coordinates": [-79.28852844238281, 43.69135665893555]}, "properties": {"stop_id": "4690", "stop_name": "Victoria Park Ave at Danforth Ave"}}, {"type": "Feature", "geometry": {"type": "Point", "coordinates": [-79.1932601928711, 43.78900909423828]}, "properties": {"stop_id": "11415", "stop_name": "Military Trail at Morningside Ave"}}, {"type": "Feature", "geometry": {"type": "Point", "coordinates": [-79.23625183105469, 43.721614837646484]}, "properties": {"stop_id": "15744", "stop_name": "Kingston Rd at St Clair Ave East"}}, {"type": "Feature", "geometry": {"type": "Point", "coordinates": [-79.18750762939453, 43.77236557006836]}, "properties": {"stop_id": "2968", "stop_name": "Morningside Ave at Tefft Rd"}}, {"type": "Feature", "geometry": {"type": "Point", "coordinates": [-79.28144836425781, 43.68132781982422]}, "properties": {"stop_id": "11840", "stop_name": "Kingston Rd at Blantyre Ave"}}, {"type": "Feature", "geometry": {"type": "Point", "coordinates": [-79.2743911743164, 43.685302734375]}, "properties": {"stop_id": "15211", "stop_name": "Kingston Rd at Queensbury Ave"}}, {"type": "Feature", "geometry": {"type": "Point", "coordinates": [-79.28520965576172, 43.68342208862305]}, "properties": {"stop_id": "9414", "stop_name": "Victoria Park Ave at Woodale Ave"}}, {"type": "Feature", "geometry": {"type": "Point", "coordinates": [-79.19894409179688, 43.75724411010742]}, "properties": {"stop_id": "15906", "stop_name": "Kingston Rd at Celeste Dr East Side - Guildwood GO Station"}}, {"type": "Feature", "geometry": {"type": "Point", "coordinates": [-79.18882751464844, 43.77546691894531]}, "properties": {"stop_id": "2932", "stop_name": "345 Morningside Ave"}}, {"type": "Feature", "geometry": {"type": "Point", "coordinates": [-79.2297134399414, 43.72726821899414]}, "properties": {"stop_id": "4223", "stop_name": "Kingston Rd at Fenwood Heights"}}, {"type": "Feature", "geometry": {"type": "Point", "coordinates": [-79.25448608398438, 43.70084762573242]}, "properties": {"stop_id": "4230", "stop_name": "2121 Kingston Rd"}}, {"type": "Feature", "geometry": {"type": "Point", "coordinates": [-79.24504852294922, 43.71392059326172]}, "properties": {"stop_id": "4214", "stop_name": "Kingston Rd at Chine Dr"}}, {"type": "Feature", "geometry": {"type": "Point", "coordinates": [-79.22786712646484, 43.7288932800293]}, "properties": {"stop_id": "4241", "stop_name": "Kingston Rd at McNab Blvd East Side"}}, {"type": "Feature", "geometry": {"type": "Point", "coordinates": [-79.18959045410156, 43.767364501953125]}, "properties": {"stop_id": "6488", "stop_name": "Kingston Rd at Lawrence Ave East"}}, {"type": "Feature", "geometry": {"type": "Point", "coordinates": [-79.25117492675781, 43.706146240234375]}, "properties": {"stop_id": "4259", "stop_name": "Kingston Rd at Ridgemoor Ave"}}, {"type": "Feature", "geometry": {"type": "Point", "coordinates": [-79.24967193603516, 43.708580017089844]}, "properties": {"stop_id": "4260", "stop_name": "Kingston Rd at Sandown Ave"}}, {"type": "Feature", "geometry": {"type": "Point", "coordinates": [-79.26187896728516, 43.6932373046875]}, "properties": {"stop_id": "4207", "stop_name": "Kingston Rd at Birchmount Rd East Side"}}, {"type": "Feature", "geometry": {"type": "Point", "coordinates": [-79.21733093261719, 43.738338470458984]}, "properties": {"stop_id": "12549", "stop_name": "Kingston Rd at Markham Rd"}}, {"type": "Feature", "geometry": {"type": "Point", "coordinates": [-79.2116470336914, 43.7435302734375]}, "properties": {"stop_id": "12543", "stop_name": "Kingston Rd at Eglinton Ave East"}}, {"type": "Feature", "geometry": {"type": "Point", "coordinates": [-79.28357696533203, 43.6807746887207]}, "properties": {"stop_id": "3344", "stop_name": "Kingston Rd at Victoria Park Ave East Side"}}, {"type": "Feature", "geometry": {"type": "Point", "coordinates": [-79.27935028076172, 43.6821403503418]}, "properties": {"stop_id": "4221", "stop_name": "Kingston Rd at Fallingbrook Rd"}}, {"type": "Feature", "geometry": {"type": "Point", "coordinates": [-79.28863525390625, 43.69432830810547]}, "properties": {"stop_id": "14788", "stop_name": "Victoria Park Station"}}, {"type": "Feature", "geometry": {"type": "Point", "coordinates": [-79.2203598022461, 43.73564147949219]}, "properties": {"stop_id": "4250", "stop_name": "Kingston Rd at Parkcrest Dr"}}, {"type": "Feature", "geometry": {"type": "Point", "coordinates": [-79.27101135253906, 43.687591552734375]}, "properties": {"stop_id": "4267", "stop_name": "Kingston Rd at Warden Ave"}}, {"type": "Feature", "geometry": {"type": "Point", "coordinates": [-79.24821472167969, 43.710777282714844]}, "properties": {"stop_id": "4246", "stop_name": "Kingston Rd at Midland Ave"}}, {"type": "Feature", "geometry": {"type": "Point", "coordinates": [-79.28596496582031, 43.68525314331055]}, "properties": {"stop_id": "4696", "stop_name": "Victoria Park Ave at Swanwick Ave"}}, {"type": "Feature", "geometry": {"type": "Point", "coordinates": [-79.2879867553711, 43.690032958984375]}, "properties": {"stop_id": "4697", "stop_name": "Victoria Park Ave at Wakehood St South Side"}}, {"type": "Feature", "geometry": {"type": "Point", "coordinates": [-79.25939178466797, 43.6950798034668]}, "properties": {"stop_id": "4243", "stop_name": "1859 Kingston Rd"}}, {"type": "Feature", "geometry": {"type": "Point", "coordinates": [-79.28453826904297, 43.681800842285156]}, "properties": {"stop_id": "9415", "stop_name": "Victoria Park Ave at Meadow Ave"}}]}