{"type": "FeatureCollection", "features": [{"type": "Feature", "geometry": {"type": "Point", "coordinates": [-79.25936126708984, 43.69544219970703]}, "properties": {"stop_id": "4244", "stop_name": "Opposite 1859 Kingston Rd"}}, {"type": "Feature", "geometry": {"type": "Point", "coordinates": [-79.23008728027344, 43.72738265991211]}, "properties": {"stop_id": "4224", "stop_name": "Kingston Rd at Fenwood Heights West Side"}}, {"type": "Feature", "geometry": {"type": "Point", "coordinates": [-79.2498550415039, 43.70896530151367]}, "properties": {"stop_id": "4261", "stop_name": "Kingston Rd at Sandown Ave"}}, {"type": "Feature", "geometry": {"type": "Point", "coordinates": [-79.26466369628906, 43.691612243652344]}, "properties": {"stop_id": "4206", "stop_name": "Kingston Rd at Birchcliff Ave"}}, {"type": "Feature", "geometry": {"type": "Point", "coordinates": [-79.20973205566406, 43.745784759521484]}, "properties": {"stop_id": "15905", "stop_name": "Kingston Rd at Scarborough Golf Club Rd West Side"}}, {"type": "Feature", "geometry": {"type": "Point", "coordinates": [-79.28516387939453, 43.683692932128906]}, "properties": {"stop_id": "4698", "stop_name": "Victoria Park Ave at Winston Ave"}}, {"type": "Feature", "geometry": {"type": "Point", "coordinates": [-79.22828674316406, 43.72895812988281]}, "properties": {"stop_id": "4242", "stop_name": "Kingston Rd at McNab Blvd"}}, {"type": "Feature", "geometry": {"type": "Point", "coordinates": [-79.22645568847656, 43.73057174682617]}, "properties": {"stop_id": "4220", "stop_name": "Kingston Rd at Pine Ridge Dr"}}, {"type": "Feature", "geometry": {"type": "Point", "coordinates": [-79.27908325195312, 43.68240737915039]}, "properties": {"stop_id": "4222", "stop_name": "Kingston Rd at Fallingbrook Rd"}}, {"type": "Feature", "geometry": {"type": "Point", "coordinates": [-79.20645904541016, 43.7494010925293]}, "properties": {"stop_id": "6486", "stop_name": "Kingston Rd at Cromwell Rd West Side"}}, {"type": "Feature", "geometry": {"type": "Point", "coordinates": [-79.24850463867188, 43.710975646972656]}, "properties": {"stop_id": "4245", "stop_name": "Kingston Rd at Midland Ave West Side"}}, {"type": "Feature", "geometry": {"type": "Point", "coordinates": [-79.19976043701172, 43.756752014160156]}, "properties": {"stop_id": "15907", "stop_name": "Kingston Rd at Celeste Dr West Side - Guildwood GO Station"}}, {"type": "Feature", "geometry": {"type": "Point", "coordinates": [-79.2244873046875, 43.73237609863281]}, "properties": {"stop_id": "4204", "stop_name": "Kingston Rd at Bellamy Rd South"}}, {"type": "Feature", "geometry": {"type": "Point", "coordinates": [-79.19512176513672, 43.761802673339844]}, "properties": {"stop_id": "15909", "stop_name": "Kingston Rd at Galloway Rd West Side"}}, {"type": "Feature", "geometry": {"type": "Point", "coordinates": [-79.19146728515625, 43.76576614379883]}, "properties": {"stop_id": "15910", "stop_name": "Kingston Rd at Poplar Rd West Side"}}, {"type": "Feature", "geometry": {"type": "Point", "coordinates": [-79.2742919921875, 43.68557357788086]}, "properties": {"stop_id": "15212", "stop_name": "Kingston Rd at Queensbury Ave"}}, {"type": "Feature", "geometry": {"type": "Point", "coordinates": [-79.2433853149414, 43.7158203125]}, "properties": {"stop_id": "13334", "stop_name": "Kingston Rd at Resthaven Memorial Gardens"}}, {"type": "Feature", "geometry": {"type": "Point", "coordinates": [-79.21249389648438, 43.74324417114258]}, "properties": {"stop_id": "2787", "stop_name": "Kingston Rd at Muir Dr West Side"}}, {"type": "Feature", "geometry": {"type": "Point", "coordinates": [-79.28392791748047, 43.68090057373047]}, "properties": {"stop_id": "4266", "stop_name": "Kingston Rd at Victoria Park Ave"}}, {"type": "Feature", "geometry": {"type": "Point", "coordinates": [-79.2881851196289, 43.691078186035156]}, "properties": {"stop_id": "4689", "stop_name": "Victoria Park Ave at Danforth Ave"}}, {"type": "Feature", "geometry": {"type": "Point", "coordinates": [-79.1932601928711, 43.78900909423828]}, "properties": {"stop_id": "11415", "stop_name": "Military Trail at Morningside Ave"}}, {"type": "Feature", "geometry": {"type": "Point", "coordinates": [-79.2450942993164, 43.714298248291016]}, "properties": {"stop_id": "4215", "stop_name": "Kingston Rd at Chine Dr"}}, {"type": "Feature", "geometry": {"type": "Point", "coordinates": [-79.23611450195312, 43.722190856933594]}, "properties": {"stop_id": "15745", "stop_name": "Kingston Rd at St Clair Ave East"}}, {"type": "Feature", "geometry": {"type": "Point", "coordinates": [-79.2528305053711, 43.70416259765625]}, "properties": {"stop_id": "4216", "stop_name": "Kingston Rd at Claremore Ave"}}, {"type": "Feature", "geometry": {"type": "Point", "coordinates": [-79.28567504882812, 43.6849250793457]}, "properties": {"stop_id": "4695", "stop_name": "Victoria Park Ave at Swanwick Ave"}}, {"type": "Feature", "geometry": {"type": "Point", "coordinates": [-79.18794250488281, 43.77281951904297]}, "properties": {"stop_id": "2969", "stop_name": "Morningside Ave at Tefft Rd"}}, {"type": "Feature", "geometry": {"type": "Point", "coordinates": [-79.2769775390625, 43.68368911743164]}, "properties": {"stop_id": "4231", "stop_name": "Kingston Rd at Hunt Club Dr"}}, {"type": "Feature", "geometry": {"type": "Point", "coordinates": [-79.18708801269531, 43.77070999145508]}, "properties": {"stop_id": "2951", "stop_name": "Morningside Ave at Kingston Rd"}}, {"type": "Feature", "geometry": {"type": "Point", "coordinates": [-79.19141387939453, 43.78047561645508]}, "properties": {"stop_id": "2963", "stop_name": "Morningside Ave at Morningside Park"}}, {"type": "Feature", "geometry": {"type": "Point", "coordinates": [-79.21742248535156, 43.73867416381836]}, "properties": {"stop_id": "12548", "stop_name": "Kingston Rd at Markham Rd West Side"}}, {"type": "Feature", "geometry": {"type": "Point", "coordinates": [-79.1901626586914, 43.767147064208984]}, "properties": {"stop_id": "15911", "stop_name": "Kingston Rd at Lawrence Ave East South Side"}}, {"type": "Feature", "geometry": {"type": "Point", "coordinates": [-79.24089050292969, 43.718013763427734]}, "properties": {"stop_id": "10970", "stop_name": "Kingston Rd at Brimley Rd West Side"}}, {"type": "Feature", "geometry": {"type": "Point", "coordinates": [-79.28876495361328, 43.692630767822266]}, "properties": {"stop_id": "11348", "stop_name": "Victoria Park Ave at Denton Ave"}}, {"type": "Feature", "geometry": {"type": "Point", "coordinates": [-79.22193145751953, 43.734649658203125]}, "properties": {"stop_id": "4239", "stop_name": "Kingston Rd at Mason Rd"}}, {"type": "Feature", "geometry": {"type": "Point", "coordinates": [-79.26911163330078, 43.68907165527344]}, "properties": {"stop_id": "7904", "stop_name": "Kingston Rd at Manderley Dr"}}, {"type": "Feature", "geometry": {"type": "Point", "coordinates": [-79.23468780517578, 43.7234001159668]}, "properties": {"stop_id": "1212", "stop_name": "Kingston Rd at Neilson Ave West Side"}}, {"type": "Feature", "geometry": {"type": "Point", "coordinates": [-79.26703643798828, 43.690303802490234]}, "properties": {"stop_id": "4218", "stop_name": "Kingston Rd at Eastwood Ave"}}, {"type": "Feature", "geometry": {"type": "Point", "coordinates": [-79.2323226928711, 43.72544479370117]}, "properties": {"stop_id": "4240", "stop_name": "Kingston Rd at McCowan Rd"}}, {"type": "Feature", "geometry": {"type": "Point", "coordinates": [-79.19359588623047, 43.78547286987305]}, "properties": {"stop_id": "2943", "stop_name": "Morningside Ave at Ellesmere Rd"}}, {"type": "Feature", "geometry": {"type": "Point", "coordinates": [-79.26225280761719, 43.693206787109375]}, "properties": {"stop_id": "4208", "stop_name": "Kingston Rd at Birchmount Rd"}}, {"type": "Feature", "geometry": {"type": "Point", "coordinates": [-79.1894302368164, 43.77605056762695]}, "properties": {"stop_id": "2936", "stop_name": "350 Morningside Ave - West Hill Collegiate"}}, {"type": "Feature", "geometry": {"type": "Point", "coordinates": [-79.25666809082031, 43.69786834716797]}, "properties": {"stop_id": "4228", "stop_name": "Kingston Rd at Glen Everest Rd"}}, {"type": "Feature", "geometry": {"type": "Point", "coordinates": [-79.22032928466797, 43.73609161376953]}, "properties": {"stop_id": "4251", "stop_name": "Kingston Rd at Parkcrest Dr"}}, {"type": "Feature", "geometry": {"type": "Point", "coordinates": [-79.28666687011719, 43.68747329711914]}, "properties": {"stop_id": "4691", "stop_name": "Victoria Park Ave at Gerrard St East North Side"}}, {"type": "Feature", "geometry": {"type": "Point", "coordinates": [-79.25137329101562, 43.70652770996094]}, "properties": {"stop_id": "4264", "stop_name": "Kingston Rd at Sharpe St"}}, {"type": "Feature", "geometry": {"type": "Point", "coordinates": [-79.28863525390625, 43.69432830810547]}, "properties": {"stop_id": "14788", "stop_name": "Victoria Park Station"}}, {"type": "Feature", "geometry": {"type": "Point", "coordinates": [-79.28474426269531, 43.68153381347656]}, "properties": {"stop_id": "13519", "stop_name": "Bingham Loop"}}, {"type": "Feature", "geometry": {"type": "Point", "coordinates": [-79.27066802978516, 43.688018798828125]}, "properties": {"stop_id": "4268", "stop_name": "Kingston Rd at Warden Ave"}}, {"type": "Feature", "geometry": {"type": "Point", "coordinates": [-79.28133392333984, 43.68153381347656]}, "properties": {"stop_id": "4209", "stop_name": "Kingston Rd at Blantyre Ave"}}, {"type": "Feature", "geometry": {"type": "Point", "coordinates": [-79.21453094482422, 43.741329193115234]}, "properties": {"stop_id": "2769", "stop_name": "Kingston Rd at Brinloor Blvd"}}]}