{"type": "FeatureCollection", "features": [{"type": "Feature", "geometry": {"type": "Point", "coordinates": [-79.4842758178711, 43.73349380493164]}, "properties": {"stop_id": "9135", "stop_name": "Calvington Dr at Keele St West Side"}}, {"type": "Feature", "geometry": {"type": "Point", "coordinates": [-79.45941925048828, 43.73214340209961]}, "properties": {"stop_id": "1656", "stop_name": "Wilson Ave at Dufferin St West Side"}}, {"type": "Feature", "geometry": {"type": "Point", "coordinates": [-79.47750091552734, 43.72833251953125]}, "properties": {"stop_id": "8851", "stop_name": "Wilson Ave at Dubray Ave"}}, {"type": "Feature", "geometry": {"type": "Point", "coordinates": [-79.49520111083984, 43.73099899291992]}, "properties": {"stop_id": "3394", "stop_name": "Calvington Dr at Exbury Rd"}}, {"type": "Feature", "geometry": {"type": "Point", "coordinates": [-79.5111312866211, 43.73211669921875]}, "properties": {"stop_id": "3934", "stop_name": "Jane St at Troutbrooke Dr North Side"}}, {"type": "Feature", "geometry": {"type": "Point", "coordinates": [-79.47140502929688, 43.72970962524414]}, "properties": {"stop_id": "8876", "stop_name": "Wilson Ave at Murray Rd"}}, {"type": "Feature", "geometry": {"type": "Point", "coordinates": [-79.50700378417969, 43.74015808105469]}, "properties": {"stop_id": "6082", "stop_name": "Sheppard Ave West at Min Ave"}}, {"type": "Feature", "geometry": {"type": "Point", "coordinates": [-79.4826431274414, 43.72945785522461]}, "properties": {"stop_id": "16444", "stop_name": "Keele St at Paxtonia Blvd North Side"}}, {"type": "Feature", "geometry": {"type": "Point", "coordinates": [-79.45067596435547, 43.73426818847656]}, "properties": {"stop_id": "15463", "stop_name": "Wilson Station"}}, {"type": "Feature", "geometry": {"type": "Point", "coordinates": [-79.49891662597656, 43.73018264770508]}, "properties": {"stop_id": "3397", "stop_name": "Calvington Dr at Lexfield Ave"}}, {"type": "Feature", "geometry": {"type": "Point", "coordinates": [-79.5049057006836, 43.72697448730469]}, "properties": {"stop_id": "9201", "stop_name": "Chesham Dr at Heathrow Dr"}}, {"type": "Feature", "geometry": {"type": "Point", "coordinates": [-79.51294708251953, 43.73920822143555]}, "properties": {"stop_id": "3920", "stop_name": "Jane St at Sheppard Ave West"}}, {"type": "Feature", "geometry": {"type": "Point", "coordinates": [-79.50126647949219, 43.740840911865234]}, "properties": {"stop_id": "11222", "stop_name": "Northover St at Sheppard Ave West South Side"}}, {"type": "Feature", "geometry": {"type": "Point", "coordinates": [-79.46434020996094, 43.73129653930664]}, "properties": {"stop_id": "8870", "stop_name": "Wilson Ave at Lady York Ave"}}, {"type": "Feature", "geometry": {"type": "Point", "coordinates": [-79.47576904296875, 43.728721618652344]}, "properties": {"stop_id": "8843", "stop_name": "Wilson Ave at Apex Lane"}}, {"type": "Feature", "geometry": {"type": "Point", "coordinates": [-79.49292755126953, 43.73151779174805]}, "properties": {"stop_id": "3400", "stop_name": "Calvington Dr at Roding St"}}, {"type": "Feature", "geometry": {"type": "Point", "coordinates": [-79.50406646728516, 43.74079513549805]}, "properties": {"stop_id": "6062", "stop_name": "Sheppard Ave West at Buckland Rd"}}, {"type": "Feature", "geometry": {"type": "Point", "coordinates": [-79.50150299072266, 43.729583740234375]}, "properties": {"stop_id": "3392", "stop_name": "Calvington Dr at Dalsby Rd"}}, {"type": "Feature", "geometry": {"type": "Point", "coordinates": [-79.5101089477539, 43.7275276184082]}, "properties": {"stop_id": "3910", "stop_name": "2265 Jane St"}}, {"type": "Feature", "geometry": {"type": "Point", "coordinates": [-79.48294067382812, 43.731082916259766]}, "properties": {"stop_id": "4045", "stop_name": "Keele St at Wandle Ave"}}, {"type": "Feature", "geometry": {"type": "Point", "coordinates": [-79.48199462890625, 43.72728729248047]}, "properties": {"stop_id": "14141", "stop_name": "Wilson Ave at Keele St North Side"}}, {"type": "Feature", "geometry": {"type": "Point", "coordinates": [-79.468017578125, 43.73046112060547]}, "properties": {"stop_id": "8857", "stop_name": "Wilson Ave at Garratt Blvd"}}, {"type": "Feature", "geometry": {"type": "Point", "coordinates": [-79.5118179321289, 43.73485565185547]}, "properties": {"stop_id": "3896", "stop_name": "Jane St at Giltspur Dr North Side"}}, {"type": "Feature", "geometry": {"type": "Point", "coordinates": [-79.5080795288086, 43.72587966918945]}, "properties": {"stop_id": "9202", "stop_name": "Heathrow Dr at Datchet Rd"}}, {"type": "Feature", "geometry": {"type": "Point", "coordinates": [-79.50370788574219, 43.72804260253906]}, "properties": {"stop_id": "3395", "stop_name": "Calvington Dr at Forthbridge Cres"}}, {"type": "Feature", "geometry": {"type": "Point", "coordinates": [-79.45511627197266, 43.73300552368164]}, "properties": {"stop_id": "13470", "stop_name": "Opposite 675 Wilson Ave"}}, {"type": "Feature", "geometry": {"type": "Point", "coordinates": [-79.5105972290039, 43.72964859008789]}, "properties": {"stop_id": "3888", "stop_name": "Jane St at Exbury Rd North Side"}}, {"type": "Feature", "geometry": {"type": "Point", "coordinates": [-79.50920867919922, 43.725032806396484]}, "properties": {"stop_id": "9203", "stop_name": "Heathrow Dr at Jane St"}}, {"type": "Feature", "geometry": {"type": "Point", "coordinates": [-79.5097885131836, 43.739540100097656]}, "properties": {"stop_id": "6081", "stop_name": "Sheppard Ave West at Magellan Dr"}}, {"type": "Feature", "geometry": {"type": "Point", "coordinates": [-79.48677825927734, 43.732757568359375]}, "properties": {"stop_id": "9136", "stop_name": "Calvington Dr at Renshaw St"}}]}