{"type": "FeatureCollection", "features": [{"type": "Feature", "geometry": {"type": "Point", "coordinates": [-79.48701477050781, 43.73259735107422]}, "properties": {"stop_id": "3398", "stop_name": "Calvington Dr at Renshaw St"}}, {"type": "Feature", "geometry": {"type": "Point", "coordinates": [-79.50811004638672, 43.725608825683594]}, "properties": {"stop_id": "9205", "stop_name": "Heathrow Dr at Datchet Rd"}}, {"type": "Feature", "geometry": {"type": "Point", "coordinates": [-79.50037384033203, 43.73871612548828]}, "properties": {"stop_id": "11233", "stop_name": "Northover St at Giltspur Dr"}}, {"type": "Feature", "geometry": {"type": "Point", "coordinates": [-79.49910736083984, 43.73003005981445]}, "properties": {"stop_id": "3396", "stop_name": "Calvington Dr at Lexfield Ave"}}, {"type": "Feature", "geometry": {"type": "Point", "coordinates": [-79.50096130371094, 43.74010467529297]}, "properties": {"stop_id": "11232", "stop_name": "Northover St at Slater Crt"}}, {"type": "Feature", "geometry": {"type": "Point", "coordinates": [-79.48306274414062, 43.7304573059082]}, "properties": {"stop_id": "9801", "stop_name": "Keele St at Tilbury Dr"}}, {"type": "Feature", "geometry": {"type": "Point", "coordinates": [-79.50126647949219, 43.740840911865234]}, "properties": {"stop_id": "11222", "stop_name": "Northover St at Sheppard Ave West South Side"}}, {"type": "Feature", "geometry": {"type": "Point", "coordinates": [-79.49544525146484, 43.730838775634766]}, "properties": {"stop_id": "3393", "stop_name": "Calvington Dr at Exbury Rd"}}, {"type": "Feature", "geometry": {"type": "Point", "coordinates": [-79.46821594238281, 43.73018264770508]}, "properties": {"stop_id": "8877", "stop_name": "Wilson Ave at Northgate Dr"}}, {"type": "Feature", "geometry": {"type": "Point", "coordinates": [-79.51143646240234, 43.732086181640625]}, "properties": {"stop_id": "14257", "stop_name": "Jane St at Troutbrooke Dr"}}, {"type": "Feature", "geometry": {"type": "Point", "coordinates": [-79.45951843261719, 43.73185348510742]}, "properties": {"stop_id": "1657", "stop_name": "Wilson Ave at Dufferin St"}}, {"type": "Feature", "geometry": {"type": "Point", "coordinates": [-79.50594329833984, 43.736270904541016]}, "properties": {"stop_id": "11235", "stop_name": "Giltspur Dr at Peterdale Rd"}}, {"type": "Feature", "geometry": {"type": "Point", "coordinates": [-79.50418090820312, 43.727779388427734]}, "properties": {"stop_id": "9207", "stop_name": "Forthbridge Cres at Calvington Dr"}}, {"type": "Feature", "geometry": {"type": "Point", "coordinates": [-79.4744644165039, 43.7287712097168]}, "properties": {"stop_id": "8873", "stop_name": "949 Wilson Ave"}}, {"type": "Feature", "geometry": {"type": "Point", "coordinates": [-79.51100158691406, 43.73481369018555]}, "properties": {"stop_id": "11237", "stop_name": "Giltspur Dr at Jane St"}}, {"type": "Feature", "geometry": {"type": "Point", "coordinates": [-79.45067596435547, 43.73426818847656]}, "properties": {"stop_id": "15463", "stop_name": "Wilson Station"}}, {"type": "Feature", "geometry": {"type": "Point", "coordinates": [-79.4645767211914, 43.73100662231445]}, "properties": {"stop_id": "1662", "stop_name": "Wilson Ave at Lady York Ave"}}, {"type": "Feature", "geometry": {"type": "Point", "coordinates": [-79.48263549804688, 43.72871017456055]}, "properties": {"stop_id": "9880", "stop_name": "Keele St at Victory Dr"}}, {"type": "Feature", "geometry": {"type": "Point", "coordinates": [-79.50370025634766, 43.737457275390625]}, "properties": {"stop_id": "11234", "stop_name": "Giltspur Dr at Calico Dr"}}, {"type": "Feature", "geometry": {"type": "Point", "coordinates": [-79.5018081665039, 43.72939682006836]}, "properties": {"stop_id": "9208", "stop_name": "Calvington Dr at Dalsby Rd"}}, {"type": "Feature", "geometry": {"type": "Point", "coordinates": [-79.49320983886719, 43.7313346862793]}, "properties": {"stop_id": "3399", "stop_name": "Calvington Dr at Roding St"}}, {"type": "Feature", "geometry": {"type": "Point", "coordinates": [-79.50836181640625, 43.73538589477539]}, "properties": {"stop_id": "11236", "stop_name": "Giltspur Dr at Magellan Dr"}}, {"type": "Feature", "geometry": {"type": "Point", "coordinates": [-79.51079559326172, 43.72892761230469]}, "properties": {"stop_id": "3870", "stop_name": "Jane St at Chalkfarm Dr (North) South Side"}}, {"type": "Feature", "geometry": {"type": "Point", "coordinates": [-79.48101806640625, 43.726932525634766]}, "properties": {"stop_id": "8867", "stop_name": "Wilson Ave at Keele St East Side"}}, {"type": "Feature", "geometry": {"type": "Point", "coordinates": [-79.48370361328125, 43.73314666748047]}, "properties": {"stop_id": "3964", "stop_name": "Keele St at Calvington Dr South Side"}}, {"type": "Feature", "geometry": {"type": "Point", "coordinates": [-79.50501251220703, 43.726715087890625]}, "properties": {"stop_id": "9206", "stop_name": "Heathrow Dr at Chesham Dr"}}, {"type": "Feature", "geometry": {"type": "Point", "coordinates": [-79.47171783447266, 43.729408264160156]}, "properties": {"stop_id": "8875", "stop_name": "Wilson Ave at Murray Rd"}}, {"type": "Feature", "geometry": {"type": "Point", "coordinates": [-79.47785949707031, 43.72804260253906]}, "properties": {"stop_id": "8848", "stop_name": "Wilson Ave at Dubray Ave"}}, {"type": "Feature", "geometry": {"type": "Point", "coordinates": [-79.5090560913086, 43.72494125366211]}, "properties": {"stop_id": "9749", "stop_name": "Heathrow Dr at Jane St East Side"}}, {"type": "Feature", "geometry": {"type": "Point", "coordinates": [-79.5103530883789, 43.727439880371094]}, "properties": {"stop_id": "3859", "stop_name": "Opposite 2265 Jane St"}}]}