{"type": "FeatureCollection", "features": [{"type": "Feature", "geometry": {"type": "Point", "coordinates": [-79.3759536743164, 43.72264099121094]}, "properties": {"stop_id": "11248", "stop_name": "Raab Blvd at Hospital Rd West Side - K & L Wings"}}, {"type": "Feature", "geometry": {"type": "Point", "coordinates": [-79.37944030761719, 43.72422790527344]}, "properties": {"stop_id": "9122", "stop_name": "Bayview Ave at Valleyanna Dr"}}, {"type": "Feature", "geometry": {"type": "Point", "coordinates": [-79.40189361572266, 43.725250244140625]}, "properties": {"stop_id": "1234", "stop_name": "Lawrence Ave at Yonge St - Lawrence Station"}}, {"type": "Feature", "geometry": {"type": "Point", "coordinates": [-79.39868927001953, 43.72591781616211]}, "properties": {"stop_id": "1221", "stop_name": "Lawrence Ave East at Cardinal Pl"}}, {"type": "Feature", "geometry": {"type": "Point", "coordinates": [-79.39380645751953, 43.726951599121094]}, "properties": {"stop_id": "1228", "stop_name": "Lawrence Ave East at Ronan Ave"}}, {"type": "Feature", "geometry": {"type": "Point", "coordinates": [-79.3815689086914, 43.72726821899414]}, "properties": {"stop_id": "1726", "stop_name": "Bayview Ave at Lawrence Ave East - York University Glendon Campus"}}, {"type": "Feature", "geometry": {"type": "Point", "coordinates": [-79.39189147949219, 43.72736358642578]}, "properties": {"stop_id": "1232", "stop_name": "Lawrence Ave East at Wanless Cres (West)"}}, {"type": "Feature", "geometry": {"type": "Point", "coordinates": [-79.38972473144531, 43.72781753540039]}, "properties": {"stop_id": "1229", "stop_name": "Lawrence Ave East at Wanless Cres (East) West Side"}}, {"type": "Feature", "geometry": {"type": "Point", "coordinates": [-79.40231323242188, 43.72538375854492]}, "properties": {"stop_id": "14726", "stop_name": "Lawrence Station"}}, {"type": "Feature", "geometry": {"type": "Point", "coordinates": [-79.38636016845703, 43.72850799560547]}, "properties": {"stop_id": "2817", "stop_name": "Lawrence Ave East at Mildenhall Rd"}}, {"type": "Feature", "geometry": {"type": "Point", "coordinates": [-79.39617919921875, 43.72645568847656]}, "properties": {"stop_id": "1226", "stop_name": "Lawrence Ave East at Mt Pleasant Rd"}}]}