{"type": "FeatureCollection", "features": [{"type": "Feature", "geometry": {"type": "Point", "coordinates": [-79.40231323242188, 43.72538375854492]}, "properties": {"stop_id": "14726", "stop_name": "Lawrence Station"}}, {"type": "Feature", "geometry": {"type": "Point", "coordinates": [-79.38668823242188, 43.728309631347656]}, "properties": {"stop_id": "9157", "stop_name": "Lawrence Ave East at Mildenhall Rd"}}, {"type": "Feature", "geometry": {"type": "Point", "coordinates": [-79.3921127319336, 43.727149963378906]}, "properties": {"stop_id": "1231", "stop_name": "Lawrence Ave East at Wanless Cres (West)"}}, {"type": "Feature", "geometry": {"type": "Point", "coordinates": [-79.38969421386719, 43.7276611328125]}, "properties": {"stop_id": "1230", "stop_name": "Lawrence Ave East at Wanless Cres (East)"}}, {"type": "Feature", "geometry": {"type": "Point", "coordinates": [-79.39900207519531, 43.72569274902344]}, "properties": {"stop_id": "1233", "stop_name": "Lawrence Ave East at Weybourne Cres East Side"}}, {"type": "Feature", "geometry": {"type": "Point", "coordinates": [-79.39552307128906, 43.72642135620117]}, "properties": {"stop_id": "1222", "stop_name": "Lawrence Ave East at Dinnick Cres East Side"}}, {"type": "Feature", "geometry": {"type": "Point", "coordinates": [-79.37776947021484, 43.721378326416016]}, "properties": {"stop_id": "11996", "stop_name": "Wellness Way at Hospital Rd - Odette Cancer Centre"}}, {"type": "Feature", "geometry": {"type": "Point", "coordinates": [-79.37974548339844, 43.724300384521484]}, "properties": {"stop_id": "1718", "stop_name": "Bayview Ave at Dawlish Ave South Side"}}, {"type": "Feature", "geometry": {"type": "Point", "coordinates": [-79.3759536743164, 43.72264099121094]}, "properties": {"stop_id": "11248", "stop_name": "Raab Blvd at Hospital Rd West Side - K & L Wings"}}, {"type": "Feature", "geometry": {"type": "Point", "coordinates": [-79.38204956054688, 43.7270622253418]}, "properties": {"stop_id": "1725", "stop_name": "Bayview Ave at Wood Ave"}}, {"type": "Feature", "geometry": {"type": "Point", "coordinates": [-79.40181732177734, 43.72503662109375]}, "properties": {"stop_id": "1235", "stop_name": "Lawrence Ave East at Yonge St East Side"}}, {"type": "Feature", "geometry": {"type": "Point", "coordinates": [-79.3768539428711, 43.721778869628906]}, "properties": {"stop_id": "1729", "stop_name": "Hospital Rd at Wellness Way East Side - Sunnybrook Main Entrance"}}, {"type": "Feature", "geometry": {"type": "Point", "coordinates": [-79.3940200805664, 43.726741790771484]}, "properties": {"stop_id": "1227", "stop_name": "Lawrence Ave East at Ronan Ave"}}, {"type": "Feature", "geometry": {"type": "Point", "coordinates": [-79.38323211669922, 43.727664947509766]}, "properties": {"stop_id": "1220", "stop_name": "Lawrence Ave East at Bayview Ave"}}, {"type": "Feature", "geometry": {"type": "Point", "coordinates": [-79.39741516113281, 43.72602081298828]}, "properties": {"stop_id": "2819", "stop_name": "Lawrence Ave East at Mt Pleasant Rd"}}]}