{"type": "FeatureCollection", "features": [{"type": "Feature", "geometry": {"type": "Point", "coordinates": [-79.40970611572266, 43.677032470703125]}, "properties": {"stop_id": "9376", "stop_name": "Davenport Rd at Walmer Rd"}}, {"type": "Feature", "geometry": {"type": "Point", "coordinates": [-79.41633605957031, 43.6767692565918]}, "properties": {"stop_id": "16572", "stop_name": "Davenport Rd at Bathurst St"}}, {"type": "Feature", "geometry": {"type": "Point", "coordinates": [-79.45392608642578, 43.67066192626953]}, "properties": {"stop_id": "3472", "stop_name": "Davenport Rd at Symington Ave West Side"}}, {"type": "Feature", "geometry": {"type": "Point", "coordinates": [-79.42801666259766, 43.674835205078125]}, "properties": {"stop_id": "16059", "stop_name": "Davenport Rd at Shaw St"}}, {"type": "Feature", "geometry": {"type": "Point", "coordinates": [-79.43063354492188, 43.674781799316406]}, "properties": {"stop_id": "951", "stop_name": "Davenport Rd at Ossington Ave"}}, {"type": "Feature", "geometry": {"type": "Point", "coordinates": [-79.46357727050781, 43.674041748046875]}, "properties": {"stop_id": "11582", "stop_name": "Townsley Loop at Townsley St"}}, {"type": "Feature", "geometry": {"type": "Point", "coordinates": [-79.43335723876953, 43.67451477050781]}, "properties": {"stop_id": "949", "stop_name": "Davenport Rd at Oakwood Ave"}}, {"type": "Feature", "geometry": {"type": "Point", "coordinates": [-79.43814849853516, 43.673828125]}, "properties": {"stop_id": "16488", "stop_name": "Davenport Rd at Bartlett Ave North"}}, {"type": "Feature", "geometry": {"type": "Point", "coordinates": [-79.42279815673828, 43.675743103027344]}, "properties": {"stop_id": "16751", "stop_name": "Davenport Rd at Christie St"}}, {"type": "Feature", "geometry": {"type": "Point", "coordinates": [-79.41950988769531, 43.67658233642578]}, "properties": {"stop_id": "9420", "stop_name": "Davenport Rd at Wychwood Park West Side"}}, {"type": "Feature", "geometry": {"type": "Point", "coordinates": [-79.45917510986328, 43.67038345336914]}, "properties": {"stop_id": "3471", "stop_name": "Davenport Rd at Osler St"}}, {"type": "Feature", "geometry": {"type": "Point", "coordinates": [-79.40461730957031, 43.668880462646484]}, "properties": {"stop_id": "7354", "stop_name": "Spadina Rd at Lowther Ave"}}, {"type": "Feature", "geometry": {"type": "Point", "coordinates": [-79.4037857055664, 43.66727066040039]}, "properties": {"stop_id": "14777", "stop_name": "Spadina Station"}}, {"type": "Feature", "geometry": {"type": "Point", "coordinates": [-79.40692138671875, 43.67472839355469]}, "properties": {"stop_id": "7350", "stop_name": "Spadina Rd at Dupont St - Dupont Station"}}, {"type": "Feature", "geometry": {"type": "Point", "coordinates": [-79.46285247802734, 43.673248291015625]}, "properties": {"stop_id": "11583", "stop_name": "Old Weston Rd at St Clair Ave West"}}, {"type": "Feature", "geometry": {"type": "Point", "coordinates": [-79.44078826904297, 43.6730842590332]}, "properties": {"stop_id": "938", "stop_name": "Davenport Rd at Dufferin St"}}, {"type": "Feature", "geometry": {"type": "Point", "coordinates": [-79.4450912475586, 43.672149658203125]}, "properties": {"stop_id": "941", "stop_name": "Davenport Rd at Greenlaw Ave"}}, {"type": "Feature", "geometry": {"type": "Point", "coordinates": [-79.4556655883789, 43.670379638671875]}, "properties": {"stop_id": "3467", "stop_name": "Davenport Rd at Laughton Ave"}}, {"type": "Feature", "geometry": {"type": "Point", "coordinates": [-79.46215057373047, 43.67108154296875]}, "properties": {"stop_id": "3469", "stop_name": "Davenport Rd at Old Weston Rd"}}, {"type": "Feature", "geometry": {"type": "Point", "coordinates": [-79.44356536865234, 43.67247772216797]}, "properties": {"stop_id": "945", "stop_name": "Davenport Rd at Lightbourn Ave"}}, {"type": "Feature", "geometry": {"type": "Point", "coordinates": [-79.4058837890625, 43.67207717895508]}, "properties": {"stop_id": "7342", "stop_name": "Spadina Rd at Bernard Ave"}}, {"type": "Feature", "geometry": {"type": "Point", "coordinates": [-79.44805145263672, 43.67164993286133]}, "properties": {"stop_id": "943", "stop_name": "Davenport Rd at Lansdowne Ave"}}, {"type": "Feature", "geometry": {"type": "Point", "coordinates": [-79.4507827758789, 43.67121124267578]}, "properties": {"stop_id": "933", "stop_name": "Davenport Rd at Caledonia Park Rd"}}, {"type": "Feature", "geometry": {"type": "Point", "coordinates": [-79.40518951416016, 43.67035675048828]}, "properties": {"stop_id": "7352", "stop_name": "Spadina Rd at Kendal Ave"}}, {"type": "Feature", "geometry": {"type": "Point", "coordinates": [-79.407958984375, 43.677146911621094]}, "properties": {"stop_id": "7348", "stop_name": "Spadina Rd at Davenport Rd"}}]}