{"type": "FeatureCollection", "features": [{"type": "Feature", "geometry": {"type": "Point", "coordinates": [-79.25724792480469, 43.774497985839844]}, "properties": {"stop_id": "14766", "stop_name": "Scarborough Centre Station"}}, {"type": "Feature", "geometry": {"type": "Point", "coordinates": [-79.20413970947266, 43.78123092651367]}, "properties": {"stop_id": "11597", "stop_name": "Centenary Hospital Loop at Neilson Rd"}}, {"type": "Feature", "geometry": {"type": "Point", "coordinates": [-79.21369171142578, 43.79118728637695]}, "properties": {"stop_id": "1392", "stop_name": "Neilson Rd at Oakmeadow Blvd (North)"}}, {"type": "Feature", "geometry": {"type": "Point", "coordinates": [-79.20626068115234, 43.78523635864258]}, "properties": {"stop_id": "1394", "stop_name": "Neilson Rd at Purpledusk Trail South Side"}}, {"type": "Feature", "geometry": {"type": "Point", "coordinates": [-79.21686553955078, 43.79585266113281]}, "properties": {"stop_id": "1388", "stop_name": "Neilson Rd at Milner Ave"}}, {"type": "Feature", "geometry": {"type": "Point", "coordinates": [-79.22594451904297, 43.81235122680664]}, "properties": {"stop_id": "1375", "stop_name": "Neilson Rd at Crow Trail"}}, {"type": "Feature", "geometry": {"type": "Point", "coordinates": [-79.2178955078125, 43.79827880859375]}, "properties": {"stop_id": "1401", "stop_name": "Neilson Rd at Sheppard Ave East"}}, {"type": "Feature", "geometry": {"type": "Point", "coordinates": [-79.2199478149414, 43.807899475097656]}, "properties": {"stop_id": "11714", "stop_name": "Neilson Rd at Malvern Town Centre - East Entrance"}}, {"type": "Feature", "geometry": {"type": "Point", "coordinates": [-79.22259521484375, 43.77860641479492]}, "properties": {"stop_id": "7691", "stop_name": "Ellesmere Rd at Helicon Gate West Side"}}, {"type": "Feature", "geometry": {"type": "Point", "coordinates": [-79.21731567382812, 43.80400848388672]}, "properties": {"stop_id": "1402", "stop_name": "Neilson Rd at Silverbell Grove South Side"}}, {"type": "Feature", "geometry": {"type": "Point", "coordinates": [-79.25115966796875, 43.772369384765625]}, "properties": {"stop_id": "7695", "stop_name": "Ellesmere Rd at McCowan Rd"}}, {"type": "Feature", "geometry": {"type": "Point", "coordinates": [-79.26153564453125, 43.773658752441406]}, "properties": {"stop_id": "1612", "stop_name": "Triton Rd at Borough Dr"}}, {"type": "Feature", "geometry": {"type": "Point", "coordinates": [-79.26351165771484, 43.73222732543945]}, "properties": {"stop_id": "16453", "stop_name": "Kennedy Station Drop-off Platform"}}, {"type": "Feature", "geometry": {"type": "Point", "coordinates": [-79.27115631103516, 43.7674674987793]}, "properties": {"stop_id": "16375", "stop_name": "Midland Ave at Ellesmere Rd South Side"}}, {"type": "Feature", "geometry": {"type": "Point", "coordinates": [-79.23529052734375, 43.77579879760742]}, "properties": {"stop_id": "1043", "stop_name": "Ellesmere Rd at Dolly Varden Blvd West Side"}}, {"type": "Feature", "geometry": {"type": "Point", "coordinates": [-79.23128509521484, 43.776668548583984]}, "properties": {"stop_id": "1049", "stop_name": "Ellesmere Rd at Markham Rd"}}, {"type": "Feature", "geometry": {"type": "Point", "coordinates": [-79.22731018066406, 43.8154411315918]}, "properties": {"stop_id": "1380", "stop_name": "Neilson Rd at Finch Ave East South Side"}}, {"type": "Feature", "geometry": {"type": "Point", "coordinates": [-79.2220687866211, 43.809181213378906]}, "properties": {"stop_id": "9410", "stop_name": "Neilson Rd at McLevin Ave"}}, {"type": "Feature", "geometry": {"type": "Point", "coordinates": [-79.20515441894531, 43.782798767089844]}, "properties": {"stop_id": "1379", "stop_name": "Neilson Rd at Ellesmere Rd"}}, {"type": "Feature", "geometry": {"type": "Point", "coordinates": [-79.20806884765625, 43.78765106201172]}, "properties": {"stop_id": "1386", "stop_name": "Neilson Rd at Military Trail South Side"}}, {"type": "Feature", "geometry": {"type": "Point", "coordinates": [-79.24143981933594, 43.7745361328125]}, "properties": {"stop_id": "7677", "stop_name": "Ellesmere Rd at Bellamy Rd North"}}, {"type": "Feature", "geometry": {"type": "Point", "coordinates": [-79.21783447265625, 43.80229187011719]}, "properties": {"stop_id": "1373", "stop_name": "Neilson Rd at Berner Trail"}}, {"type": "Feature", "geometry": {"type": "Point", "coordinates": [-79.21895599365234, 43.80667495727539]}, "properties": {"stop_id": "1404", "stop_name": "Neilson Rd at Tapscott Rd"}}, {"type": "Feature", "geometry": {"type": "Point", "coordinates": [-79.22119140625, 43.81917953491211]}, "properties": {"stop_id": "14445", "stop_name": "Finch Ave East at Morningside Ave West Side"}}, {"type": "Feature", "geometry": {"type": "Point", "coordinates": [-79.21845245361328, 43.79986572265625]}, "properties": {"stop_id": "1371", "stop_name": "Neilson Rd at Opp Walkway to Blackwater Cres & Kessack Crt"}}, {"type": "Feature", "geometry": {"type": "Point", "coordinates": [-79.24584197998047, 43.77354049682617]}, "properties": {"stop_id": "7712", "stop_name": "Ellesmere Rd at Parkington Cres"}}, {"type": "Feature", "geometry": {"type": "Point", "coordinates": [-79.26499938964844, 43.75076675415039]}, "properties": {"stop_id": "16376", "stop_name": "Midland Ave at Lawrence Ave East South Side"}}, {"type": "Feature", "geometry": {"type": "Point", "coordinates": [-79.21195220947266, 43.790138244628906]}, "properties": {"stop_id": "9426", "stop_name": "Neilson Rd at Oakmeadow Blvd (South)"}}, {"type": "Feature", "geometry": {"type": "Point", "coordinates": [-79.22720336914062, 43.77754592895508]}, "properties": {"stop_id": "1045", "stop_name": "Ellesmere Rd at Dormington Dr West Side"}}, {"type": "Feature", "geometry": {"type": "Point", "coordinates": [-79.22408294677734, 43.817081451416016]}, "properties": {"stop_id": "14443", "stop_name": "5910 Finch Ave East"}}, {"type": "Feature", "geometry": {"type": "Point", "coordinates": [-79.2635726928711, 43.73197937011719]}, "properties": {"stop_id": "16390", "stop_name": "Kennedy Station - Platform B"}}, {"type": "Feature", "geometry": {"type": "Point", "coordinates": [-79.21700286865234, 43.7798957824707]}, "properties": {"stop_id": "7700", "stop_name": "Ellesmere Rd at Military Trail (West)"}}]}