{"type": "FeatureCollection", "features": [{"type": "Feature", "geometry": {"type": "Point", "coordinates": [-79.21902465820312, 43.82296371459961]}, "properties": {"stop_id": "14264", "stop_name": "150 Staines Rd West Side"}}, {"type": "Feature", "geometry": {"type": "Point", "coordinates": [-79.22447204589844, 43.8255729675293]}, "properties": {"stop_id": "14082", "stop_name": "Nightstar Rd at Cranberry Dr"}}, {"type": "Feature", "geometry": {"type": "Point", "coordinates": [-79.23047637939453, 43.823402404785156]}, "properties": {"stop_id": "13906", "stop_name": "Nightstar Rd at Morningside Ave North Side"}}, {"type": "Feature", "geometry": {"type": "Point", "coordinates": [-79.22119140625, 43.81917953491211]}, "properties": {"stop_id": "14445", "stop_name": "Finch Ave East at Morningside Ave West Side"}}, {"type": "Feature", "geometry": {"type": "Point", "coordinates": [-79.24195861816406, 43.77415084838867]}, "properties": {"stop_id": "7676", "stop_name": "Ellesmere Rd at Bellamy Rd North"}}, {"type": "Feature", "geometry": {"type": "Point", "coordinates": [-79.2635726928711, 43.73197937011719]}, "properties": {"stop_id": "16390", "stop_name": "Kennedy Station - Platform B"}}, {"type": "Feature", "geometry": {"type": "Point", "coordinates": [-79.2236099243164, 43.83015060424805]}, "properties": {"stop_id": "14266", "stop_name": "Staines Rd at Seasons Dr South Side"}}, {"type": "Feature", "geometry": {"type": "Point", "coordinates": [-79.28086853027344, 43.765594482421875]}, "properties": {"stop_id": "4079", "stop_name": "Kennedy Rd at Ellesmere Rd"}}, {"type": "Feature", "geometry": {"type": "Point", "coordinates": [-79.21818542480469, 43.79990768432617]}, "properties": {"stop_id": "1385", "stop_name": "Neilson Rd at Walkway to Blackwater Cres & Kessack Crt"}}, {"type": "Feature", "geometry": {"type": "Point", "coordinates": [-79.26142883300781, 43.77348327636719]}, "properties": {"stop_id": "1613", "stop_name": "Triton Rd at Borough Dr"}}, {"type": "Feature", "geometry": {"type": "Point", "coordinates": [-79.23370361328125, 43.82903289794922]}, "properties": {"stop_id": "13907", "stop_name": "Oasis Blvd at Seasons Dr"}}, {"type": "Feature", "geometry": {"type": "Point", "coordinates": [-79.21330261230469, 43.791114807128906]}, "properties": {"stop_id": "1393", "stop_name": "Neilson Rd at Oakmeadow Blvd (North)"}}, {"type": "Feature", "geometry": {"type": "Point", "coordinates": [-79.22237396240234, 43.77836990356445]}, "properties": {"stop_id": "1052", "stop_name": "Ellesmere Rd at Scarborough Golf Club Rd"}}, {"type": "Feature", "geometry": {"type": "Point", "coordinates": [-79.27039337158203, 43.76799011230469]}, "properties": {"stop_id": "16374", "stop_name": "Ellesmere Rd at Midland Ave East Side"}}, {"type": "Feature", "geometry": {"type": "Point", "coordinates": [-79.22929382324219, 43.82387161254883]}, "properties": {"stop_id": "14557", "stop_name": "Nightstar Rd at Wharnsby Dr"}}, {"type": "Feature", "geometry": {"type": "Point", "coordinates": [-79.23200225830078, 43.7762451171875]}, "properties": {"stop_id": "1048", "stop_name": "Ellesmere Rd at Markham Rd"}}, {"type": "Feature", "geometry": {"type": "Point", "coordinates": [-79.20413970947266, 43.78123092651367]}, "properties": {"stop_id": "11597", "stop_name": "Centenary Hospital Loop at Neilson Rd"}}, {"type": "Feature", "geometry": {"type": "Point", "coordinates": [-79.2173080444336, 43.779598236083984]}, "properties": {"stop_id": "1051", "stop_name": "Ellesmere Rd at Orton Park Rd"}}, {"type": "Feature", "geometry": {"type": "Point", "coordinates": [-79.21772003173828, 43.801841735839844]}, "properties": {"stop_id": "9983", "stop_name": "Neilson Rd at Wickson Trail"}}, {"type": "Feature", "geometry": {"type": "Point", "coordinates": [-79.22053527832031, 43.8255615234375]}, "properties": {"stop_id": "14982", "stop_name": "Staines Rd at Point Rouge Trail"}}, {"type": "Feature", "geometry": {"type": "Point", "coordinates": [-79.20610809326172, 43.785430908203125]}, "properties": {"stop_id": "1384", "stop_name": "Neilson Rd at Livonia Pl"}}, {"type": "Feature", "geometry": {"type": "Point", "coordinates": [-79.25664520263672, 43.77478790283203]}, "properties": {"stop_id": "16334", "stop_name": "Scarborough Centre Station"}}, {"type": "Feature", "geometry": {"type": "Point", "coordinates": [-79.22442626953125, 43.8167724609375]}, "properties": {"stop_id": "14442", "stop_name": "Finch Ave East at Blackbird Gate"}}, {"type": "Feature", "geometry": {"type": "Point", "coordinates": [-79.22075653076172, 43.81922912597656]}, "properties": {"stop_id": "14444", "stop_name": "Finch Ave East at Morningside Ave"}}, {"type": "Feature", "geometry": {"type": "Point", "coordinates": [-79.220703125, 43.82081985473633]}, "properties": {"stop_id": "14446", "stop_name": "Staines Rd at Jacques Rd"}}, {"type": "Feature", "geometry": {"type": "Point", "coordinates": [-79.22665405273438, 43.82477569580078]}, "properties": {"stop_id": "14083", "stop_name": "Nightstar Rd at Pogonia St"}}, {"type": "Feature", "geometry": {"type": "Point", "coordinates": [-79.20502471923828, 43.78301239013672]}, "properties": {"stop_id": "1378", "stop_name": "Neilson Rd at Ellesmere Rd North Side"}}, {"type": "Feature", "geometry": {"type": "Point", "coordinates": [-79.23287200927734, 43.8265495300293]}, "properties": {"stop_id": "14104", "stop_name": "2851 Morningside Ave Walkway to Raponi Cir"}}, {"type": "Feature", "geometry": {"type": "Point", "coordinates": [-79.20509338378906, 43.782440185546875]}, "properties": {"stop_id": "7704", "stop_name": "Ellesmere Rd at Neilson Rd - Scarborough Health Network Centenary Hospital"}}, {"type": "Feature", "geometry": {"type": "Point", "coordinates": [-79.23504638671875, 43.77562713623047]}, "properties": {"stop_id": "1044", "stop_name": "Ellesmere Rd at Dolly Varden Blvd"}}, {"type": "Feature", "geometry": {"type": "Point", "coordinates": [-79.2216796875, 43.82670974731445]}, "properties": {"stop_id": "14107", "stop_name": "Staines Rd at Warbler Cir"}}, {"type": "Feature", "geometry": {"type": "Point", "coordinates": [-79.22654724121094, 43.814388275146484]}, "properties": {"stop_id": "13903", "stop_name": "Neilson Rd at Neilson Park Dr"}}, {"type": "Feature", "geometry": {"type": "Point", "coordinates": [-79.21145629882812, 43.79007339477539]}, "properties": {"stop_id": "1383", "stop_name": "Neilson Rd at Keeler Blvd"}}, {"type": "Feature", "geometry": {"type": "Point", "coordinates": [-79.22578430175781, 43.8127555847168]}, "properties": {"stop_id": "9908", "stop_name": "Neilson Ave at Crow Trail North Side"}}, {"type": "Feature", "geometry": {"type": "Point", "coordinates": [-79.22825622558594, 43.82926559448242]}, "properties": {"stop_id": "14105", "stop_name": "Seasons Dr at Canoe Cres (West)"}}, {"type": "Feature", "geometry": {"type": "Point", "coordinates": [-79.2272720336914, 43.81610870361328]}, "properties": {"stop_id": "13904", "stop_name": "Neilson Rd at Finch Ave East"}}, {"type": "Feature", "geometry": {"type": "Point", "coordinates": [-79.21653747558594, 43.79599380493164]}, "properties": {"stop_id": "1389", "stop_name": "Neilson Rd at Milner Ave North Side"}}, {"type": "Feature", "geometry": {"type": "Point", "coordinates": [-79.21955871582031, 43.8078498840332]}, "properties": {"stop_id": "11329", "stop_name": "1315 and 1319 Neilson Rd"}}, {"type": "Feature", "geometry": {"type": "Point", "coordinates": [-79.25047302246094, 43.77225112915039]}, "properties": {"stop_id": "9604", "stop_name": "Ellesmere Rd at McCowan Rd East Side"}}, {"type": "Feature", "geometry": {"type": "Point", "coordinates": [-79.25220489501953, 43.774227142333984]}, "properties": {"stop_id": "16645", "stop_name": "McCowan Rd at Town Centre Crt South Side"}}, {"type": "Feature", "geometry": {"type": "Point", "coordinates": [-79.21737670898438, 43.797969818115234]}, "properties": {"stop_id": "1400", "stop_name": "Neilson Rd at Sheppard Ave East"}}, {"type": "Feature", "geometry": {"type": "Point", "coordinates": [-79.22270202636719, 43.82400894165039]}, "properties": {"stop_id": "14081", "stop_name": "Mantis Rd at Poppy Pl (North)"}}, {"type": "Feature", "geometry": {"type": "Point", "coordinates": [-79.20811462402344, 43.78791809082031]}, "properties": {"stop_id": "1387", "stop_name": "Neilson Rd at Military Trail"}}, {"type": "Feature", "geometry": {"type": "Point", "coordinates": [-79.21834564208984, 43.80641555786133]}, "properties": {"stop_id": "1399", "stop_name": "Neilson Rd at Sewells Rd"}}, {"type": "Feature", "geometry": {"type": "Point", "coordinates": [-79.22620391845703, 43.77755355834961]}, "properties": {"stop_id": "1046", "stop_name": "Ellesmere Rd at Gander Dr East Side"}}, {"type": "Feature", "geometry": {"type": "Point", "coordinates": [-79.27498626708984, 43.74995803833008]}, "properties": {"stop_id": "16373", "stop_name": "Kennedy Rd at Lawrence Ave East East Side"}}, {"type": "Feature", "geometry": {"type": "Point", "coordinates": [-79.2170639038086, 43.80410385131836]}, "properties": {"stop_id": "1403", "stop_name": "Neilson Rd at Silverbell Grove"}}, {"type": "Feature", "geometry": {"type": "Point", "coordinates": [-79.22030639648438, 43.82158660888672]}, "properties": {"stop_id": "14086", "stop_name": "Staines Rd at Mantis Rd"}}, {"type": "Feature", "geometry": {"type": "Point", "coordinates": [-79.22126770019531, 43.80910110473633]}, "properties": {"stop_id": "9409", "stop_name": "Neilson Rd at McLevin Ave"}}, {"type": "Feature", "geometry": {"type": "Point", "coordinates": [-79.24636840820312, 43.773189544677734]}, "properties": {"stop_id": "7711", "stop_name": "Ellesmere Rd at Parkington Cres"}}]}