{"type": "FeatureCollection", "features": [{"type": "Feature", "geometry": {"type": "Point", "coordinates": [-79.23551177978516, 43.78132247924805]}, "properties": {"stop_id": "4547", "stop_name": "Progress Ave at Estate Dr East Side"}}, {"type": "Feature", "geometry": {"type": "Point", "coordinates": [-79.23228454589844, 43.814884185791016]}, "properties": {"stop_id": "9327", "stop_name": "Baldoon Rd at Finch Ave East South Side"}}, {"type": "Feature", "geometry": {"type": "Point", "coordinates": [-79.23309326171875, 43.81952667236328]}, "properties": {"stop_id": "11549", "stop_name": "Finchdene Sq at Torham Pl"}}, {"type": "Feature", "geometry": {"type": "Point", "coordinates": [-79.24645233154297, 43.82032012939453]}, "properties": {"stop_id": "10841", "stop_name": "Markham Rd at Nashdene Rd"}}, {"type": "Feature", "geometry": {"type": "Point", "coordinates": [-79.22573852539062, 43.804908752441406]}, "properties": {"stop_id": "4660", "stop_name": "Tapscott Rd at McLevin Ave"}}, {"type": "Feature", "geometry": {"type": "Point", "coordinates": [-79.25361633300781, 43.77827453613281]}, "properties": {"stop_id": "16529", "stop_name": "McCowan Rd at 300 Consilium Pl"}}, {"type": "Feature", "geometry": {"type": "Point", "coordinates": [-79.23319244384766, 43.788330078125]}, "properties": {"stop_id": "12051", "stop_name": "Progress Ave at Milner Business Crt"}}, {"type": "Feature", "geometry": {"type": "Point", "coordinates": [-79.22762298583984, 43.796634674072266]}, "properties": {"stop_id": "4703", "stop_name": "Washburn Way at Sheppard Ave East North Side"}}, {"type": "Feature", "geometry": {"type": "Point", "coordinates": [-79.24714660644531, 43.780433654785156]}, "properties": {"stop_id": "12100", "stop_name": "Corporate Dr at Lee Centre Dr (West)"}}, {"type": "Feature", "geometry": {"type": "Point", "coordinates": [-79.22457122802734, 43.80227279663086]}, "properties": {"stop_id": "4702", "stop_name": "Washburn Way at Nahanni Ter"}}, {"type": "Feature", "geometry": {"type": "Point", "coordinates": [-79.23809814453125, 43.81888198852539]}, "properties": {"stop_id": "11552", "stop_name": "Newgale Gate at Finchdene Sq West Side"}}, {"type": "Feature", "geometry": {"type": "Point", "coordinates": [-79.23489379882812, 43.821109771728516]}, "properties": {"stop_id": "11550", "stop_name": "257 Finchdene Sq"}}, {"type": "Feature", "geometry": {"type": "Point", "coordinates": [-79.24141693115234, 43.78053665161133]}, "properties": {"stop_id": "4537", "stop_name": "821 Progress Ave"}}, {"type": "Feature", "geometry": {"type": "Point", "coordinates": [-79.2339859008789, 43.79240798950195]}, "properties": {"stop_id": "12053", "stop_name": "Progress Ave at Rosebank Dr North Side"}}, {"type": "Feature", "geometry": {"type": "Point", "coordinates": [-79.23055267333984, 43.79545974731445]}, "properties": {"stop_id": "7252", "stop_name": "Sheppard Ave East at Gateforth Dr"}}, {"type": "Feature", "geometry": {"type": "Point", "coordinates": [-79.23326110839844, 43.78193283081055]}, "properties": {"stop_id": "11364", "stop_name": "Progress Ave at Markham Rd East Side"}}, {"type": "Feature", "geometry": {"type": "Point", "coordinates": [-79.24492645263672, 43.829071044921875]}, "properties": {"stop_id": "10849", "stop_name": "Ironside Cres at Tapscott Rd"}}, {"type": "Feature", "geometry": {"type": "Point", "coordinates": [-79.24755859375, 43.823822021484375]}, "properties": {"stop_id": "13629", "stop_name": "Markham Rd at McNicoll Ave"}}, {"type": "Feature", "geometry": {"type": "Point", "coordinates": [-79.2399673461914, 43.81355285644531]}, "properties": {"stop_id": "2561", "stop_name": "Opposite 5600 Finch Ave East"}}, {"type": "Feature", "geometry": {"type": "Point", "coordinates": [-79.23241424560547, 43.80769729614258]}, "properties": {"stop_id": "4657", "stop_name": "Tapscott Rd at Crow Trail"}}, {"type": "Feature", "geometry": {"type": "Point", "coordinates": [-79.2494125366211, 43.77995681762695]}, "properties": {"stop_id": "11362", "stop_name": "Opposite 88 Corporate Dr"}}, {"type": "Feature", "geometry": {"type": "Point", "coordinates": [-79.24710845947266, 43.82700729370117]}, "properties": {"stop_id": "10846", "stop_name": "45 Ironside Cres"}}, {"type": "Feature", "geometry": {"type": "Point", "coordinates": [-79.23558044433594, 43.81095504760742]}, "properties": {"stop_id": "4662", "stop_name": "Tapscott Rd at Lighthall Cres North Side"}}, {"type": "Feature", "geometry": {"type": "Point", "coordinates": [-79.24613189697266, 43.824729919433594]}, "properties": {"stop_id": "10845", "stop_name": "Ironside Cres at McNicoll Ave North Side"}}, {"type": "Feature", "geometry": {"type": "Point", "coordinates": [-79.24406433105469, 43.827823638916016]}, "properties": {"stop_id": "10850", "stop_name": "1120 Tapscott Rd"}}, {"type": "Feature", "geometry": {"type": "Point", "coordinates": [-79.24276733398438, 43.81319808959961]}, "properties": {"stop_id": "2526", "stop_name": "Finch Ave East at Markham Rd"}}, {"type": "Feature", "geometry": {"type": "Point", "coordinates": [-79.22408294677734, 43.80414962768555]}, "properties": {"stop_id": "4704", "stop_name": "Washburn Way at Tapscott Rd"}}, {"type": "Feature", "geometry": {"type": "Point", "coordinates": [-79.2401123046875, 43.813697814941406]}, "properties": {"stop_id": "2562", "stop_name": "5600 Finch Ave East"}}, {"type": "Feature", "geometry": {"type": "Point", "coordinates": [-79.24315643310547, 43.780174255371094]}, "properties": {"stop_id": "13460", "stop_name": "Progress Ave at Bellamy Rd North East Side"}}, {"type": "Feature", "geometry": {"type": "Point", "coordinates": [-79.23895263671875, 43.780616760253906]}, "properties": {"stop_id": "4556", "stop_name": "Progress Ave at Production Dr"}}, {"type": "Feature", "geometry": {"type": "Point", "coordinates": [-79.2459487915039, 43.820125579833984]}, "properties": {"stop_id": "12603", "stop_name": "Markham Rd at Nashdene Rd"}}, {"type": "Feature", "geometry": {"type": "Point", "coordinates": [-79.23394775390625, 43.789947509765625]}, "properties": {"stop_id": "12052", "stop_name": "Progress Ave at Milner Ave"}}, {"type": "Feature", "geometry": {"type": "Point", "coordinates": [-79.23685455322266, 43.81401824951172]}, "properties": {"stop_id": "4659", "stop_name": "Tapscott Rd at Finch Ave East"}}, {"type": "Feature", "geometry": {"type": "Point", "coordinates": [-79.24333953857422, 43.826053619384766]}, "properties": {"stop_id": "10851", "stop_name": "Tapscott Rd at McNicoll Ave"}}, {"type": "Feature", "geometry": {"type": "Point", "coordinates": [-79.22628021240234, 43.80072784423828]}, "properties": {"stop_id": "4705", "stop_name": "Washburn Way at Berner Trail"}}, {"type": "Feature", "geometry": {"type": "Point", "coordinates": [-79.24427795410156, 43.825660705566406]}, "properties": {"stop_id": "10844", "stop_name": "Tapscott Rd at McNicoll Ave West Side"}}, {"type": "Feature", "geometry": {"type": "Point", "coordinates": [-79.25849151611328, 43.77436828613281]}, "properties": {"stop_id": "14761", "stop_name": "Scarborough Centre Station"}}, {"type": "Feature", "geometry": {"type": "Point", "coordinates": [-79.23776245117188, 43.82051086425781]}, "properties": {"stop_id": "11551", "stop_name": "Finchdene Sq at Pullman Crt"}}, {"type": "Feature", "geometry": {"type": "Point", "coordinates": [-79.23255157470703, 43.81512451171875]}, "properties": {"stop_id": "2484", "stop_name": "Finch Ave East at Baldoon Rd"}}, {"type": "Feature", "geometry": {"type": "Point", "coordinates": [-79.22805786132812, 43.79817199707031]}, "properties": {"stop_id": "4701", "stop_name": "Washburn Way at Griffen Dr"}}, {"type": "Feature", "geometry": {"type": "Point", "coordinates": [-79.23738098144531, 43.81441116333008]}, "properties": {"stop_id": "11554", "stop_name": "Tapscott Rd at Finch Ave East"}}, {"type": "Feature", "geometry": {"type": "Point", "coordinates": [-79.23162078857422, 43.78352737426758]}, "properties": {"stop_id": "6007", "stop_name": "Progress Ave at Roadway to Centennial College"}}, {"type": "Feature", "geometry": {"type": "Point", "coordinates": [-79.23985290527344, 43.81813049316406]}, "properties": {"stop_id": "16022", "stop_name": "Tapscott Rd at Newgale Gate South Side"}}, {"type": "Feature", "geometry": {"type": "Point", "coordinates": [-79.23213195800781, 43.817142486572266]}, "properties": {"stop_id": "11548", "stop_name": "Finchdene Sq (East) at Finchdene Sq (South)"}}, {"type": "Feature", "geometry": {"type": "Point", "coordinates": [-79.23493194580078, 43.809478759765625]}, "properties": {"stop_id": "4664", "stop_name": "Opposite 430 Tapscott Rd - Walkway to Tunmead Square"}}, {"type": "Feature", "geometry": {"type": "Point", "coordinates": [-79.23477172851562, 43.794410705566406]}, "properties": {"stop_id": "12054", "stop_name": "Progress Ave at Sheppard Ave East"}}, {"type": "Feature", "geometry": {"type": "Point", "coordinates": [-79.23635864257812, 43.81428909301758]}, "properties": {"stop_id": "16369", "stop_name": "Finch Ave East at Tapscott Rd East Side"}}, {"type": "Feature", "geometry": {"type": "Point", "coordinates": [-79.24691772460938, 43.828636169433594]}, "properties": {"stop_id": "10847", "stop_name": "105 Ironside Cres"}}]}