{"type": "FeatureCollection", "features": [{"type": "Feature", "geometry": {"type": "Point", "coordinates": [-79.50914001464844, 43.64213943481445]}, "properties": {"stop_id": "6997", "stop_name": "Royal York Rd at Glenroy Ave"}}, {"type": "Feature", "geometry": {"type": "Point", "coordinates": [-79.52823638916016, 43.61525344848633]}, "properties": {"stop_id": "11561", "stop_name": "400 Evans Ave"}}, {"type": "Feature", "geometry": {"type": "Point", "coordinates": [-79.50411987304688, 43.62014389038086]}, "properties": {"stop_id": "9403", "stop_name": "Evans Ave at Carnarvon Ave"}}, {"type": "Feature", "geometry": {"type": "Point", "coordinates": [-79.53280639648438, 43.61425018310547]}, "properties": {"stop_id": "2432", "stop_name": "Evans Ave at Bellman Ave East Side"}}, {"type": "Feature", "geometry": {"type": "Point", "coordinates": [-79.50525665283203, 43.63285827636719]}, "properties": {"stop_id": "7019", "stop_name": "Royal York Rd at Oakfield Dr North Side"}}, {"type": "Feature", "geometry": {"type": "Point", "coordinates": [-79.54945373535156, 43.61043930053711]}, "properties": {"stop_id": "2434", "stop_name": "Evans Ave at Brown's Line"}}, {"type": "Feature", "geometry": {"type": "Point", "coordinates": [-79.5111312866211, 43.64718246459961]}, "properties": {"stop_id": "6976", "stop_name": "Royal York Rd at Bloor St West"}}, {"type": "Feature", "geometry": {"type": "Point", "coordinates": [-79.51156616210938, 43.61819076538086]}, "properties": {"stop_id": "9400", "stop_name": "Evans Ave at Islington Ave"}}, {"type": "Feature", "geometry": {"type": "Point", "coordinates": [-79.52496337890625, 43.615753173828125]}, "properties": {"stop_id": "2448", "stop_name": "Evans Ave at Kipling Ave"}}, {"type": "Feature", "geometry": {"type": "Point", "coordinates": [-79.5458755493164, 43.611297607421875]}, "properties": {"stop_id": "2453", "stop_name": "Evans Ave at Sheldon Ave"}}, {"type": "Feature", "geometry": {"type": "Point", "coordinates": [-79.50425720214844, 43.63057327270508]}, "properties": {"stop_id": "7042", "stop_name": "Royal York Rd at York View Dr"}}, {"type": "Feature", "geometry": {"type": "Point", "coordinates": [-79.5016098022461, 43.62065887451172]}, "properties": {"stop_id": "9404", "stop_name": "Evans Ave at Cremorne Ave"}}, {"type": "Feature", "geometry": {"type": "Point", "coordinates": [-79.51910400390625, 43.61680603027344]}, "properties": {"stop_id": "2444", "stop_name": "Evans Ave at Horner Ave"}}, {"type": "Feature", "geometry": {"type": "Point", "coordinates": [-79.507080078125, 43.63737106323242]}, "properties": {"stop_id": "7016", "stop_name": "Royal York Rd at Norseman St North Side"}}, {"type": "Feature", "geometry": {"type": "Point", "coordinates": [-79.51315307617188, 43.618045806884766]}, "properties": {"stop_id": "2447", "stop_name": "185 Evans Ave"}}, {"type": "Feature", "geometry": {"type": "Point", "coordinates": [-79.50594329833984, 43.63457489013672]}, "properties": {"stop_id": "6983", "stop_name": "Royal York Rd at Coney Rd North Side"}}, {"type": "Feature", "geometry": {"type": "Point", "coordinates": [-79.5155258178711, 43.617618560791016]}, "properties": {"stop_id": "2439", "stop_name": "Evans Ave at Eastwick Rd"}}, {"type": "Feature", "geometry": {"type": "Point", "coordinates": [-79.50963592529297, 43.618839263916016]}, "properties": {"stop_id": "9401", "stop_name": "Evans Ave at Ourland Ave"}}, {"type": "Feature", "geometry": {"type": "Point", "coordinates": [-79.50846099853516, 43.639217376708984]}, "properties": {"stop_id": "14452", "stop_name": "Opposite 810 Royal York Rd"}}, {"type": "Feature", "geometry": {"type": "Point", "coordinates": [-79.53646087646484, 43.61343002319336]}, "properties": {"stop_id": "2455", "stop_name": "Evans Ave at Treeview Dr"}}, {"type": "Feature", "geometry": {"type": "Point", "coordinates": [-79.51129150390625, 43.648101806640625]}, "properties": {"stop_id": "14753", "stop_name": "Royal York Station"}}, {"type": "Feature", "geometry": {"type": "Point", "coordinates": [-79.54108428955078, 43.612361907958984]}, "properties": {"stop_id": "2443", "stop_name": "Evans Ave at Gamma St"}}, {"type": "Feature", "geometry": {"type": "Point", "coordinates": [-79.5024185180664, 43.6262092590332]}, "properties": {"stop_id": "7022", "stop_name": "Royal York Rd at The Queensway"}}, {"type": "Feature", "geometry": {"type": "Point", "coordinates": [-79.50686645507812, 43.619544982910156]}, "properties": {"stop_id": "9402", "stop_name": "Evans Ave at Garroch Pl"}}, {"type": "Feature", "geometry": {"type": "Point", "coordinates": [-79.53887939453125, 43.612876892089844]}, "properties": {"stop_id": "2450", "stop_name": "Evans Ave at North Carson St"}}, {"type": "Feature", "geometry": {"type": "Point", "coordinates": [-79.51005554199219, 43.64441680908203]}, "properties": {"stop_id": "7035", "stop_name": "Royal York Rd at Van Dusen Blvd North Side"}}, {"type": "Feature", "geometry": {"type": "Point", "coordinates": [-79.55776977539062, 43.60984802246094]}, "properties": {"stop_id": "11587", "stop_name": "Sherway Gardens Rd at Sherway Gate (Mall)"}}, {"type": "Feature", "geometry": {"type": "Point", "coordinates": [-79.50306701660156, 43.627716064453125]}, "properties": {"stop_id": "6990", "stop_name": "Royal York Rd at Tenby St"}}, {"type": "Feature", "geometry": {"type": "Point", "coordinates": [-79.55243682861328, 43.60980987548828]}, "properties": {"stop_id": "2440", "stop_name": "Evans Ave at Gair Dr"}}, {"type": "Feature", "geometry": {"type": "Point", "coordinates": [-79.54397583007812, 43.611724853515625]}, "properties": {"stop_id": "2436", "stop_name": "Evans Ave at The East Mall"}}, {"type": "Feature", "geometry": {"type": "Point", "coordinates": [-79.52107238769531, 43.616397857666016]}, "properties": {"stop_id": "2431", "stop_name": "Evans Ave at Arnold St"}}, {"type": "Feature", "geometry": {"type": "Point", "coordinates": [-79.50163269042969, 43.624359130859375]}, "properties": {"stop_id": "6987", "stop_name": "Royal York Rd at Dalesford Rd"}}]}