{"type": "FeatureCollection", "features": [{"type": "Feature", "geometry": {"type": "Point", "coordinates": [-79.29912567138672, 43.783477783203125]}, "properties": {"stop_id": "382", "stop_name": "Birchmount Rd at Bonis Ave"}}, {"type": "Feature", "geometry": {"type": "Point", "coordinates": [-79.27584075927734, 43.725135803222656]}, "properties": {"stop_id": "394", "stop_name": "Birchmount Rd at Chelwood Rd"}}, {"type": "Feature", "geometry": {"type": "Point", "coordinates": [-79.28109741210938, 43.73857116699219]}, "properties": {"stop_id": "443", "stop_name": "Birchmount Rd at Ranstone Gardens"}}, {"type": "Feature", "geometry": {"type": "Point", "coordinates": [-79.28931427001953, 43.75883865356445]}, "properties": {"stop_id": "460", "stop_name": "Birchmount Rd at Vauxhall Dr"}}, {"type": "Feature", "geometry": {"type": "Point", "coordinates": [-79.27769470214844, 43.72968673706055]}, "properties": {"stop_id": "403", "stop_name": "Birchmount Rd at Eglinton Ave East"}}, {"type": "Feature", "geometry": {"type": "Point", "coordinates": [-79.27519989013672, 43.7236442565918]}, "properties": {"stop_id": "395", "stop_name": "Birchmount Rd at Comstock Rd"}}, {"type": "Feature", "geometry": {"type": "Point", "coordinates": [-79.27872467041016, 43.73274230957031]}, "properties": {"stop_id": "14263", "stop_name": "Birchmount Rd at Ashtonbee Rd"}}, {"type": "Feature", "geometry": {"type": "Point", "coordinates": [-79.29389953613281, 43.7718505859375]}, "properties": {"stop_id": "463", "stop_name": "Birchmount Rd at Highway 401 - Walkway North of Rolark"}}, {"type": "Feature", "geometry": {"type": "Point", "coordinates": [-79.3006591796875, 43.787010192871094]}, "properties": {"stop_id": "439", "stop_name": "2481 Birchmount Rd"}}, {"type": "Feature", "geometry": {"type": "Point", "coordinates": [-79.31759643554688, 43.82631301879883]}, "properties": {"stop_id": "424", "stop_name": "Birchmount Rd at Highgate Dr"}}, {"type": "Feature", "geometry": {"type": "Point", "coordinates": [-79.32003021240234, 43.83970642089844]}, "properties": {"stop_id": "15410", "stop_name": "Birchmount Rd at 14th Ave"}}, {"type": "Feature", "geometry": {"type": "Point", "coordinates": [-79.3049087524414, 43.79679489135742]}, "properties": {"stop_id": "419", "stop_name": "Birchmount Rd at Glendower Circt (North)"}}, {"type": "Feature", "geometry": {"type": "Point", "coordinates": [-79.3249740600586, 43.8563232421875]}, "properties": {"stop_id": "15557", "stop_name": "Rougeside Promenade at Uptown Dr"}}, {"type": "Feature", "geometry": {"type": "Point", "coordinates": [-79.3178482055664, 43.82383728027344]}, "properties": {"stop_id": "423", "stop_name": "Birchmount Rd at Harvest Moon Dr"}}, {"type": "Feature", "geometry": {"type": "Point", "coordinates": [-79.28250122070312, 43.74199676513672]}, "properties": {"stop_id": "413", "stop_name": "Birchmount Rd at Flora Dr"}}, {"type": "Feature", "geometry": {"type": "Point", "coordinates": [-79.3143310546875, 43.816131591796875]}, "properties": {"stop_id": "441", "stop_name": "Birchmount Rd at Sanwood Blvd"}}, {"type": "Feature", "geometry": {"type": "Point", "coordinates": [-79.2911148071289, 43.763206481933594]}, "properties": {"stop_id": "406", "stop_name": "Birchmount Rd at Ellesmere Rd"}}, {"type": "Feature", "geometry": {"type": "Point", "coordinates": [-79.28809356689453, 43.75575637817383]}, "properties": {"stop_id": "16720", "stop_name": "Birchmount Rd at Laura Secord Walk"}}, {"type": "Feature", "geometry": {"type": "Point", "coordinates": [-79.30679321289062, 43.80059051513672]}, "properties": {"stop_id": "450", "stop_name": "Birchmount Rd at Silver Springs Blvd"}}, {"type": "Feature", "geometry": {"type": "Point", "coordinates": [-79.31748962402344, 43.829437255859375]}, "properties": {"stop_id": "381", "stop_name": "Birchmount Rd at Bibury Gate"}}, {"type": "Feature", "geometry": {"type": "Point", "coordinates": [-79.27437591552734, 43.72173309326172]}, "properties": {"stop_id": "417", "stop_name": "Birchmount Rd at Foxridge Dr"}}, {"type": "Feature", "geometry": {"type": "Point", "coordinates": [-79.3251953125, 43.851566314697266]}, "properties": {"stop_id": "15413", "stop_name": "Birchmount Rd at Verdale Crossing"}}, {"type": "Feature", "geometry": {"type": "Point", "coordinates": [-79.28194427490234, 43.740665435791016]}, "properties": {"stop_id": "397", "stop_name": "Birchmount Rd at Crouse Rd"}}, {"type": "Feature", "geometry": {"type": "Point", "coordinates": [-79.32444763183594, 43.84907913208008]}, "properties": {"stop_id": "15412", "stop_name": "Birchmount Rd at Enterprise Blvd"}}, {"type": "Feature", "geometry": {"type": "Point", "coordinates": [-79.29127502441406, 43.76567459106445]}, "properties": {"stop_id": "438", "stop_name": "Opposite 1792 Birchmount Rd"}}, {"type": "Feature", "geometry": {"type": "Point", "coordinates": [-79.29690551757812, 43.778865814208984]}, "properties": {"stop_id": "390", "stop_name": "Birchmount Rd at Cass Ave"}}, {"type": "Feature", "geometry": {"type": "Point", "coordinates": [-79.3033676147461, 43.793209075927734]}, "properties": {"stop_id": "420", "stop_name": "Birchmount Rd at Glendower Circt (South)"}}, {"type": "Feature", "geometry": {"type": "Point", "coordinates": [-79.28327178955078, 43.74393844604492]}, "properties": {"stop_id": "432", "stop_name": "Birchmount Rd at Modern Rd"}}, {"type": "Feature", "geometry": {"type": "Point", "coordinates": [-79.28048706054688, 43.737060546875]}, "properties": {"stop_id": "375", "stop_name": "1103 Birchmount Rd"}}, {"type": "Feature", "geometry": {"type": "Point", "coordinates": [-79.27295684814453, 43.718467712402344]}, "properties": {"stop_id": "14964", "stop_name": "Birchmount Rd at Anaconda Ave"}}, {"type": "Feature", "geometry": {"type": "Point", "coordinates": [-79.31539154052734, 43.81845474243164]}, "properties": {"stop_id": "457", "stop_name": "Birchmount Rd at Opposite Walkway to River Grove Dr"}}, {"type": "Feature", "geometry": {"type": "Point", "coordinates": [-79.31214141845703, 43.81105041503906]}, "properties": {"stop_id": "427", "stop_name": "Birchmount Rd at Ivy Bush Ave North Side"}}, {"type": "Feature", "geometry": {"type": "Point", "coordinates": [-79.30569458007812, 43.798744201660156]}, "properties": {"stop_id": "411", "stop_name": "Birchmount Rd at Finch Ave East"}}, {"type": "Feature", "geometry": {"type": "Point", "coordinates": [-79.31017303466797, 43.806827545166016]}, "properties": {"stop_id": "453", "stop_name": "Birchmount Rd at Staley Ter"}}, {"type": "Feature", "geometry": {"type": "Point", "coordinates": [-79.27669525146484, 43.712913513183594]}, "properties": {"stop_id": "4629", "stop_name": "St Clair Ave East at Santamonica Blvd"}}, {"type": "Feature", "geometry": {"type": "Point", "coordinates": [-79.28517150878906, 43.748714447021484]}, "properties": {"stop_id": "402", "stop_name": "Birchmount Rd at Dulverton Rd North Side"}}, {"type": "Feature", "geometry": {"type": "Point", "coordinates": [-79.28460693359375, 43.74726104736328]}, "properties": {"stop_id": "429", "stop_name": "Birchmount Rd at Lawrence Ave East"}}, {"type": "Feature", "geometry": {"type": "Point", "coordinates": [-79.2948989868164, 43.77415084838867]}, "properties": {"stop_id": "372", "stop_name": "Birchmount Rd at Allanford Rd"}}, {"type": "Feature", "geometry": {"type": "Point", "coordinates": [-79.30850219726562, 43.80310821533203]}, "properties": {"stop_id": "9788", "stop_name": "Opposite 3030 Birchmount Rd Scarb Hospital Birchmount Campus"}}, {"type": "Feature", "geometry": {"type": "Point", "coordinates": [-79.29202270507812, 43.76752853393555]}, "properties": {"stop_id": "445", "stop_name": "Birchmount Rd at Rolark Dr"}}, {"type": "Feature", "geometry": {"type": "Point", "coordinates": [-79.28646087646484, 43.75188064575195]}, "properties": {"stop_id": "435", "stop_name": "Birchmount Rd at Merryfield Dr"}}, {"type": "Feature", "geometry": {"type": "Point", "coordinates": [-79.271240234375, 43.714656829833984]}, "properties": {"stop_id": "451", "stop_name": "Birchmount Rd at St Clair Ave East North Side"}}, {"type": "Feature", "geometry": {"type": "Point", "coordinates": [-79.31092834472656, 43.8084602355957]}, "properties": {"stop_id": "433", "stop_name": "Birchmount Rd at McNicoll Ave"}}, {"type": "Feature", "geometry": {"type": "Point", "coordinates": [-79.27691650390625, 43.727596282958984]}, "properties": {"stop_id": "384", "stop_name": "Birchmount Rd at Bonniewood Rd"}}, {"type": "Feature", "geometry": {"type": "Point", "coordinates": [-79.29600524902344, 43.776798248291016]}, "properties": {"stop_id": "422", "stop_name": "Birchmount Rd at Harleyford Gate"}}, {"type": "Feature", "geometry": {"type": "Point", "coordinates": [-79.31682586669922, 43.82086181640625]}, "properties": {"stop_id": "9720", "stop_name": "Birchmount Rd at Steeles Ave South Side"}}, {"type": "Feature", "geometry": {"type": "Point", "coordinates": [-79.27951049804688, 43.71015930175781]}, "properties": {"stop_id": "16638", "stop_name": "Warden Station"}}, {"type": "Feature", "geometry": {"type": "Point", "coordinates": [-79.3192367553711, 43.834835052490234]}, "properties": {"stop_id": "12095", "stop_name": "Birchmount Rd at Micro Crt"}}, {"type": "Feature", "geometry": {"type": "Point", "coordinates": [-79.30233001708984, 43.79077911376953]}, "properties": {"stop_id": "425", "stop_name": "Birchmount Rd at Huntingwood Dr North Side"}}, {"type": "Feature", "geometry": {"type": "Point", "coordinates": [-79.31342315673828, 43.813926696777344]}, "properties": {"stop_id": "465", "stop_name": "Birchmount Rd at Opposite Walkway to Ambercroft Blvd"}}, {"type": "Feature", "geometry": {"type": "Point", "coordinates": [-79.2903060913086, 43.76123809814453]}, "properties": {"stop_id": "388", "stop_name": "Birchmount Rd at Canadian Rd"}}, {"type": "Feature", "geometry": {"type": "Point", "coordinates": [-79.2978286743164, 43.78084945678711]}, "properties": {"stop_id": "448", "stop_name": "Birchmount Rd at Sheppard Ave East"}}, {"type": "Feature", "geometry": {"type": "Point", "coordinates": [-79.3185806274414, 43.83265686035156]}, "properties": {"stop_id": "400", "stop_name": "Birchmount Rd at Denison St"}}, {"type": "Feature", "geometry": {"type": "Point", "coordinates": [-79.31697845458984, 43.82190704345703]}, "properties": {"stop_id": "10713", "stop_name": "Birchmount Rd at Steeles Ave East North Side"}}, {"type": "Feature", "geometry": {"type": "Point", "coordinates": [-79.27970123291016, 43.735107421875]}, "properties": {"stop_id": "379", "stop_name": "Birchmount Rd at Bertrand Ave"}}, {"type": "Feature", "geometry": {"type": "Point", "coordinates": [-79.32115936279297, 43.841976165771484]}, "properties": {"stop_id": "15411", "stop_name": "Birchmount Rd at Citizen Crt"}}, {"type": "Feature", "geometry": {"type": "Point", "coordinates": [-79.32384490966797, 43.84779357910156]}, "properties": {"stop_id": "16575", "stop_name": "Birchmount Rd at Aviva Way"}}]}