{"type": "FeatureCollection", "features": [{"type": "Feature", "geometry": {"type": "Point", "coordinates": [-79.3253173828125, 43.742000579833984]}, "properties": {"stop_id": "8387", "stop_name": "Underhill Dr at Roanoke Rd"}}, {"type": "Feature", "geometry": {"type": "Point", "coordinates": [-79.33756256103516, 43.73851013183594]}, "properties": {"stop_id": "5333", "stop_name": "Lawrence Ave East at Woodcliff Pl West Side"}}, {"type": "Feature", "geometry": {"type": "Point", "coordinates": [-79.34294128417969, 43.734676361083984]}, "properties": {"stop_id": "1962", "stop_name": "Don Mills Rd at Clock Tower Rd"}}, {"type": "Feature", "geometry": {"type": "Point", "coordinates": [-79.34088897705078, 43.72724151611328]}, "properties": {"stop_id": "15526", "stop_name": "Don Mills Rd at Barber Greene Rd South Side"}}, {"type": "Feature", "geometry": {"type": "Point", "coordinates": [-79.33834075927734, 43.72309875488281]}, "properties": {"stop_id": "4720", "stop_name": "Wynford Dr at Don Mills Rd East Side"}}, {"type": "Feature", "geometry": {"type": "Point", "coordinates": [-79.32518768310547, 43.74079132080078]}, "properties": {"stop_id": "16686", "stop_name": "Lawrence Ave East at Underhill Dr West Side"}}, {"type": "Feature", "geometry": {"type": "Point", "coordinates": [-79.34124755859375, 43.7566032409668]}, "properties": {"stop_id": "11534", "stop_name": "Silverdale Cres at York Mills Rd South Side"}}, {"type": "Feature", "geometry": {"type": "Point", "coordinates": [-79.32752227783203, 43.75321578979492]}, "properties": {"stop_id": "8378", "stop_name": "Underhill Dr at Brookbanks Dr South Side"}}, {"type": "Feature", "geometry": {"type": "Point", "coordinates": [-79.33678436279297, 43.751766204833984]}, "properties": {"stop_id": "7917", "stop_name": "Laurentide Dr at Three Valleys Dr"}}, {"type": "Feature", "geometry": {"type": "Point", "coordinates": [-79.32597351074219, 43.74536895751953]}, "properties": {"stop_id": "8383", "stop_name": "Underhill Dr at Doonaree Dr South Side"}}, {"type": "Feature", "geometry": {"type": "Point", "coordinates": [-79.32637023925781, 43.7524299621582]}, "properties": {"stop_id": "8380", "stop_name": "Underhill Dr at Cassandra Blvd (North) South Side"}}, {"type": "Feature", "geometry": {"type": "Point", "coordinates": [-79.3373794555664, 43.72166061401367]}, "properties": {"stop_id": "16602", "stop_name": "Don Valley Station"}}, {"type": "Feature", "geometry": {"type": "Point", "coordinates": [-79.33668518066406, 43.72200012207031]}, "properties": {"stop_id": "3637", "stop_name": "Gervais Dr at Eglinton Ave East"}}, {"type": "Feature", "geometry": {"type": "Point", "coordinates": [-79.33197021484375, 43.75216293334961]}, "properties": {"stop_id": "7566", "stop_name": "Brookbanks Dr at Valley Woods Rd"}}, {"type": "Feature", "geometry": {"type": "Point", "coordinates": [-79.33659362792969, 43.723388671875]}, "properties": {"stop_id": "4725", "stop_name": "Wynford Dr at Gervais Dr"}}, {"type": "Feature", "geometry": {"type": "Point", "coordinates": [-79.32640075683594, 43.7481803894043]}, "properties": {"stop_id": "8376", "stop_name": "Underhill Dr at Beveridge Dr"}}, {"type": "Feature", "geometry": {"type": "Point", "coordinates": [-79.33931732177734, 43.757625579833984]}, "properties": {"stop_id": "9079", "stop_name": "York Mills Rd at Lochinvar Cres"}}, {"type": "Feature", "geometry": {"type": "Point", "coordinates": [-79.32609558105469, 43.74381637573242]}, "properties": {"stop_id": "8382", "stop_name": "Underhill Dr at Cornerbrook Dr"}}, {"type": "Feature", "geometry": {"type": "Point", "coordinates": [-79.32633209228516, 43.75040817260742]}, "properties": {"stop_id": "8385", "stop_name": "Underhill Dr at Kellythorne Dr"}}, {"type": "Feature", "geometry": {"type": "Point", "coordinates": [-79.34229278564453, 43.73233413696289]}, "properties": {"stop_id": "1923", "stop_name": "Don Mills Rd at The Donway West (South)"}}, {"type": "Feature", "geometry": {"type": "Point", "coordinates": [-79.3409423828125, 43.75486373901367]}, "properties": {"stop_id": "7912", "stop_name": "Laurentide Dr at Bushbury Dr"}}, {"type": "Feature", "geometry": {"type": "Point", "coordinates": [-79.34075164794922, 43.7378044128418]}, "properties": {"stop_id": "5260", "stop_name": "Lawrence Ave East at The Donway East"}}, {"type": "Feature", "geometry": {"type": "Point", "coordinates": [-79.33873748779297, 43.75309371948242]}, "properties": {"stop_id": "7911", "stop_name": "Laurentide Dr at Barnwood Crt East Side"}}, {"type": "Feature", "geometry": {"type": "Point", "coordinates": [-79.34344482421875, 43.73662567138672]}, "properties": {"stop_id": "14255", "stop_name": "Don Mills Rd at Lawrence Ave East South Side"}}, {"type": "Feature", "geometry": {"type": "Point", "coordinates": [-79.33507537841797, 43.75164031982422]}, "properties": {"stop_id": "11106", "stop_name": "Three Valleys Dr at Groveland Cres"}}]}