{"type": "FeatureCollection", "features": [{"type": "Feature", "geometry": {"type": "Point", "coordinates": [-79.28289794921875, 43.692352294921875]}, "properties": {"stop_id": "16740", "stop_name": "Danforth Ave at Pharmacy Ave East Side"}}, {"type": "Feature", "geometry": {"type": "Point", "coordinates": [-79.2589111328125, 43.734493255615234]}, "properties": {"stop_id": "1036", "stop_name": "Eglinton Ave East at Midland Ave West Side"}}, {"type": "Feature", "geometry": {"type": "Point", "coordinates": [-79.27490234375, 43.69403076171875]}, "properties": {"stop_id": "919", "stop_name": "3555 Danforth Ave"}}, {"type": "Feature", "geometry": {"type": "Point", "coordinates": [-79.26219177246094, 43.70055389404297]}, "properties": {"stop_id": "1147", "stop_name": "Highview Ave at South Edgely Ave"}}, {"type": "Feature", "geometry": {"type": "Point", "coordinates": [-79.26351165771484, 43.73222732543945]}, "properties": {"stop_id": "16453", "stop_name": "Kennedy Station Drop-off Platform"}}, {"type": "Feature", "geometry": {"type": "Point", "coordinates": [-79.2996826171875, 43.68855285644531]}, "properties": {"stop_id": "15924", "stop_name": "2615 Danforth Ave"}}, {"type": "Feature", "geometry": {"type": "Point", "coordinates": [-79.24932098388672, 43.71406555175781]}, "properties": {"stop_id": "1323", "stop_name": "Midland Ave at Aylesworth Ave North Side"}}, {"type": "Feature", "geometry": {"type": "Point", "coordinates": [-79.27397918701172, 43.69420623779297]}, "properties": {"stop_id": "923", "stop_name": "Danforth Ave at Warden Ave"}}, {"type": "Feature", "geometry": {"type": "Point", "coordinates": [-79.24858093261719, 43.7122917175293]}, "properties": {"stop_id": "1328", "stop_name": "419 Midland Ave North Side"}}, {"type": "Feature", "geometry": {"type": "Point", "coordinates": [-79.29281616210938, 43.69009017944336]}, "properties": {"stop_id": "910", "stop_name": "Danforth Ave at Sibley Ave"}}, {"type": "Feature", "geometry": {"type": "Point", "coordinates": [-79.26434326171875, 43.69810104370117]}, "properties": {"stop_id": "440", "stop_name": "Birchmount Rd at Pinegrove Ave"}}, {"type": "Feature", "geometry": {"type": "Point", "coordinates": [-79.25101470947266, 43.71843338012695]}, "properties": {"stop_id": "1329", "stop_name": "Midland Ave at St Clair Ave East"}}, {"type": "Feature", "geometry": {"type": "Point", "coordinates": [-79.2486572265625, 43.71183395385742]}, "properties": {"stop_id": "10434", "stop_name": "Park St at Midland Ave"}}, {"type": "Feature", "geometry": {"type": "Point", "coordinates": [-79.26426696777344, 43.700096130371094]}, "properties": {"stop_id": "1145", "stop_name": "Highview Ave at Aylesworth Ave"}}, {"type": "Feature", "geometry": {"type": "Point", "coordinates": [-79.25094604492188, 43.71133041381836]}, "properties": {"stop_id": "1443", "stop_name": "Park St at Atlee Ave"}}, {"type": "Feature", "geometry": {"type": "Point", "coordinates": [-79.25639343261719, 43.7043342590332]}, "properties": {"stop_id": "1208", "stop_name": "Kennedy Rd at Malta St North Side"}}, {"type": "Feature", "geometry": {"type": "Point", "coordinates": [-79.2513656616211, 43.719303131103516]}, "properties": {"stop_id": "1330", "stop_name": "Midland Ave at St Clair Ave East North Side"}}, {"type": "Feature", "geometry": {"type": "Point", "coordinates": [-79.25, 43.71570587158203]}, "properties": {"stop_id": "1326", "stop_name": "Midland Ave at Hagley Rd"}}, {"type": "Feature", "geometry": {"type": "Point", "coordinates": [-79.25377655029297, 43.72473907470703]}, "properties": {"stop_id": "1325", "stop_name": "Midland Ave at Danforth Rd"}}, {"type": "Feature", "geometry": {"type": "Point", "coordinates": [-79.2566146850586, 43.7100715637207]}, "properties": {"stop_id": "1448", "stop_name": "Park St at Claremore Ave"}}, {"type": "Feature", "geometry": {"type": "Point", "coordinates": [-79.28026580810547, 43.69293212890625]}, "properties": {"stop_id": "872", "stop_name": "Danforth Ave at Byng Ave"}}, {"type": "Feature", "geometry": {"type": "Point", "coordinates": [-79.26398468017578, 43.696346282958984]}, "properties": {"stop_id": "1450", "stop_name": "Parkette Pl at Birchmount Rd"}}, {"type": "Feature", "geometry": {"type": "Point", "coordinates": [-79.26898193359375, 43.69520950317383]}, "properties": {"stop_id": "921", "stop_name": "Danforth Ave at Eastwood Ave East Side"}}, {"type": "Feature", "geometry": {"type": "Point", "coordinates": [-79.25638580322266, 43.73066329956055]}, "properties": {"stop_id": "1327", "stop_name": "Midland Ave at Lorraine Ave"}}, {"type": "Feature", "geometry": {"type": "Point", "coordinates": [-79.2533950805664, 43.710853576660156]}, "properties": {"stop_id": "1449", "stop_name": "Park St at Natal Ave"}}, {"type": "Feature", "geometry": {"type": "Point", "coordinates": [-79.25775909423828, 43.70757293701172]}, "properties": {"stop_id": "1209", "stop_name": "Kennedy Rd at Mewburn Ave"}}, {"type": "Feature", "geometry": {"type": "Point", "coordinates": [-79.25851440429688, 43.709381103515625]}, "properties": {"stop_id": "1210", "stop_name": "Kennedy Rd at Park St"}}, {"type": "Feature", "geometry": {"type": "Point", "coordinates": [-79.26382446289062, 43.696842193603516]}, "properties": {"stop_id": "7547", "stop_name": "Birchmount Rd at Danforth Ave"}}, {"type": "Feature", "geometry": {"type": "Point", "coordinates": [-79.263427734375, 43.73201370239258]}, "properties": {"stop_id": "16391", "stop_name": "Kennedy Station - Platform B"}}, {"type": "Feature", "geometry": {"type": "Point", "coordinates": [-79.26001739501953, 43.70107650756836]}, "properties": {"stop_id": "1144", "stop_name": "Highview Ave at Anneke Rd"}}, {"type": "Feature", "geometry": {"type": "Point", "coordinates": [-79.25484466552734, 43.727054595947266]}, "properties": {"stop_id": "1332", "stop_name": "Midland Ave at Wolfe Ave"}}, {"type": "Feature", "geometry": {"type": "Point", "coordinates": [-79.28874206542969, 43.69104766845703]}, "properties": {"stop_id": "911", "stop_name": "Danforth Ave at Victoria Park Ave"}}, {"type": "Feature", "geometry": {"type": "Point", "coordinates": [-79.25721740722656, 43.701820373535156]}, "properties": {"stop_id": "16691", "stop_name": "Highview Ave at Pinegrove Ave"}}, {"type": "Feature", "geometry": {"type": "Point", "coordinates": [-79.25690460205078, 43.705501556396484]}, "properties": {"stop_id": "1207", "stop_name": "Kennedy Rd at Craiglee Dr"}}, {"type": "Feature", "geometry": {"type": "Point", "coordinates": [-79.2654800415039, 43.733028411865234]}, "properties": {"stop_id": "1038", "stop_name": "North Service Rd at Eglinton Ave East"}}, {"type": "Feature", "geometry": {"type": "Point", "coordinates": [-79.30170440673828, 43.68909454345703]}, "properties": {"stop_id": "14737", "stop_name": "Main Street Station"}}, {"type": "Feature", "geometry": {"type": "Point", "coordinates": [-79.25559997558594, 43.728824615478516]}, "properties": {"stop_id": "1331", "stop_name": "Midland Ave at Verdun Ave"}}, {"type": "Feature", "geometry": {"type": "Point", "coordinates": [-79.2780532836914, 43.693397521972656]}, "properties": {"stop_id": "897", "stop_name": "Danforth Ave at Leyton Ave"}}, {"type": "Feature", "geometry": {"type": "Point", "coordinates": [-79.29646301269531, 43.68928527832031]}, "properties": {"stop_id": "15925", "stop_name": "Danforth Ave at Dawes Rd"}}, {"type": "Feature", "geometry": {"type": "Point", "coordinates": [-79.25717163085938, 43.7325553894043]}, "properties": {"stop_id": "1324", "stop_name": "Midland Ave at Brussels Rd"}}]}