{"type": "FeatureCollection", "features": [{"type": "Feature", "geometry": {"type": "Point", "coordinates": [-79.45196533203125, 43.70224380493164]}, "properties": {"stop_id": "10262", "stop_name": "Dufferin St at Briar Hill Ave"}}, {"type": "Feature", "geometry": {"type": "Point", "coordinates": [-79.45645141601562, 43.722328186035156]}, "properties": {"stop_id": "982", "stop_name": "Dufferin St at Ranee Ave North Side"}}, {"type": "Feature", "geometry": {"type": "Point", "coordinates": [-79.44193267822266, 43.67542266845703]}, "properties": {"stop_id": "2018", "stop_name": "Dufferin St at Auburn Ave"}}, {"type": "Feature", "geometry": {"type": "Point", "coordinates": [-79.45223236083984, 43.7034797668457]}, "properties": {"stop_id": "2095", "stop_name": "Dufferin St at Stayner Ave"}}, {"type": "Feature", "geometry": {"type": "Point", "coordinates": [-79.4246597290039, 43.63277053833008]}, "properties": {"stop_id": "14470", "stop_name": "Saskatchewan Rd at Dufferin St"}}, {"type": "Feature", "geometry": {"type": "Point", "coordinates": [-79.45699310302734, 43.72508239746094]}, "properties": {"stop_id": "985", "stop_name": "Dufferin St at Jane Osler Blvd - Yorkdale Shopping Centre"}}, {"type": "Feature", "geometry": {"type": "Point", "coordinates": [-79.4397201538086, 43.67032241821289]}, "properties": {"stop_id": "2022", "stop_name": "Dufferin St at Brandon Ave"}}, {"type": "Feature", "geometry": {"type": "Point", "coordinates": [-79.42938232421875, 43.644508361816406]}, "properties": {"stop_id": "2014", "stop_name": "Dufferin St at Alma Ave"}}, {"type": "Feature", "geometry": {"type": "Point", "coordinates": [-79.43022155761719, 43.64669418334961]}, "properties": {"stop_id": "2057", "stop_name": "Dufferin St at Gordon St"}}, {"type": "Feature", "geometry": {"type": "Point", "coordinates": [-79.42720031738281, 43.6387825012207]}, "properties": {"stop_id": "2066", "stop_name": "Dufferin St at King St West"}}, {"type": "Feature", "geometry": {"type": "Point", "coordinates": [-79.4312515258789, 43.64945983886719]}, "properties": {"stop_id": "2043", "stop_name": "Dufferin St at Dundas St West"}}, {"type": "Feature", "geometry": {"type": "Point", "coordinates": [-79.43257904052734, 43.65287399291992]}, "properties": {"stop_id": "2033", "stop_name": "Dufferin St at College St North Side"}}, {"type": "Feature", "geometry": {"type": "Point", "coordinates": [-79.44654083251953, 43.68683624267578]}, "properties": {"stop_id": "2048", "stop_name": "Dufferin St at Eversfield Rd"}}, {"type": "Feature", "geometry": {"type": "Point", "coordinates": [-79.4481201171875, 43.690765380859375]}, "properties": {"stop_id": "2052", "stop_name": "Dufferin St at Gibson St North Side"}}, {"type": "Feature", "geometry": {"type": "Point", "coordinates": [-79.45832824707031, 43.73032760620117]}, "properties": {"stop_id": "2104", "stop_name": "Dufferin St at Billy Bishop Way North Side"}}, {"type": "Feature", "geometry": {"type": "Point", "coordinates": [-79.4538345336914, 43.71048355102539]}, "properties": {"stop_id": "15469", "stop_name": "Dufferin St at Wenderly Dr"}}, {"type": "Feature", "geometry": {"type": "Point", "coordinates": [-79.4192886352539, 43.63214874267578]}, "properties": {"stop_id": "16284", "stop_name": "Princes' Blvd at Ontario Dr"}}, {"type": "Feature", "geometry": {"type": "Point", "coordinates": [-79.42650604248047, 43.63694763183594]}, "properties": {"stop_id": "2071", "stop_name": "Dufferin St at Liberty St"}}, {"type": "Feature", "geometry": {"type": "Point", "coordinates": [-79.45092010498047, 43.734474182128906]}, "properties": {"stop_id": "14799", "stop_name": "Wilson Station"}}, {"type": "Feature", "geometry": {"type": "Point", "coordinates": [-79.45463562011719, 43.71449279785156]}, "properties": {"stop_id": "2069", "stop_name": "Dufferin St at Lawrence Ave West North Side"}}, {"type": "Feature", "geometry": {"type": "Point", "coordinates": [-79.4376220703125, 43.66538619995117]}, "properties": {"stop_id": "16730", "stop_name": "Dufferin St and Millicent St"}}, {"type": "Feature", "geometry": {"type": "Point", "coordinates": [-79.427734375, 43.64018630981445]}, "properties": {"stop_id": "9739", "stop_name": "Dufferin St at Melbourne Ave"}}, {"type": "Feature", "geometry": {"type": "Point", "coordinates": [-79.45735931396484, 43.726531982421875]}, "properties": {"stop_id": "979", "stop_name": "Dufferin St at Yorkdale Rd"}}, {"type": "Feature", "geometry": {"type": "Point", "coordinates": [-79.43343353271484, 43.65510559082031]}, "properties": {"stop_id": "2098", "stop_name": "Dufferin St at Sylvan Ave North Side"}}, {"type": "Feature", "geometry": {"type": "Point", "coordinates": [-79.43655395507812, 43.66285705566406]}, "properties": {"stop_id": "2088", "stop_name": "Dufferin St at Shanly St"}}, {"type": "Feature", "geometry": {"type": "Point", "coordinates": [-79.45155334472656, 43.70062255859375]}, "properties": {"stop_id": "2025", "stop_name": "Dufferin St at Castlefield Ave"}}, {"type": "Feature", "geometry": {"type": "Point", "coordinates": [-79.45303344726562, 43.7068977355957]}, "properties": {"stop_id": "2053", "stop_name": "Dufferin St at Glencairn Ave"}}, {"type": "Feature", "geometry": {"type": "Point", "coordinates": [-79.4559555053711, 43.72039031982422]}, "properties": {"stop_id": "2091", "stop_name": "Dufferin St at Orfus Rd"}}, {"type": "Feature", "geometry": {"type": "Point", "coordinates": [-79.42587280273438, 43.6343994140625]}, "properties": {"stop_id": "2032", "stop_name": "Dufferin Gate Loop"}}, {"type": "Feature", "geometry": {"type": "Point", "coordinates": [-79.44290924072266, 43.67776870727539]}, "properties": {"stop_id": "2093", "stop_name": "Dufferin St at St Clair Ave West"}}, {"type": "Feature", "geometry": {"type": "Point", "coordinates": [-79.43412017822266, 43.65693283081055]}, "properties": {"stop_id": "2040", "stop_name": "Dufferin St at Dufferin Park Ave"}}, {"type": "Feature", "geometry": {"type": "Point", "coordinates": [-79.4410629272461, 43.67338562011719]}, "properties": {"stop_id": "2038", "stop_name": "Dufferin St at Davenport Rd North Side"}}, {"type": "Feature", "geometry": {"type": "Point", "coordinates": [-79.44377899169922, 43.68003845214844]}, "properties": {"stop_id": "15199", "stop_name": "Dufferin St at Ascot Ave"}}, {"type": "Feature", "geometry": {"type": "Point", "coordinates": [-79.44721984863281, 43.68851089477539]}, "properties": {"stop_id": "15058", "stop_name": "Dufferin St at Martin St"}}, {"type": "Feature", "geometry": {"type": "Point", "coordinates": [-79.45538330078125, 43.718017578125]}, "properties": {"stop_id": "2027", "stop_name": "Dufferin St at Celt Ave North Side"}}, {"type": "Feature", "geometry": {"type": "Point", "coordinates": [-79.42564392089844, 43.634830474853516]}, "properties": {"stop_id": "9991", "stop_name": "Dufferin St at Springhurst Ave"}}, {"type": "Feature", "geometry": {"type": "Point", "coordinates": [-79.45010375976562, 43.695556640625]}, "properties": {"stop_id": "16367", "stop_name": "Dufferin St at Eglinton Ave West"}}, {"type": "Feature", "geometry": {"type": "Point", "coordinates": [-79.45095825195312, 43.69777297973633]}, "properties": {"stop_id": "15470", "stop_name": "Dufferin St at Whitmore Ave"}}, {"type": "Feature", "geometry": {"type": "Point", "coordinates": [-79.4486312866211, 43.6920280456543]}, "properties": {"stop_id": "2065", "stop_name": "Dufferin St at Rowan Ave"}}, {"type": "Feature", "geometry": {"type": "Point", "coordinates": [-79.44469451904297, 43.68227005004883]}, "properties": {"stop_id": "10092", "stop_name": "Dufferin St at Hope St"}}, {"type": "Feature", "geometry": {"type": "Point", "coordinates": [-79.44597625732422, 43.68545913696289]}, "properties": {"stop_id": "2082", "stop_name": "Dufferin St at Rogers Rd"}}, {"type": "Feature", "geometry": {"type": "Point", "coordinates": [-79.45866394042969, 43.7318115234375]}, "properties": {"stop_id": "2108", "stop_name": "Dufferin St at Wilson Ave"}}, {"type": "Feature", "geometry": {"type": "Point", "coordinates": [-79.45499420166016, 43.71608352661133]}, "properties": {"stop_id": "2037", "stop_name": "Dufferin St at Dane Ave"}}, {"type": "Feature", "geometry": {"type": "Point", "coordinates": [-79.43533325195312, 43.66019821166992]}, "properties": {"stop_id": "2020", "stop_name": "Dufferin St at Bloor St West - Dufferin Station"}}, {"type": "Feature", "geometry": {"type": "Point", "coordinates": [-79.42842864990234, 43.64200973510742]}, "properties": {"stop_id": "2081", "stop_name": "Dufferin St at Queen St West"}}, {"type": "Feature", "geometry": {"type": "Point", "coordinates": [-79.4098892211914, 43.63557434082031]}, "properties": {"stop_id": "14363", "stop_name": "Princes' Gates Loop at Canada Blvd - CNE East Entrance"}}, {"type": "Feature", "geometry": {"type": "Point", "coordinates": [-79.45344543457031, 43.70891189575195]}, "properties": {"stop_id": "2055", "stop_name": "Dufferin St at Glengrove Ave"}}, {"type": "Feature", "geometry": {"type": "Point", "coordinates": [-79.43883514404297, 43.66825866699219]}, "properties": {"stop_id": "2045", "stop_name": "Dufferin St at Dupont St"}}, {"type": "Feature", "geometry": {"type": "Point", "coordinates": [-79.41282653808594, 43.63395309448242]}, "properties": {"stop_id": "14930", "stop_name": "Princes' Blvd at Newfoundland Rd West Side - Enercare Centre"}}]}