{"type": "FeatureCollection", "features": [{"type": "Feature", "geometry": {"type": "Point", "coordinates": [-79.48235321044922, 43.66582489013672]}, "properties": {"stop_id": "4450", "stop_name": "Runnymede Loop at Dundas St West"}}, {"type": "Feature", "geometry": {"type": "Point", "coordinates": [-79.46635437011719, 43.653968811035156]}, "properties": {"stop_id": "14695", "stop_name": "High Park Station"}}, {"type": "Feature", "geometry": {"type": "Point", "coordinates": [-79.4700927734375, 43.665069580078125]}, "properties": {"stop_id": "3696", "stop_name": "High Park Ave at Dundas St West"}}, {"type": "Feature", "geometry": {"type": "Point", "coordinates": [-79.47874450683594, 43.66562271118164]}, "properties": {"stop_id": "3496", "stop_name": "Dundas St West at Gilmour Ave"}}, {"type": "Feature", "geometry": {"type": "Point", "coordinates": [-79.48199462890625, 43.665645599365234]}, "properties": {"stop_id": "3521", "stop_name": "Dundas St West at Runnymede Rd"}}, {"type": "Feature", "geometry": {"type": "Point", "coordinates": [-79.46910095214844, 43.662742614746094]}, "properties": {"stop_id": "3695", "stop_name": "High Park Ave at Annette St"}}, {"type": "Feature", "geometry": {"type": "Point", "coordinates": [-79.46664428710938, 43.65703582763672]}, "properties": {"stop_id": "3697", "stop_name": "High Park Ave at Glenlake Ave"}}, {"type": "Feature", "geometry": {"type": "Point", "coordinates": [-79.47383117675781, 43.66560745239258]}, "properties": {"stop_id": "15984", "stop_name": "Dundas St West at Clendenan Ave"}}, {"type": "Feature", "geometry": {"type": "Point", "coordinates": [-79.46808624267578, 43.660404205322266]}, "properties": {"stop_id": "3698", "stop_name": "High Park Ave at Humberside Ave"}}]}