{"type": "FeatureCollection", "features": [{"type": "Feature", "geometry": {"type": "Point", "coordinates": [-79.52522277832031, 43.64415740966797]}, "properties": {"stop_id": "518", "stop_name": "Bloor St West at Green Lanes East Side"}}, {"type": "Feature", "geometry": {"type": "Point", "coordinates": [-79.34745025634766, 43.678348541259766]}, "properties": {"stop_id": "876", "stop_name": "Danforth Ave at Carlaw Ave"}}, {"type": "Feature", "geometry": {"type": "Point", "coordinates": [-79.2654800415039, 43.733028411865234]}, "properties": {"stop_id": "1038", "stop_name": "North Service Rd at Eglinton Ave East"}}, {"type": "Feature", "geometry": {"type": "Point", "coordinates": [-79.46537780761719, 43.6534309387207]}, "properties": {"stop_id": "502", "stop_name": "Bloor St West at Colborne Lodge Dr"}}, {"type": "Feature", "geometry": {"type": "Point", "coordinates": [-79.4189453125, 43.66336441040039]}, "properties": {"stop_id": "517", "stop_name": "Bloor St West at Grace St"}}, {"type": "Feature", "geometry": {"type": "Point", "coordinates": [-79.55735778808594, 43.638519287109375]}, "properties": {"stop_id": "15950", "stop_name": "The East Mall at Gibbs Rd"}}, {"type": "Feature", "geometry": {"type": "Point", "coordinates": [-79.4161376953125, 43.663978576660156]}, "properties": {"stop_id": "538", "stop_name": "Bloor St West at Manning Ave"}}, {"type": "Feature", "geometry": {"type": "Point", "coordinates": [-79.38612365722656, 43.67029571533203]}, "properties": {"stop_id": "11116", "stop_name": "Bloor St East at Yonge St East Side"}}, {"type": "Feature", "geometry": {"type": "Point", "coordinates": [-79.41374969482422, 43.66450500488281]}, "properties": {"stop_id": "563", "stop_name": "Bloor St West at Palmerston Blvd"}}, {"type": "Feature", "geometry": {"type": "Point", "coordinates": [-79.4571533203125, 43.65522384643555]}, "properties": {"stop_id": "525", "stop_name": "Bloor St West at Indian Rd"}}, {"type": "Feature", "geometry": {"type": "Point", "coordinates": [-79.54742431640625, 43.63896179199219]}, "properties": {"stop_id": "581", "stop_name": "Bloor St West at Shaver Ave South East Side"}}, {"type": "Feature", "geometry": {"type": "Point", "coordinates": [-79.27263641357422, 43.700103759765625]}, "properties": {"stop_id": "1852", "stop_name": "Danforth Rd at Mack Ave"}}, {"type": "Feature", "geometry": {"type": "Point", "coordinates": [-79.30546569824219, 43.68727111816406]}, "properties": {"stop_id": "912", "stop_name": "Danforth Ave at Westlake Ave"}}, {"type": "Feature", "geometry": {"type": "Point", "coordinates": [-79.55999755859375, 43.64590835571289]}, "properties": {"stop_id": "2203", "stop_name": "The East Mall at Burnhamthorpe Rd South Side"}}, {"type": "Feature", "geometry": {"type": "Point", "coordinates": [-79.40398406982422, 43.666542053222656]}, "properties": {"stop_id": "585", "stop_name": "Bloor St West at Spadina Ave"}}, {"type": "Feature", "geometry": {"type": "Point", "coordinates": [-79.4480972290039, 43.65713119506836]}, "properties": {"stop_id": "591", "stop_name": "Bloor St West at Sterling Rd"}}, {"type": "Feature", "geometry": {"type": "Point", "coordinates": [-79.3212890625, 43.68376922607422]}, "properties": {"stop_id": "894", "stop_name": "Danforth Ave at Hillingdon Ave"}}, {"type": "Feature", "geometry": {"type": "Point", "coordinates": [-79.42572784423828, 43.66188049316406]}, "properties": {"stop_id": "561", "stop_name": "Bloor St West at Ossington Ave"}}, {"type": "Feature", "geometry": {"type": "Point", "coordinates": [-79.32373046875, 43.683223724365234]}, "properties": {"stop_id": "882", "stop_name": "Danforth Ave at Coxwell Ave"}}, {"type": "Feature", "geometry": {"type": "Point", "coordinates": [-79.29646301269531, 43.68928527832031]}, "properties": {"stop_id": "15925", "stop_name": "Danforth Ave at Dawes Rd"}}, {"type": "Feature", "geometry": {"type": "Point", "coordinates": [-79.35519409179688, 43.67683410644531]}, "properties": {"stop_id": "907", "stop_name": "Danforth Ave at Playter Blvd"}}, {"type": "Feature", "geometry": {"type": "Point", "coordinates": [-79.43250274658203, 43.660400390625]}, "properties": {"stop_id": "520", "stop_name": "Bloor St West at Havelock St"}}, {"type": "Feature", "geometry": {"type": "Point", "coordinates": [-79.34497833251953, 43.6788215637207]}, "properties": {"stop_id": "904", "stop_name": "Danforth Ave at Pape Ave"}}, {"type": "Feature", "geometry": {"type": "Point", "coordinates": [-79.53923034667969, 43.638954162597656]}, "properties": {"stop_id": "14093", "stop_name": "Aukland Rd at Dundas St West"}}, {"type": "Feature", "geometry": {"type": "Point", "coordinates": [-79.4764633178711, 43.6509895324707]}, "properties": {"stop_id": "580", "stop_name": "Bloor St West at Runnymede Rd"}}, {"type": "Feature", "geometry": {"type": "Point", "coordinates": [-79.62093353271484, 43.68680953979492]}, "properties": {"stop_id": "14278", "stop_name": "Pearson Airport Terminal 3 - Arrivals Level Columns C8-C12"}}, {"type": "Feature", "geometry": {"type": "Point", "coordinates": [-79.37627410888672, 43.67240905761719]}, "properties": {"stop_id": "16003", "stop_name": "Bloor St East at Sherbourne St East Side"}}, {"type": "Feature", "geometry": {"type": "Point", "coordinates": [-79.253662109375, 43.72515106201172]}, "properties": {"stop_id": "4958", "stop_name": "Danforth Rd at Midland Ave East Side"}}, {"type": "Feature", "geometry": {"type": "Point", "coordinates": [-79.54045104980469, 43.64014434814453]}, "properties": {"stop_id": "1200", "stop_name": "Aukland Rd at Bloor St West South Side"}}, {"type": "Feature", "geometry": {"type": "Point", "coordinates": [-79.53506469726562, 43.638084411621094]}, "properties": {"stop_id": "14723", "stop_name": "Kipling Station"}}, {"type": "Feature", "geometry": {"type": "Point", "coordinates": [-79.25079345703125, 43.730594635009766]}, "properties": {"stop_id": "4946", "stop_name": "Danforth Rd at Glenshephard Dr (West)"}}, {"type": "Feature", "geometry": {"type": "Point", "coordinates": [-79.2571792602539, 43.720577239990234]}, "properties": {"stop_id": "4953", "stop_name": "Danforth Rd at Linden Ave"}}, {"type": "Feature", "geometry": {"type": "Point", "coordinates": [-79.2488021850586, 43.73667526245117]}, "properties": {"stop_id": "2253", "stop_name": "Eglinton Ave East at Brimley Rd West Side"}}, {"type": "Feature", "geometry": {"type": "Point", "coordinates": [-79.26470184326172, 43.7100830078125]}, "properties": {"stop_id": "14953", "stop_name": "Danforth Rd at North Woodrow Blvd"}}, {"type": "Feature", "geometry": {"type": "Point", "coordinates": [-79.28289794921875, 43.692352294921875]}, "properties": {"stop_id": "16740", "stop_name": "Danforth Ave at Pharmacy Ave East Side"}}, {"type": "Feature", "geometry": {"type": "Point", "coordinates": [-79.50568389892578, 43.64850616455078]}, "properties": {"stop_id": "570", "stop_name": "Bloor St West at Prince Edward Dr South"}}, {"type": "Feature", "geometry": {"type": "Point", "coordinates": [-79.28026580810547, 43.69293212890625]}, "properties": {"stop_id": "872", "stop_name": "Danforth Ave at Byng Ave"}}, {"type": "Feature", "geometry": {"type": "Point", "coordinates": [-79.31534576416016, 43.685035705566406]}, "properties": {"stop_id": "885", "stop_name": "Danforth Ave at East Lynn Ave"}}, {"type": "Feature", "geometry": {"type": "Point", "coordinates": [-79.25570678710938, 43.72246551513672]}, "properties": {"stop_id": "4955", "stop_name": "Danforth Rd at Magnolia Ave"}}, {"type": "Feature", "geometry": {"type": "Point", "coordinates": [-79.25946044921875, 43.71746063232422]}, "properties": {"stop_id": "4964", "stop_name": "Danforth Rd at St Clair Ave East North Side"}}, {"type": "Feature", "geometry": {"type": "Point", "coordinates": [-79.27485656738281, 43.69675827026367]}, "properties": {"stop_id": "9442", "stop_name": "Danforth Rd at Warden Ave"}}, {"type": "Feature", "geometry": {"type": "Point", "coordinates": [-79.25849914550781, 43.71895217895508]}, "properties": {"stop_id": "16765", "stop_name": "Danforth Rd at Hart Ave"}}, {"type": "Feature", "geometry": {"type": "Point", "coordinates": [-79.38076782226562, 43.67146301269531]}, "properties": {"stop_id": "481", "stop_name": "Bloor St East at Jarvis St"}}, {"type": "Feature", "geometry": {"type": "Point", "coordinates": [-79.27159881591797, 43.70144271850586]}, "properties": {"stop_id": "1849", "stop_name": "295 Danforth Rd"}}, {"type": "Feature", "geometry": {"type": "Point", "coordinates": [-79.28874206542969, 43.69104766845703]}, "properties": {"stop_id": "911", "stop_name": "Danforth Ave at Victoria Park Ave"}}, {"type": "Feature", "geometry": {"type": "Point", "coordinates": [-79.42098999023438, 43.66292190551758]}, "properties": {"stop_id": "554", "stop_name": "Bloor St West at Montrose Ave"}}, {"type": "Feature", "geometry": {"type": "Point", "coordinates": [-79.2996826171875, 43.68855285644531]}, "properties": {"stop_id": "15924", "stop_name": "2615 Danforth Ave"}}, {"type": "Feature", "geometry": {"type": "Point", "coordinates": [-79.2685317993164, 43.706111907958984]}, "properties": {"stop_id": "1845", "stop_name": "Danforth Rd at Birchmount Rd"}}, {"type": "Feature", "geometry": {"type": "Point", "coordinates": [-79.27020263671875, 43.70341491699219]}, "properties": {"stop_id": "1841", "stop_name": "347 Danforth Rd"}}, {"type": "Feature", "geometry": {"type": "Point", "coordinates": [-79.49945831298828, 43.64990997314453]}, "properties": {"stop_id": "533", "stop_name": "Bloor St West at The Kingsway"}}, {"type": "Feature", "geometry": {"type": "Point", "coordinates": [-79.2692642211914, 43.70486068725586]}, "properties": {"stop_id": "1843", "stop_name": "375 Danforth Rd"}}, {"type": "Feature", "geometry": {"type": "Point", "coordinates": [-79.51483154296875, 43.64654541015625]}, "properties": {"stop_id": "15893", "stop_name": "Bloor St West at Thompson Ave West Side"}}, {"type": "Feature", "geometry": {"type": "Point", "coordinates": [-79.3299331665039, 43.68190002441406]}, "properties": {"stop_id": "898", "stop_name": "Danforth Ave at Linnsmore Cres"}}, {"type": "Feature", "geometry": {"type": "Point", "coordinates": [-79.35895538330078, 43.67607498168945]}, "properties": {"stop_id": "870", "stop_name": "Danforth Ave at Broadview Ave"}}, {"type": "Feature", "geometry": {"type": "Point", "coordinates": [-79.55886840820312, 43.644161224365234]}, "properties": {"stop_id": "16480", "stop_name": "The East Mall at Cantle Path"}}, {"type": "Feature", "geometry": {"type": "Point", "coordinates": [-79.24864196777344, 43.73320770263672]}, "properties": {"stop_id": "4968", "stop_name": "Danforth Rd at Tyne Crt"}}, {"type": "Feature", "geometry": {"type": "Point", "coordinates": [-79.52366638183594, 43.64447021484375]}, "properties": {"stop_id": "527", "stop_name": "Bloor St West at Islington Ave"}}, {"type": "Feature", "geometry": {"type": "Point", "coordinates": [-79.41132354736328, 43.665016174316406]}, "properties": {"stop_id": "491", "stop_name": "Bloor St West at Bathurst St"}}, {"type": "Feature", "geometry": {"type": "Point", "coordinates": [-79.36759185791016, 43.67399978637695]}, "properties": {"stop_id": "15528", "stop_name": "Bloor St East at Castle Frank Rd East Side"}}, {"type": "Feature", "geometry": {"type": "Point", "coordinates": [-79.46016693115234, 43.6545295715332]}, "properties": {"stop_id": "565", "stop_name": "Bloor St West at Parkside Dr"}}, {"type": "Feature", "geometry": {"type": "Point", "coordinates": [-79.48462677001953, 43.64911651611328]}, "properties": {"stop_id": "9952", "stop_name": "Bloor St West at Jane St"}}, {"type": "Feature", "geometry": {"type": "Point", "coordinates": [-79.4526138305664, 43.65620040893555]}, "properties": {"stop_id": "506", "stop_name": "Bloor St West at Dundas St West"}}, {"type": "Feature", "geometry": {"type": "Point", "coordinates": [-79.3975601196289, 43.66789627075195]}, "properties": {"stop_id": "495", "stop_name": "Bloor St West at Bedford Rd"}}, {"type": "Feature", "geometry": {"type": "Point", "coordinates": [-79.42955017089844, 43.661041259765625]}, "properties": {"stop_id": "503", "stop_name": "Bloor St West at Dovercourt Rd"}}, {"type": "Feature", "geometry": {"type": "Point", "coordinates": [-79.27623748779297, 43.69479751586914]}, "properties": {"stop_id": "1863", "stop_name": "Danforth Rd at Landry Ave"}}, {"type": "Feature", "geometry": {"type": "Point", "coordinates": [-79.25308990478516, 43.735774993896484]}, "properties": {"stop_id": "1033", "stop_name": "Eglinton Ave East at Gilder Dr"}}, {"type": "Feature", "geometry": {"type": "Point", "coordinates": [-79.33493041992188, 43.68083190917969]}, "properties": {"stop_id": "873", "stop_name": "Danforth Ave at Byron Ave East Side"}}, {"type": "Feature", "geometry": {"type": "Point", "coordinates": [-79.43924713134766, 43.65898895263672]}, "properties": {"stop_id": "15321", "stop_name": "Bloor St West at Brock Ave"}}, {"type": "Feature", "geometry": {"type": "Point", "coordinates": [-79.27356719970703, 43.698707580566406]}, "properties": {"stop_id": "1857", "stop_name": "Danforth Rd at Medford Ave"}}, {"type": "Feature", "geometry": {"type": "Point", "coordinates": [-79.47010803222656, 43.65239334106445]}, "properties": {"stop_id": "501", "stop_name": "Bloor St West at Clendenan Ave"}}, {"type": "Feature", "geometry": {"type": "Point", "coordinates": [-79.54194641113281, 43.640220642089844]}, "properties": {"stop_id": "488", "stop_name": "Bloor St West at Acorn Ave"}}, {"type": "Feature", "geometry": {"type": "Point", "coordinates": [-79.43546295166016, 43.65975570678711]}, "properties": {"stop_id": "505", "stop_name": "Bloor St West at Dufferin St"}}, {"type": "Feature", "geometry": {"type": "Point", "coordinates": [-79.49565887451172, 43.64957046508789]}, "properties": {"stop_id": "524", "stop_name": "Bloor St West at Old Mill Trail"}}, {"type": "Feature", "geometry": {"type": "Point", "coordinates": [-79.25799560546875, 43.73482131958008]}, "properties": {"stop_id": "15278", "stop_name": "Eglinton Ave East at Midland Ave"}}, {"type": "Feature", "geometry": {"type": "Point", "coordinates": [-79.48976135253906, 43.647735595703125]}, "properties": {"stop_id": "16385", "stop_name": "Bloor St West at Brule Terrace"}}, {"type": "Feature", "geometry": {"type": "Point", "coordinates": [-79.29281616210938, 43.69009017944336]}, "properties": {"stop_id": "910", "stop_name": "Danforth Ave at Sibley Ave"}}, {"type": "Feature", "geometry": {"type": "Point", "coordinates": [-79.4805679321289, 43.650081634521484]}, "properties": {"stop_id": "598", "stop_name": "Bloor St West at Windermere Ave"}}, {"type": "Feature", "geometry": {"type": "Point", "coordinates": [-79.2780532836914, 43.693397521972656]}, "properties": {"stop_id": "897", "stop_name": "Danforth Ave at Leyton Ave"}}, {"type": "Feature", "geometry": {"type": "Point", "coordinates": [-79.26219940185547, 43.71237564086914]}, "properties": {"stop_id": "16446", "stop_name": "Danforth Rd at Cotton Ave"}}, {"type": "Feature", "geometry": {"type": "Point", "coordinates": [-79.2475814819336, 43.73594665527344]}, "properties": {"stop_id": "15424", "stop_name": "Brimley Rd at Eglinton Ave East"}}, {"type": "Feature", "geometry": {"type": "Point", "coordinates": [-79.2523193359375, 43.72782516479492]}, "properties": {"stop_id": "4950", "stop_name": "Danforth Rd at Gordonridge Pl East Side"}}, {"type": "Feature", "geometry": {"type": "Point", "coordinates": [-79.263427734375, 43.73201370239258]}, "properties": {"stop_id": "16391", "stop_name": "Kennedy Station - Platform B"}}, {"type": "Feature", "geometry": {"type": "Point", "coordinates": [-79.37154388427734, 43.671775817871094]}, "properties": {"stop_id": "482", "stop_name": "Bloor St East at Parliament St"}}, {"type": "Feature", "geometry": {"type": "Point", "coordinates": [-79.3834228515625, 43.670875549316406]}, "properties": {"stop_id": "478", "stop_name": "Bloor St East at Church St"}}, {"type": "Feature", "geometry": {"type": "Point", "coordinates": [-79.3272705078125, 43.68247985839844]}, "properties": {"stop_id": "902", "stop_name": "Danforth Ave at Monarch Park Ave"}}, {"type": "Feature", "geometry": {"type": "Point", "coordinates": [-79.54457092285156, 43.63961410522461]}, "properties": {"stop_id": "597", "stop_name": "Bloor St West at Wilmar Rd"}}, {"type": "Feature", "geometry": {"type": "Point", "coordinates": [-79.31292724609375, 43.6855583190918]}, "properties": {"stop_id": "914", "stop_name": "Danforth Ave at Woodbine Ave"}}, {"type": "Feature", "geometry": {"type": "Point", "coordinates": [-79.31780242919922, 43.684513092041016]}, "properties": {"stop_id": "889", "stop_name": "Danforth Ave at Glebemount Ave"}}, {"type": "Feature", "geometry": {"type": "Point", "coordinates": [-79.42333984375, 43.66240310668945]}, "properties": {"stop_id": "583", "stop_name": "Bloor St West at Shaw St"}}, {"type": "Feature", "geometry": {"type": "Point", "coordinates": [-79.55789184570312, 43.641605377197266]}, "properties": {"stop_id": "2221", "stop_name": "The East Mall at Valhalla Inn Rd"}}, {"type": "Feature", "geometry": {"type": "Point", "coordinates": [-79.38925170898438, 43.669639587402344]}, "properties": {"stop_id": "16001", "stop_name": "Bloor St West at Bay St East Side"}}, {"type": "Feature", "geometry": {"type": "Point", "coordinates": [-79.51154327392578, 43.64720153808594]}, "properties": {"stop_id": "579", "stop_name": "Bloor St West at Royal York Rd"}}, {"type": "Feature", "geometry": {"type": "Point", "coordinates": [-79.30882263183594, 43.6865119934082]}, "properties": {"stop_id": "906", "stop_name": "Danforth Ave at Patricia Dr"}}, {"type": "Feature", "geometry": {"type": "Point", "coordinates": [-79.30203247070312, 43.688018798828125]}, "properties": {"stop_id": "15923", "stop_name": "Danforth Ave at Main St"}}, {"type": "Feature", "geometry": {"type": "Point", "coordinates": [-79.34024810791016, 43.67973709106445]}, "properties": {"stop_id": "895", "stop_name": "Danforth Ave at Jones Ave"}}, {"type": "Feature", "geometry": {"type": "Point", "coordinates": [-79.3374252319336, 43.6802978515625]}, "properties": {"stop_id": "13560", "stop_name": "Danforth Ave at Donlands Ave"}}, {"type": "Feature", "geometry": {"type": "Point", "coordinates": [-79.39430236816406, 43.668556213378906]}, "properties": {"stop_id": "573", "stop_name": "Bloor St West at Queens Park"}}, {"type": "Feature", "geometry": {"type": "Point", "coordinates": [-79.48597717285156, 43.64802551269531]}, "properties": {"stop_id": "555", "stop_name": "Bloor St West at South Kingsway"}}, {"type": "Feature", "geometry": {"type": "Point", "coordinates": [-79.33246612548828, 43.68134689331055]}, "properties": {"stop_id": "892", "stop_name": "Danforth Ave at Greenwood Ave"}}, {"type": "Feature", "geometry": {"type": "Point", "coordinates": [-79.26094055175781, 43.714378356933594]}, "properties": {"stop_id": "662", "stop_name": "Danforth Rd at Kennedy Rd"}}, {"type": "Feature", "geometry": {"type": "Point", "coordinates": [-79.5309066772461, 43.64290237426758]}, "properties": {"stop_id": "589", "stop_name": "Bloor St West at Resurrection Rd"}}, {"type": "Feature", "geometry": {"type": "Point", "coordinates": [-79.5197525024414, 43.64539337158203]}, "properties": {"stop_id": "509", "stop_name": "Bloor St West at Eagle Rd East Side"}}, {"type": "Feature", "geometry": {"type": "Point", "coordinates": [-79.40754699707031, 43.66581726074219]}, "properties": {"stop_id": "498", "stop_name": "Bloor St West at Brunswick Ave"}}, {"type": "Feature", "geometry": {"type": "Point", "coordinates": [-79.3520736694336, 43.67744064331055]}, "properties": {"stop_id": "880", "stop_name": "Danforth Ave at Chester Ave"}}, {"type": "Feature", "geometry": {"type": "Point", "coordinates": [-79.55210876464844, 43.63788604736328]}, "properties": {"stop_id": "594", "stop_name": "Bloor St West at Tremont Rd East Side"}}, {"type": "Feature", "geometry": {"type": "Point", "coordinates": [-79.44296264648438, 43.65821838378906]}, "properties": {"stop_id": "535", "stop_name": "Bloor St West at Lansdowne Ave"}}]}