{"type": "FeatureCollection", "features": [{"type": "Feature", "geometry": {"type": "Point", "coordinates": [-79.32938385009766, 43.66164779663086]}, "properties": {"stop_id": "15240", "stop_name": "Eastern Ave at Leslie St"}}, {"type": "Feature", "geometry": {"type": "Point", "coordinates": [-79.32305145263672, 43.68404769897461]}, "properties": {"stop_id": "15283", "stop_name": "Coxwell Station"}}, {"type": "Feature", "geometry": {"type": "Point", "coordinates": [-79.3161392211914, 43.66560363769531]}, "properties": {"stop_id": "12415", "stop_name": "Eastern Ave at Coxwell Ave"}}, {"type": "Feature", "geometry": {"type": "Point", "coordinates": [-79.3272705078125, 43.68247985839844]}, "properties": {"stop_id": "902", "stop_name": "Danforth Ave at Monarch Park Ave"}}, {"type": "Feature", "geometry": {"type": "Point", "coordinates": [-79.32782745361328, 43.670753479003906]}, "properties": {"stop_id": "3677", "stop_name": "Greenwood Ave at Gerrard St East"}}, {"type": "Feature", "geometry": {"type": "Point", "coordinates": [-79.32533264160156, 43.664710998535156]}, "properties": {"stop_id": "3684", "stop_name": "Greenwood Ave at Queen St East North Side"}}, {"type": "Feature", "geometry": {"type": "Point", "coordinates": [-79.32810974121094, 43.66364669799805]}, "properties": {"stop_id": "15699", "stop_name": "Queen St East at Alton Ave"}}, {"type": "Feature", "geometry": {"type": "Point", "coordinates": [-79.31273651123047, 43.666786193847656]}, "properties": {"stop_id": "11181", "stop_name": "Eastern Ave at Queen St East South Side"}}, {"type": "Feature", "geometry": {"type": "Point", "coordinates": [-79.3299331665039, 43.68190002441406]}, "properties": {"stop_id": "898", "stop_name": "Danforth Ave at Linnsmore Cres"}}, {"type": "Feature", "geometry": {"type": "Point", "coordinates": [-79.32886505126953, 43.67324447631836]}, "properties": {"stop_id": "3679", "stop_name": "Greenwood Ave at Ivy Ave"}}, {"type": "Feature", "geometry": {"type": "Point", "coordinates": [-79.3251953125, 43.662593841552734]}, "properties": {"stop_id": "15064", "stop_name": "Eastern Ave at Knox Ave"}}, {"type": "Feature", "geometry": {"type": "Point", "coordinates": [-79.33138275146484, 43.679359436035156]}, "properties": {"stop_id": "3682", "stop_name": "Greenwood Ave at Mountnoel Ave"}}, {"type": "Feature", "geometry": {"type": "Point", "coordinates": [-79.33219146728516, 43.681304931640625]}, "properties": {"stop_id": "3671", "stop_name": "Greenwood Ave at Danforth Ave"}}, {"type": "Feature", "geometry": {"type": "Point", "coordinates": [-79.3272476196289, 43.66933822631836]}, "properties": {"stop_id": "3668", "stop_name": "Greenwood Ave at Athletic Ave"}}, {"type": "Feature", "geometry": {"type": "Point", "coordinates": [-79.33070373535156, 43.67771911621094]}, "properties": {"stop_id": "3675", "stop_name": "Greenwood Ave at Felstead Ave"}}, {"type": "Feature", "geometry": {"type": "Point", "coordinates": [-79.32646179199219, 43.66745376586914]}, "properties": {"stop_id": "3673", "stop_name": "Greenwood Ave at Dundas St East"}}, {"type": "Feature", "geometry": {"type": "Point", "coordinates": [-79.32989501953125, 43.662723541259766]}, "properties": {"stop_id": "15063", "stop_name": "Leslie St at Queen St East"}}, {"type": "Feature", "geometry": {"type": "Point", "coordinates": [-79.32158660888672, 43.66339874267578]}, "properties": {"stop_id": "16158", "stop_name": "Eastern Ave at Connaught Ave"}}, {"type": "Feature", "geometry": {"type": "Point", "coordinates": [-79.33007049560547, 43.67622375488281]}, "properties": {"stop_id": "3688", "stop_name": "Greenwood Ave at Torbrick Rd"}}, {"type": "Feature", "geometry": {"type": "Point", "coordinates": [-79.32594299316406, 43.66618347167969]}, "properties": {"stop_id": "3681", "stop_name": "Greenwood Ave at Kerr Rd"}}]}