{"type": "FeatureCollection", "features": [{"type": "Feature", "geometry": {"type": "Point", "coordinates": [-79.35094451904297, 43.68891143798828]}, "properties": {"stop_id": "854", "stop_name": "75 Cosburn Ave"}}, {"type": "Feature", "geometry": {"type": "Point", "coordinates": [-79.3060073852539, 43.675537109375]}, "properties": {"stop_id": "2776", "stop_name": "Kingston Rd at Elmer Ave"}}, {"type": "Feature", "geometry": {"type": "Point", "coordinates": [-79.34178161621094, 43.690921783447266]}, "properties": {"stop_id": "15791", "stop_name": "Cosburn Ave at Donlands Ave"}}, {"type": "Feature", "geometry": {"type": "Point", "coordinates": [-79.28719329833984, 43.68046951293945]}, "properties": {"stop_id": "2794", "stop_name": "Kingston Rd at Scarborough Rd"}}, {"type": "Feature", "geometry": {"type": "Point", "coordinates": [-79.31117248535156, 43.66977310180664]}, "properties": {"stop_id": "2774", "stop_name": "Kingston Rd at Dixon Ave"}}, {"type": "Feature", "geometry": {"type": "Point", "coordinates": [-79.2983627319336, 43.67875289916992]}, "properties": {"stop_id": "2796", "stop_name": "Kingston Rd at Southwood Dr"}}, {"type": "Feature", "geometry": {"type": "Point", "coordinates": [-79.34896850585938, 43.68930435180664]}, "properties": {"stop_id": "861", "stop_name": "Cosburn Ave at Pape Ave"}}, {"type": "Feature", "geometry": {"type": "Point", "coordinates": [-79.28500366210938, 43.681461334228516]}, "properties": {"stop_id": "2839", "stop_name": "Bingham Loop"}}, {"type": "Feature", "geometry": {"type": "Point", "coordinates": [-79.30912780761719, 43.67275619506836]}, "properties": {"stop_id": "2790", "stop_name": "Kingston Rd at Rainsford Rd"}}, {"type": "Feature", "geometry": {"type": "Point", "coordinates": [-79.32212829589844, 43.679561614990234]}, "properties": {"stop_id": "1792", "stop_name": "Coxwell Ave at Hanson St South Side"}}, {"type": "Feature", "geometry": {"type": "Point", "coordinates": [-79.3349380493164, 43.69255828857422]}, "properties": {"stop_id": "9452", "stop_name": "Cosburn Ave at Linsmore Cres"}}, {"type": "Feature", "geometry": {"type": "Point", "coordinates": [-79.29464721679688, 43.679630279541016]}, "properties": {"stop_id": "2779", "stop_name": "Kingston Rd at Glen Manor Dr"}}, {"type": "Feature", "geometry": {"type": "Point", "coordinates": [-79.32538604736328, 43.687416076660156]}, "properties": {"stop_id": "4915", "stop_name": "Coxwell Ave at Springdale Blvd"}}, {"type": "Feature", "geometry": {"type": "Point", "coordinates": [-79.32473754882812, 43.68585968017578]}, "properties": {"stop_id": "4904", "stop_name": "Coxwell Ave at Glebeholme Blvd"}}, {"type": "Feature", "geometry": {"type": "Point", "coordinates": [-79.32283782958984, 43.68132019042969]}, "properties": {"stop_id": "1789", "stop_name": "Coxwell Ave at Earl Haig Ave"}}, {"type": "Feature", "geometry": {"type": "Point", "coordinates": [-79.32376861572266, 43.68353271484375]}, "properties": {"stop_id": "1786", "stop_name": "Coxwell Ave at Danforth Ave"}}, {"type": "Feature", "geometry": {"type": "Point", "coordinates": [-79.32123565673828, 43.67739486694336]}, "properties": {"stop_id": "14425", "stop_name": "Coxwell Ave at Casci Ave"}}, {"type": "Feature", "geometry": {"type": "Point", "coordinates": [-79.35674285888672, 43.68434524536133]}, "properties": {"stop_id": "657", "stop_name": "Broadview Ave at Mortimer Ave North Side"}}, {"type": "Feature", "geometry": {"type": "Point", "coordinates": [-79.32672882080078, 43.69074630737305]}, "properties": {"stop_id": "4908", "stop_name": "Coxwell Ave at Mortimer Ave - Michael Garron Hospital"}}, {"type": "Feature", "geometry": {"type": "Point", "coordinates": [-79.33056640625, 43.693504333496094]}, "properties": {"stop_id": "9453", "stop_name": "Cosburn Ave at Roosevelt Rd East Side"}}, {"type": "Feature", "geometry": {"type": "Point", "coordinates": [-79.31919860839844, 43.6724853515625]}, "properties": {"stop_id": "15132", "stop_name": "Coxwell Ave at Lower Gerrard St East South Side"}}, {"type": "Feature", "geometry": {"type": "Point", "coordinates": [-79.30809020996094, 43.67367172241211]}, "properties": {"stop_id": "2802", "stop_name": "Kingston Rd at Woodbine Ave"}}, {"type": "Feature", "geometry": {"type": "Point", "coordinates": [-79.35860443115234, 43.677371978759766]}, "properties": {"stop_id": "11925", "stop_name": "Broadview Ave at Erindale Ave"}}, {"type": "Feature", "geometry": {"type": "Point", "coordinates": [-79.31812286376953, 43.66984558105469]}, "properties": {"stop_id": "1797", "stop_name": "Coxwell Ave at Robbins Ave"}}, {"type": "Feature", "geometry": {"type": "Point", "coordinates": [-79.32820129394531, 43.69401168823242]}, "properties": {"stop_id": "9454", "stop_name": "Cosburn Ave at Coxwell Ave"}}, {"type": "Feature", "geometry": {"type": "Point", "coordinates": [-79.3380126953125, 43.691898345947266]}, "properties": {"stop_id": "9451", "stop_name": "Cosburn Ave at Greenwood Ave"}}, {"type": "Feature", "geometry": {"type": "Point", "coordinates": [-79.34547424316406, 43.689979553222656]}, "properties": {"stop_id": "863", "stop_name": "Cosburn Ave at Todmorden Lane"}}, {"type": "Feature", "geometry": {"type": "Point", "coordinates": [-79.28509521484375, 43.68064880371094]}, "properties": {"stop_id": "2768", "stop_name": "Kingston Rd at Bingham Ave"}}, {"type": "Feature", "geometry": {"type": "Point", "coordinates": [-79.35578155517578, 43.68696212768555]}, "properties": {"stop_id": "650", "stop_name": "Broadview Ave at Bater Ave"}}, {"type": "Feature", "geometry": {"type": "Point", "coordinates": [-79.30418395996094, 43.676822662353516]}, "properties": {"stop_id": "2800", "stop_name": "Kingston Rd at Waverley Rd"}}, {"type": "Feature", "geometry": {"type": "Point", "coordinates": [-79.32599639892578, 43.68887710571289]}, "properties": {"stop_id": "4913", "stop_name": "Coxwell Ave at Sammon Ave"}}, {"type": "Feature", "geometry": {"type": "Point", "coordinates": [-79.3167495727539, 43.666690826416016]}, "properties": {"stop_id": "1795", "stop_name": "Coxwell Ave at Queen St East"}}, {"type": "Feature", "geometry": {"type": "Point", "coordinates": [-79.32044982910156, 43.6755256652832]}, "properties": {"stop_id": "1791", "stop_name": "Coxwell Ave at Fairford Ave"}}, {"type": "Feature", "geometry": {"type": "Point", "coordinates": [-79.35810852050781, 43.67921447753906]}, "properties": {"stop_id": "3369", "stop_name": "849 Broadview Ave"}}, {"type": "Feature", "geometry": {"type": "Point", "coordinates": [-79.357666015625, 43.68088150024414]}, "properties": {"stop_id": "655", "stop_name": "Broadview Ave at Browning Ave"}}, {"type": "Feature", "geometry": {"type": "Point", "coordinates": [-79.3533935546875, 43.68842697143555]}, "properties": {"stop_id": "859", "stop_name": "Cosburn Ave at Logan Ave"}}, {"type": "Feature", "geometry": {"type": "Point", "coordinates": [-79.2908935546875, 43.6801643371582]}, "properties": {"stop_id": "2766", "stop_name": "Kingston Rd at Beech Ave"}}, {"type": "Feature", "geometry": {"type": "Point", "coordinates": [-79.3271484375, 43.69178009033203]}, "properties": {"stop_id": "4905", "stop_name": "Coxwell Ave at Memorial Park Ave South Side"}}, {"type": "Feature", "geometry": {"type": "Point", "coordinates": [-79.31774139404297, 43.66897201538086]}, "properties": {"stop_id": "1788", "stop_name": "Coxwell Ave at Dundas St East"}}, {"type": "Feature", "geometry": {"type": "Point", "coordinates": [-79.3128890991211, 43.667118072509766]}, "properties": {"stop_id": "13461", "stop_name": "Queen St East at Kingston Rd"}}, {"type": "Feature", "geometry": {"type": "Point", "coordinates": [-79.35492706298828, 43.68840789794922]}, "properties": {"stop_id": "856", "stop_name": "Cosburn Ave at Broadview Ave East Side"}}, {"type": "Feature", "geometry": {"type": "Point", "coordinates": [-79.30130767822266, 43.67801284790039]}, "properties": {"stop_id": "2782", "stop_name": "Kingston Rd at Lee Ave"}}]}