{"type": "FeatureCollection", "features": [{"type": "Feature", "geometry": {"type": "Point", "coordinates": [-79.41333770751953, 43.684085845947266]}, "properties": {"stop_id": "14343", "stop_name": "St Clair Ave West at Tweedsmuir Ave"}}, {"type": "Feature", "geometry": {"type": "Point", "coordinates": [-79.4112548828125, 43.68507766723633]}, "properties": {"stop_id": "14364", "stop_name": "Spadina Rd at St Clair Ave West North Side"}}, {"type": "Feature", "geometry": {"type": "Point", "coordinates": [-79.4150619506836, 43.694515228271484]}, "properties": {"stop_id": "4609", "stop_name": "Spadina Rd at Hawarden Cres North Side"}}, {"type": "Feature", "geometry": {"type": "Point", "coordinates": [-79.41883087158203, 43.70225143432617]}, "properties": {"stop_id": "12795", "stop_name": "Spadina Rd at Eglinton Ave West"}}, {"type": "Feature", "geometry": {"type": "Point", "coordinates": [-79.41564178466797, 43.6960334777832]}, "properties": {"stop_id": "4606", "stop_name": "Spadina Rd at Archer Rd"}}, {"type": "Feature", "geometry": {"type": "Point", "coordinates": [-79.41253662109375, 43.688575744628906]}, "properties": {"stop_id": "4613", "stop_name": "Spadina Rd at Lonsdale Rd"}}, {"type": "Feature", "geometry": {"type": "Point", "coordinates": [-79.41525268554688, 43.68436813354492]}, "properties": {"stop_id": "14783", "stop_name": "St Clair West Station"}}, {"type": "Feature", "geometry": {"type": "Point", "coordinates": [-79.41425323486328, 43.692630767822266]}, "properties": {"stop_id": "4612", "stop_name": "Spadina Rd at Kilbarry Rd"}}, {"type": "Feature", "geometry": {"type": "Point", "coordinates": [-79.42291259765625, 43.70162582397461]}, "properties": {"stop_id": "2391", "stop_name": "Eglinton Ave West at Old Forest Hill Rd"}}, {"type": "Feature", "geometry": {"type": "Point", "coordinates": [-79.41686248779297, 43.69886779785156]}, "properties": {"stop_id": "14321", "stop_name": "Spadina Rd at Old Forest Hill Rd"}}, {"type": "Feature", "geometry": {"type": "Point", "coordinates": [-79.42546844482422, 43.701446533203125]}, "properties": {"stop_id": "130", "stop_name": "Bathurst St at Eglinton Ave West North Side"}}, {"type": "Feature", "geometry": {"type": "Point", "coordinates": [-79.42070770263672, 43.70209884643555]}, "properties": {"stop_id": "2415", "stop_name": "Eglinton Ave West at Vesta Dr"}}, {"type": "Feature", "geometry": {"type": "Point", "coordinates": [-79.41352081298828, 43.69087600708008]}, "properties": {"stop_id": "4617", "stop_name": "Spadina Rd at Strathearn Blvd"}}, {"type": "Feature", "geometry": {"type": "Point", "coordinates": [-79.41190338134766, 43.68667221069336]}, "properties": {"stop_id": "4610", "stop_name": "Spadina Rd at Heath St West"}}]}