{"type": "FeatureCollection", "features": [{"type": "Feature", "geometry": {"type": "Point", "coordinates": [-79.50323486328125, 43.76041030883789]}, "properties": {"stop_id": "2633", "stop_name": "Opposite 1685 Finch Ave West - St Wilfred Catholic School"}}, {"type": "Feature", "geometry": {"type": "Point", "coordinates": [-79.53611755371094, 43.75347137451172]}, "properties": {"stop_id": "16570", "stop_name": "Finch Ave West at Signet Dr"}}, {"type": "Feature", "geometry": {"type": "Point", "coordinates": [-79.54203033447266, 43.75227737426758]}, "properties": {"stop_id": "2643", "stop_name": "Finch Ave West at Weston Rd"}}, {"type": "Feature", "geometry": {"type": "Point", "coordinates": [-79.46633911132812, 43.76913070678711]}, "properties": {"stop_id": "3588", "stop_name": "Finch Ave West at Dufferin St"}}, {"type": "Feature", "geometry": {"type": "Point", "coordinates": [-79.61302947998047, 43.72200393676758]}, "properties": {"stop_id": "11291", "stop_name": "Humberwood Blvd at Hullrick Dr (South)"}}, {"type": "Feature", "geometry": {"type": "Point", "coordinates": [-79.6160659790039, 43.723812103271484]}, "properties": {"stop_id": "11295", "stop_name": "Humberwood Blvd at Kingsplate Cres"}}, {"type": "Feature", "geometry": {"type": "Point", "coordinates": [-79.43431854248047, 43.77570724487305]}, "properties": {"stop_id": "15785", "stop_name": "Finch Ave West at Glenborough Park Cres West Side"}}, {"type": "Feature", "geometry": {"type": "Point", "coordinates": [-79.45745849609375, 43.771053314208984]}, "properties": {"stop_id": "3615", "stop_name": "Opposite 685 Finch Ave West - St Bernard's Residence"}}, {"type": "Feature", "geometry": {"type": "Point", "coordinates": [-79.42280578613281, 43.778263092041016]}, "properties": {"stop_id": "15313", "stop_name": "Finch Ave West at Talbot Rd"}}, {"type": "Feature", "geometry": {"type": "Point", "coordinates": [-79.483642578125, 43.765281677246094]}, "properties": {"stop_id": "2603", "stop_name": "1150 Finch Ave West"}}, {"type": "Feature", "geometry": {"type": "Point", "coordinates": [-79.6172103881836, 43.732276916503906]}, "properties": {"stop_id": "13473", "stop_name": "Humberline Dr at Viewcrest Cir"}}, {"type": "Feature", "geometry": {"type": "Point", "coordinates": [-79.48806762695312, 43.7642707824707]}, "properties": {"stop_id": "2635", "stop_name": "Finch Ave West at Tangiers Rd"}}, {"type": "Feature", "geometry": {"type": "Point", "coordinates": [-79.55210876464844, 43.75010681152344]}, "properties": {"stop_id": "2620", "stop_name": "Finch Ave West at Milvan Dr"}}, {"type": "Feature", "geometry": {"type": "Point", "coordinates": [-79.45137023925781, 43.772335052490234]}, "properties": {"stop_id": "3618", "stop_name": "Finch Ave West at Torresdale Ave West Side"}}, {"type": "Feature", "geometry": {"type": "Point", "coordinates": [-79.4161605834961, 43.779727935791016]}, "properties": {"stop_id": "9130", "stop_name": "Finch Ave West at Yonge St West Side"}}, {"type": "Feature", "geometry": {"type": "Point", "coordinates": [-79.62232971191406, 43.72626876831055]}, "properties": {"stop_id": "14514", "stop_name": "Humberwood Blvd at Morning Star Dr"}}, {"type": "Feature", "geometry": {"type": "Point", "coordinates": [-79.59136199951172, 43.73694610595703]}, "properties": {"stop_id": "2617", "stop_name": "Finch Ave West at Martin Grove Rd"}}, {"type": "Feature", "geometry": {"type": "Point", "coordinates": [-79.54293060302734, 43.75209426879883]}, "properties": {"stop_id": "7761", "stop_name": "Finch Ave West at Weston Rd West Side"}}, {"type": "Feature", "geometry": {"type": "Point", "coordinates": [-79.4906997680664, 43.76368713378906]}, "properties": {"stop_id": "2611", "stop_name": "Finch Ave West at Keele St"}}, {"type": "Feature", "geometry": {"type": "Point", "coordinates": [-79.61831665039062, 43.72349166870117]}, "properties": {"stop_id": "11290", "stop_name": "Humberwood Blvd at Arborwood Dr East Side"}}, {"type": "Feature", "geometry": {"type": "Point", "coordinates": [-79.60505676269531, 43.72868347167969]}, "properties": {"stop_id": "15405", "stop_name": "Humber College Bus Terminal"}}, {"type": "Feature", "geometry": {"type": "Point", "coordinates": [-79.58267974853516, 43.743324279785156]}, "properties": {"stop_id": "11029", "stop_name": "Finch Ave West at Kipling Ave West Side"}}, {"type": "Feature", "geometry": {"type": "Point", "coordinates": [-79.56829071044922, 43.746498107910156]}, "properties": {"stop_id": "16518", "stop_name": "Finch Ave West at Islington Ave"}}, {"type": "Feature", "geometry": {"type": "Point", "coordinates": [-79.4465103149414, 43.77335739135742]}, "properties": {"stop_id": "3610", "stop_name": "550 Finch Ave West"}}, {"type": "Feature", "geometry": {"type": "Point", "coordinates": [-79.61975860595703, 43.730430603027344]}, "properties": {"stop_id": "12199", "stop_name": "Humberwood Blvd at Topbank Dr"}}, {"type": "Feature", "geometry": {"type": "Point", "coordinates": [-79.43806457519531, 43.77486801147461]}, "properties": {"stop_id": "3578", "stop_name": "Finch Ave West at Ancona St"}}, {"type": "Feature", "geometry": {"type": "Point", "coordinates": [-79.47802734375, 43.766502380371094]}, "properties": {"stop_id": "2591", "stop_name": "Finch Ave West at Chesswood Dr West Side"}}, {"type": "Feature", "geometry": {"type": "Point", "coordinates": [-79.47119903564453, 43.76802062988281]}, "properties": {"stop_id": "2582", "stop_name": "Finch Ave West at Alness St"}}, {"type": "Feature", "geometry": {"type": "Point", "coordinates": [-79.44860076904297, 43.77289962768555]}, "properties": {"stop_id": "3619", "stop_name": "Finch Ave West at Virgilwood Dr West Side - North York General Finch Branson"}}, {"type": "Feature", "geometry": {"type": "Point", "coordinates": [-79.61474609375, 43.732147216796875]}, "properties": {"stop_id": "11032", "stop_name": "Humberline Dr at Woodlot Cres (West)"}}, {"type": "Feature", "geometry": {"type": "Point", "coordinates": [-79.60968780517578, 43.731956481933594]}, "properties": {"stop_id": "12064", "stop_name": "Humberline Dr at Humber College Blvd West Side"}}, {"type": "Feature", "geometry": {"type": "Point", "coordinates": [-79.61219787597656, 43.73188018798828]}, "properties": {"stop_id": "11030", "stop_name": "Humberline Dr at Holyoake Cres (East) West Side"}}, {"type": "Feature", "geometry": {"type": "Point", "coordinates": [-79.41832733154297, 43.77923583984375]}, "properties": {"stop_id": "3595", "stop_name": "Finch Ave West at Greenview Ave"}}, {"type": "Feature", "geometry": {"type": "Point", "coordinates": [-79.56218719482422, 43.7479248046875]}, "properties": {"stop_id": "2624", "stop_name": "Finch Ave West at Pearldale Ave"}}, {"type": "Feature", "geometry": {"type": "Point", "coordinates": [-79.58756256103516, 43.74318313598633]}, "properties": {"stop_id": "11041", "stop_name": "Finch Ave West at Opposite Albion Centre"}}, {"type": "Feature", "geometry": {"type": "Point", "coordinates": [-79.55747985839844, 43.748958587646484]}, "properties": {"stop_id": "2596", "stop_name": "Finch Ave West at Duncanwoods Dr"}}, {"type": "Feature", "geometry": {"type": "Point", "coordinates": [-79.51744079589844, 43.757450103759766]}, "properties": {"stop_id": "16517", "stop_name": "Finch Ave West at Jane St"}}, {"type": "Feature", "geometry": {"type": "Point", "coordinates": [-79.49979400634766, 43.761192321777344]}, "properties": {"stop_id": "2629", "stop_name": "Finch Ave West at Sentinel Rd"}}, {"type": "Feature", "geometry": {"type": "Point", "coordinates": [-79.45429992675781, 43.771705627441406]}, "properties": {"stop_id": "3609", "stop_name": "Opposite 625 Finch Ave West"}}, {"type": "Feature", "geometry": {"type": "Point", "coordinates": [-79.62008666992188, 43.72911071777344]}, "properties": {"stop_id": "11848", "stop_name": "Humberwood Blvd at Pinecone Dr"}}, {"type": "Feature", "geometry": {"type": "Point", "coordinates": [-79.61920166015625, 43.733402252197266]}, "properties": {"stop_id": "11417", "stop_name": "Humberwood Blvd at Honeyview Pl"}}, {"type": "Feature", "geometry": {"type": "Point", "coordinates": [-79.57954406738281, 43.74372482299805]}, "properties": {"stop_id": "11250", "stop_name": "Finch Ave West at Walkway to Farr Ave"}}, {"type": "Feature", "geometry": {"type": "Point", "coordinates": [-79.59465789794922, 43.73530960083008]}, "properties": {"stop_id": "12146", "stop_name": "John Garland Blvd at Finch Ave West South Side"}}, {"type": "Feature", "geometry": {"type": "Point", "coordinates": [-79.59587097167969, 43.732112884521484]}, "properties": {"stop_id": "7865", "stop_name": "Humber College Blvd at Lynmont Rd"}}, {"type": "Feature", "geometry": {"type": "Point", "coordinates": [-79.60233306884766, 43.730350494384766]}, "properties": {"stop_id": "11272", "stop_name": "Humber College Blvd at Highway 27 West Side"}}, {"type": "Feature", "geometry": {"type": "Point", "coordinates": [-79.42769622802734, 43.777198791503906]}, "properties": {"stop_id": "3584", "stop_name": "Finch Ave West at Carney Rd"}}, {"type": "Feature", "geometry": {"type": "Point", "coordinates": [-79.5940170288086, 43.733585357666016]}, "properties": {"stop_id": "7862", "stop_name": "Humber College Blvd at John Garland Blvd West Side"}}, {"type": "Feature", "geometry": {"type": "Point", "coordinates": [-79.52118682861328, 43.75677490234375]}, "properties": {"stop_id": "16513", "stop_name": "Finch Ave West at York Gate Blvd"}}, {"type": "Feature", "geometry": {"type": "Point", "coordinates": [-79.46064758300781, 43.770362854003906]}, "properties": {"stop_id": "3623", "stop_name": "Finch Ave West at Wilmington Ave"}}, {"type": "Feature", "geometry": {"type": "Point", "coordinates": [-79.43209075927734, 43.776222229003906]}, "properties": {"stop_id": "3594", "stop_name": "Finch Ave West at Grantbrook St West Side"}}, {"type": "Feature", "geometry": {"type": "Point", "coordinates": [-79.60363006591797, 43.71617889404297]}, "properties": {"stop_id": "13938", "stop_name": "Woodbine Racetrack Loop (Main Entrance)"}}, {"type": "Feature", "geometry": {"type": "Point", "coordinates": [-79.44384002685547, 43.773841857910156]}, "properties": {"stop_id": "16062", "stop_name": "Finch Ave West at Bathurst St"}}, {"type": "Feature", "geometry": {"type": "Point", "coordinates": [-79.49358367919922, 43.76272201538086]}, "properties": {"stop_id": "2626", "stop_name": "Finch Ave West at Romfield Lane"}}, {"type": "Feature", "geometry": {"type": "Point", "coordinates": [-79.54883575439453, 43.750789642333984]}, "properties": {"stop_id": "2608", "stop_name": "Finch Ave West at Jayzel Dr"}}, {"type": "Feature", "geometry": {"type": "Point", "coordinates": [-79.51325225830078, 43.75818634033203]}, "properties": {"stop_id": "2594", "stop_name": "Finch Ave West at Driftwood Ave"}}, {"type": "Feature", "geometry": {"type": "Point", "coordinates": [-79.59886932373047, 43.731136322021484]}, "properties": {"stop_id": "7867", "stop_name": "Humber College Blvd at Westmore Dr - William Osler Health"}}, {"type": "Feature", "geometry": {"type": "Point", "coordinates": [-79.58931732177734, 43.741329193115234]}, "properties": {"stop_id": "12452", "stop_name": "Finch Ave West at Albion Rd"}}, {"type": "Feature", "geometry": {"type": "Point", "coordinates": [-79.52408599853516, 43.756134033203125]}, "properties": {"stop_id": "2621", "stop_name": "Finch Ave West at Norfinch Dr - Humber Reactivation Care"}}, {"type": "Feature", "geometry": {"type": "Point", "coordinates": [-79.47516632080078, 43.76712417602539]}, "properties": {"stop_id": "3580", "stop_name": "1118 Finch Ave West"}}, {"type": "Feature", "geometry": {"type": "Point", "coordinates": [-79.5077896118164, 43.75938034057617]}, "properties": {"stop_id": "2637", "stop_name": "Finch Ave West at Tobermory Dr"}}]}