{"type": "FeatureCollection", "features": [{"type": "Feature", "geometry": {"type": "Point", "coordinates": [-79.38671875, 43.78611373901367]}, "properties": {"stop_id": "2512", "stop_name": "Finch Ave East at Heathview Ave"}}, {"type": "Feature", "geometry": {"type": "Point", "coordinates": [-79.2667236328125, 43.80784606933594]}, "properties": {"stop_id": "1055", "stop_name": "Finch Ave East at McCowan Rd"}}, {"type": "Feature", "geometry": {"type": "Point", "coordinates": [-79.26298522949219, 43.808658599853516]}, "properties": {"stop_id": "2546", "stop_name": "Finch Ave East at Sandhurst Cir (East)"}}, {"type": "Feature", "geometry": {"type": "Point", "coordinates": [-79.38853454589844, 43.78572463989258]}, "properties": {"stop_id": "2510", "stop_name": "Finch Ave East at Gaspe Rd East Side"}}, {"type": "Feature", "geometry": {"type": "Point", "coordinates": [-79.30619049072266, 43.79880142211914]}, "properties": {"stop_id": "2490", "stop_name": "Finch Ave East at Birchmount Rd"}}, {"type": "Feature", "geometry": {"type": "Point", "coordinates": [-79.38445281982422, 43.786617279052734]}, "properties": {"stop_id": "2537", "stop_name": "Finch Ave East at Page Ave"}}, {"type": "Feature", "geometry": {"type": "Point", "coordinates": [-79.23489379882812, 43.821109771728516]}, "properties": {"stop_id": "11550", "stop_name": "257 Finchdene Sq"}}, {"type": "Feature", "geometry": {"type": "Point", "coordinates": [-79.39881134033203, 43.78334426879883]}, "properties": {"stop_id": "2527", "stop_name": "Finch Ave East at Maxome Ave East Side"}}, {"type": "Feature", "geometry": {"type": "Point", "coordinates": [-79.33167266845703, 43.792903900146484]}, "properties": {"stop_id": "2565", "stop_name": "Finch Ave East at Victoria Park Ave"}}, {"type": "Feature", "geometry": {"type": "Point", "coordinates": [-79.38040924072266, 43.787498474121094]}, "properties": {"stop_id": "2541", "stop_name": "Opposite 636 Finch Ave East (Plaza)"}}, {"type": "Feature", "geometry": {"type": "Point", "coordinates": [-79.27056884765625, 43.8070182800293]}, "properties": {"stop_id": "2547", "stop_name": "Finch Ave East at Sandhurst Cir (West)"}}, {"type": "Feature", "geometry": {"type": "Point", "coordinates": [-79.2967300415039, 43.80107879638672]}, "properties": {"stop_id": "2514", "stop_name": "Finch Ave East at Kennedy Rd"}}, {"type": "Feature", "geometry": {"type": "Point", "coordinates": [-79.25790405273438, 43.809715270996094]}, "properties": {"stop_id": "2532", "stop_name": "Finch Ave East at Middlefield Rd"}}, {"type": "Feature", "geometry": {"type": "Point", "coordinates": [-79.37002563476562, 43.78973388671875]}, "properties": {"stop_id": "11264", "stop_name": "Finch Ave East at Leslie St West Side - Old Cummer GO Station"}}, {"type": "Feature", "geometry": {"type": "Point", "coordinates": [-79.23255157470703, 43.81512451171875]}, "properties": {"stop_id": "2484", "stop_name": "Finch Ave East at Baldoon Rd"}}, {"type": "Feature", "geometry": {"type": "Point", "coordinates": [-79.41251373291016, 43.78031921386719]}, "properties": {"stop_id": "2516", "stop_name": "Finch Ave East at Kenneth Ave"}}, {"type": "Feature", "geometry": {"type": "Point", "coordinates": [-79.23776245117188, 43.82051086425781]}, "properties": {"stop_id": "11551", "stop_name": "Finchdene Sq at Pullman Crt"}}, {"type": "Feature", "geometry": {"type": "Point", "coordinates": [-79.32286071777344, 43.794952392578125]}, "properties": {"stop_id": "2530", "stop_name": "Finch Ave East at Walkway to Sprucewood Crt"}}, {"type": "Feature", "geometry": {"type": "Point", "coordinates": [-79.36514282226562, 43.79030227661133]}, "properties": {"stop_id": "2543", "stop_name": "Finch Ave East at Ravel Rd East Side"}}, {"type": "Feature", "geometry": {"type": "Point", "coordinates": [-79.36709594726562, 43.78986740112305]}, "properties": {"stop_id": "2518", "stop_name": "Finch Ave East at Leslie St East Side"}}, {"type": "Feature", "geometry": {"type": "Point", "coordinates": [-79.29975128173828, 43.80036926269531]}, "properties": {"stop_id": "2481", "stop_name": "Finch Ave East at Adirondack Gate"}}, {"type": "Feature", "geometry": {"type": "Point", "coordinates": [-79.40199279785156, 43.78264617919922]}, "properties": {"stop_id": "2572", "stop_name": "Finch Ave East at Wilfred Ave"}}, {"type": "Feature", "geometry": {"type": "Point", "coordinates": [-79.37346649169922, 43.78900909423828]}, "properties": {"stop_id": "2482", "stop_name": "Finch Ave East at Alamosa Dr"}}, {"type": "Feature", "geometry": {"type": "Point", "coordinates": [-79.28650665283203, 43.803565979003906]}, "properties": {"stop_id": "2534", "stop_name": "Finch Ave East at Midland Ave"}}, {"type": "Feature", "geometry": {"type": "Point", "coordinates": [-79.24336242675781, 43.8127555847168]}, "properties": {"stop_id": "2525", "stop_name": "Finch Ave East at Markham Rd"}}, {"type": "Feature", "geometry": {"type": "Point", "coordinates": [-79.23635864257812, 43.81428909301758]}, "properties": {"stop_id": "16369", "stop_name": "Finch Ave East at Tapscott Rd East Side"}}, {"type": "Feature", "geometry": {"type": "Point", "coordinates": [-79.3926010131836, 43.784732818603516]}, "properties": {"stop_id": "2488", "stop_name": "Finch Ave East at Bayview Ave"}}, {"type": "Feature", "geometry": {"type": "Point", "coordinates": [-79.23213195800781, 43.817142486572266]}, "properties": {"stop_id": "11548", "stop_name": "Finchdene Sq (East) at Finchdene Sq (South)"}}, {"type": "Feature", "geometry": {"type": "Point", "coordinates": [-79.2944107055664, 43.80166244506836]}, "properties": {"stop_id": "10658", "stop_name": "Finch Ave East at Milliken Blvd"}}, {"type": "Feature", "geometry": {"type": "Point", "coordinates": [-79.30307006835938, 43.7995719909668]}, "properties": {"stop_id": "2567", "stop_name": "Finch Ave East at Walkway East of Birchmount Rd"}}, {"type": "Feature", "geometry": {"type": "Point", "coordinates": [-79.28224182128906, 43.80449295043945]}, "properties": {"stop_id": "2501", "stop_name": "Finch Ave East at Chartland Blvd South"}}, {"type": "Feature", "geometry": {"type": "Point", "coordinates": [-79.27759552001953, 43.805484771728516]}, "properties": {"stop_id": "2497", "stop_name": "Finch Ave East at Brimley Rd"}}, {"type": "Feature", "geometry": {"type": "Point", "coordinates": [-79.35504150390625, 43.7924690246582]}, "properties": {"stop_id": "2504", "stop_name": "Finch Ave East at Don Mills Rd"}}, {"type": "Feature", "geometry": {"type": "Point", "coordinates": [-79.36296081542969, 43.79082489013672]}, "properties": {"stop_id": "2564", "stop_name": "Finch Ave East at Trudy Rd East Side"}}, {"type": "Feature", "geometry": {"type": "Point", "coordinates": [-79.33720397949219, 43.79350280761719]}, "properties": {"stop_id": "2502", "stop_name": "Finch Ave East at Cherokee Blvd"}}, {"type": "Feature", "geometry": {"type": "Point", "coordinates": [-79.23309326171875, 43.81952667236328]}, "properties": {"stop_id": "11549", "stop_name": "Finchdene Sq at Torham Pl"}}, {"type": "Feature", "geometry": {"type": "Point", "coordinates": [-79.23809814453125, 43.81888198852539]}, "properties": {"stop_id": "11552", "stop_name": "Newgale Gate at Finchdene Sq West Side"}}, {"type": "Feature", "geometry": {"type": "Point", "coordinates": [-79.41477966308594, 43.779842376708984]}, "properties": {"stop_id": "9912", "stop_name": "Finch Ave East at Yonge St East Side"}}, {"type": "Feature", "geometry": {"type": "Point", "coordinates": [-79.3576889038086, 43.791934967041016]}, "properties": {"stop_id": "2520", "stop_name": "Finch Ave East at Linus Rd East Side"}}, {"type": "Feature", "geometry": {"type": "Point", "coordinates": [-79.31600952148438, 43.796573638916016]}, "properties": {"stop_id": "2569", "stop_name": "Finch Ave East at Warden Ave"}}, {"type": "Feature", "geometry": {"type": "Point", "coordinates": [-79.25096893310547, 43.811161041259766]}, "properties": {"stop_id": "11344", "stop_name": "5373 Finch Ave East"}}, {"type": "Feature", "geometry": {"type": "Point", "coordinates": [-79.31947326660156, 43.79566192626953]}, "properties": {"stop_id": "2494", "stop_name": "Finch Ave East at Bridletowne Circle (West)"}}, {"type": "Feature", "geometry": {"type": "Point", "coordinates": [-79.32617950439453, 43.79413604736328]}, "properties": {"stop_id": "2538", "stop_name": "Finch Ave East at Pharmacy Ave"}}, {"type": "Feature", "geometry": {"type": "Point", "coordinates": [-79.31018829345703, 43.79790496826172]}, "properties": {"stop_id": "2555", "stop_name": "3501 Finch Ave East"}}, {"type": "Feature", "geometry": {"type": "Point", "coordinates": [-79.40725708007812, 43.781497955322266]}, "properties": {"stop_id": "2574", "stop_name": "Finch Ave East at Willowdale Ave"}}, {"type": "Feature", "geometry": {"type": "Point", "coordinates": [-79.2399673461914, 43.81355285644531]}, "properties": {"stop_id": "2561", "stop_name": "Opposite 5600 Finch Ave East"}}, {"type": "Feature", "geometry": {"type": "Point", "coordinates": [-79.3124771118164, 43.79731750488281]}, "properties": {"stop_id": "2493", "stop_name": "Finch Ave East at Bridletowne Circle (East)"}}, {"type": "Feature", "geometry": {"type": "Point", "coordinates": [-79.39643096923828, 43.78386688232422]}, "properties": {"stop_id": "2509", "stop_name": "Finch Ave East at Estelle Ave"}}, {"type": "Feature", "geometry": {"type": "Point", "coordinates": [-79.4045639038086, 43.78207778930664]}, "properties": {"stop_id": "2522", "stop_name": "Finch Ave East at Longmore St"}}, {"type": "Feature", "geometry": {"type": "Point", "coordinates": [-79.35062408447266, 43.79344177246094]}, "properties": {"stop_id": "2550", "stop_name": "Finch Ave East at Seneca Hill Dr - Opposite Seneca Polytechnic"}}, {"type": "Feature", "geometry": {"type": "Point", "coordinates": [-79.25318908691406, 43.810699462890625]}, "properties": {"stop_id": "2559", "stop_name": "Finch Ave East at Scottfield Dr"}}, {"type": "Feature", "geometry": {"type": "Point", "coordinates": [-79.2890853881836, 43.802978515625]}, "properties": {"stop_id": "2485", "stop_name": "Finch Ave East at Baylawn Dr"}}, {"type": "Feature", "geometry": {"type": "Point", "coordinates": [-79.40982818603516, 43.78092575073242]}, "properties": {"stop_id": "2507", "stop_name": "Finch Ave East at Dudley Ave"}}]}