{"type": "FeatureCollection", "features": [{"type": "Feature", "geometry": {"type": "Point", "coordinates": [-79.47160339355469, 43.67185592651367]}, "properties": {"stop_id": "6534", "stop_name": "Gunns Loop at St Clair Ave West"}}, {"type": "Feature", "geometry": {"type": "Point", "coordinates": [-79.48866271972656, 43.66571807861328]}, "properties": {"stop_id": "3527", "stop_name": "Dundas St West at Willard Ave West Side"}}, {"type": "Feature", "geometry": {"type": "Point", "coordinates": [-79.48291778564453, 43.6656494140625]}, "properties": {"stop_id": "4455", "stop_name": "Dundas St West at Runnymede Rd West Side"}}, {"type": "Feature", "geometry": {"type": "Point", "coordinates": [-79.46432495117188, 43.66546630859375]}, "properties": {"stop_id": "3509", "stop_name": "Dundas St West at Keele St"}}, {"type": "Feature", "geometry": {"type": "Point", "coordinates": [-79.48932647705078, 43.6675910949707]}, "properties": {"stop_id": "14895", "stop_name": "St Clair Ave West at Mariposa Ave East Side"}}, {"type": "Feature", "geometry": {"type": "Point", "coordinates": [-79.48724365234375, 43.668067932128906]}, "properties": {"stop_id": "13320", "stop_name": "St Clair Ave West at Mould Ave"}}, {"type": "Feature", "geometry": {"type": "Point", "coordinates": [-79.45629119873047, 43.6629524230957]}, "properties": {"stop_id": "3500", "stop_name": "Dundas St West at Humberside Ave"}}, {"type": "Feature", "geometry": {"type": "Point", "coordinates": [-79.47532653808594, 43.67071533203125]}, "properties": {"stop_id": "15061", "stop_name": "St Clair Ave West at Mondovi Gate"}}, {"type": "Feature", "geometry": {"type": "Point", "coordinates": [-79.48567962646484, 43.66567611694336]}, "properties": {"stop_id": "3528", "stop_name": "Dundas St West at Windermere Ave"}}, {"type": "Feature", "geometry": {"type": "Point", "coordinates": [-79.4530258178711, 43.657135009765625]}, "properties": {"stop_id": "9855", "stop_name": "Edna Ave at Dundas St West"}}, {"type": "Feature", "geometry": {"type": "Point", "coordinates": [-79.48199462890625, 43.665645599365234]}, "properties": {"stop_id": "3521", "stop_name": "Dundas St West at Runnymede Rd"}}, {"type": "Feature", "geometry": {"type": "Point", "coordinates": [-79.46216583251953, 43.665428161621094]}, "properties": {"stop_id": "3502", "stop_name": "Dundas St West at Indian Grove"}}, {"type": "Feature", "geometry": {"type": "Point", "coordinates": [-79.47383117675781, 43.66560745239258]}, "properties": {"stop_id": "15984", "stop_name": "Dundas St West at Clendenan Ave"}}, {"type": "Feature", "geometry": {"type": "Point", "coordinates": [-79.46845245361328, 43.665504455566406]}, "properties": {"stop_id": "3514", "stop_name": "Dundas St West at Pacific Ave"}}, {"type": "Feature", "geometry": {"type": "Point", "coordinates": [-79.4909439086914, 43.66576385498047]}, "properties": {"stop_id": "3505", "stop_name": "Dundas St West at Jane St"}}, {"type": "Feature", "geometry": {"type": "Point", "coordinates": [-79.49112701416016, 43.66717529296875]}, "properties": {"stop_id": "15421", "stop_name": "St Clair Ave West at Jane St East Side"}}, {"type": "Feature", "geometry": {"type": "Point", "coordinates": [-79.4536361694336, 43.66007614135742]}, "properties": {"stop_id": "3497", "stop_name": "Dundas St West at Glenlake Ave North Side"}}, {"type": "Feature", "geometry": {"type": "Point", "coordinates": [-79.45283508300781, 43.65821075439453]}, "properties": {"stop_id": "3490", "stop_name": "Dundas St West at Chelsea Ave North Side"}}, {"type": "Feature", "geometry": {"type": "Point", "coordinates": [-79.48377227783203, 43.66884231567383]}, "properties": {"stop_id": "13343", "stop_name": "St Clair Ave West at Runnymede Rd"}}, {"type": "Feature", "geometry": {"type": "Point", "coordinates": [-79.48131561279297, 43.669395446777344]}, "properties": {"stop_id": "7359", "stop_name": "St Clair Ave West at Britannia Ave"}}, {"type": "Feature", "geometry": {"type": "Point", "coordinates": [-79.47874450683594, 43.66562271118164]}, "properties": {"stop_id": "3496", "stop_name": "Dundas St West at Gilmour Ave"}}, {"type": "Feature", "geometry": {"type": "Point", "coordinates": [-79.45850372314453, 43.664363861083984]}, "properties": {"stop_id": "3493", "stop_name": "Dundas St West at Dupont St"}}, {"type": "Feature", "geometry": {"type": "Point", "coordinates": [-79.47813415527344, 43.67009735107422]}, "properties": {"stop_id": "7361", "stop_name": "St Clair Ave West at Cobalt Ave"}}]}