{"type": "FeatureCollection", "features": [{"type": "Feature", "geometry": {"type": "Point", "coordinates": [-79.42259979248047, 43.72069549560547]}, "properties": {"stop_id": "5385", "stop_name": "Lawrence Ave West at Ledbury St"}}, {"type": "Feature", "geometry": {"type": "Point", "coordinates": [-79.45494079589844, 43.713905334472656]}, "properties": {"stop_id": "5360", "stop_name": "Lawrence Ave West at Dufferin St"}}, {"type": "Feature", "geometry": {"type": "Point", "coordinates": [-79.49679565429688, 43.704219818115234]}, "properties": {"stop_id": "5346", "stop_name": "Lawrence Ave West at Brookhaven Dr"}}, {"type": "Feature", "geometry": {"type": "Point", "coordinates": [-79.4825439453125, 43.707393646240234]}, "properties": {"stop_id": "5394", "stop_name": "Lawrence Ave West at Pimlico Rd"}}, {"type": "Feature", "geometry": {"type": "Point", "coordinates": [-79.53734588623047, 43.699005126953125]}, "properties": {"stop_id": "4995", "stop_name": "Dixon Rd at McManus Rd"}}, {"type": "Feature", "geometry": {"type": "Point", "coordinates": [-79.43525695800781, 43.71787643432617]}, "properties": {"stop_id": "5347", "stop_name": "Lawrence Ave West at Brookview Dr"}}, {"type": "Feature", "geometry": {"type": "Point", "coordinates": [-79.4089126586914, 43.72359848022461]}, "properties": {"stop_id": "5374", "stop_name": "Lawrence Ave West at Greer Rd"}}, {"type": "Feature", "geometry": {"type": "Point", "coordinates": [-79.38969421386719, 43.7276611328125]}, "properties": {"stop_id": "1230", "stop_name": "Lawrence Ave East at Wanless Cres (East)"}}, {"type": "Feature", "geometry": {"type": "Point", "coordinates": [-79.5957260131836, 43.686588287353516]}, "properties": {"stop_id": "4975", "stop_name": "Dixon Rd at Carlingview Dr"}}, {"type": "Feature", "geometry": {"type": "Point", "coordinates": [-79.39741516113281, 43.72602081298828]}, "properties": {"stop_id": "2819", "stop_name": "Lawrence Ave East at Mt Pleasant Rd"}}, {"type": "Feature", "geometry": {"type": "Point", "coordinates": [-79.50015258789062, 43.703460693359375]}, "properties": {"stop_id": "5359", "stop_name": "Lawrence Ave West at Duckworth St"}}, {"type": "Feature", "geometry": {"type": "Point", "coordinates": [-79.3768539428711, 43.721778869628906]}, "properties": {"stop_id": "1729", "stop_name": "Hospital Rd at Wellness Way East Side - Sunnybrook Main Entrance"}}, {"type": "Feature", "geometry": {"type": "Point", "coordinates": [-79.55887603759766, 43.69407272338867]}, "properties": {"stop_id": "4990", "stop_name": "Dixon Rd at Kipling Ave"}}, {"type": "Feature", "geometry": {"type": "Point", "coordinates": [-79.40575408935547, 43.7242431640625]}, "properties": {"stop_id": "5365", "stop_name": "Lawrence Ave West at Duplex Ave"}}, {"type": "Feature", "geometry": {"type": "Point", "coordinates": [-79.39900207519531, 43.72569274902344]}, "properties": {"stop_id": "1233", "stop_name": "Lawrence Ave East at Weybourne Cres East Side"}}, {"type": "Feature", "geometry": {"type": "Point", "coordinates": [-79.52696228027344, 43.69728088378906]}, "properties": {"stop_id": "5418", "stop_name": "Lawrence Ave West at Westona St East Side"}}, {"type": "Feature", "geometry": {"type": "Point", "coordinates": [-79.40367126464844, 43.72469711303711]}, "properties": {"stop_id": "5355", "stop_name": "Lawrence Ave West at Lorindale Ave East Side"}}, {"type": "Feature", "geometry": {"type": "Point", "coordinates": [-79.4184799194336, 43.72157287597656]}, "properties": {"stop_id": "5384", "stop_name": "Lawrence Ave West at Kimbark Blvd"}}, {"type": "Feature", "geometry": {"type": "Point", "coordinates": [-79.4632797241211, 43.712093353271484]}, "properties": {"stop_id": "5403", "stop_name": "Lawrence Ave West at Sage Ave"}}, {"type": "Feature", "geometry": {"type": "Point", "coordinates": [-79.43016052246094, 43.71903610229492]}, "properties": {"stop_id": "5337", "stop_name": "Lawrence Ave West at Bathurst St"}}, {"type": "Feature", "geometry": {"type": "Point", "coordinates": [-79.39552307128906, 43.72642135620117]}, "properties": {"stop_id": "1222", "stop_name": "Lawrence Ave East at Dinnick Cres East Side"}}, {"type": "Feature", "geometry": {"type": "Point", "coordinates": [-79.60625457763672, 43.68580627441406]}, "properties": {"stop_id": "4751", "stop_name": "Airport Rd at Jetliner Rd East Side"}}, {"type": "Feature", "geometry": {"type": "Point", "coordinates": [-79.38668823242188, 43.728309631347656]}, "properties": {"stop_id": "9157", "stop_name": "Lawrence Ave East at Mildenhall Rd"}}, {"type": "Feature", "geometry": {"type": "Point", "coordinates": [-79.50839233398438, 43.70185470581055]}, "properties": {"stop_id": "5395", "stop_name": "Lawrence Ave West at Pine St"}}, {"type": "Feature", "geometry": {"type": "Point", "coordinates": [-79.47470092773438, 43.70956802368164]}, "properties": {"stop_id": "5366", "stop_name": "Lawrence Ave West at Duval Dr"}}, {"type": "Feature", "geometry": {"type": "Point", "coordinates": [-79.59833526611328, 43.68650817871094]}, "properties": {"stop_id": "4974", "stop_name": "Opposite 950 Dixon Rd"}}, {"type": "Feature", "geometry": {"type": "Point", "coordinates": [-79.44409942626953, 43.715965270996094]}, "properties": {"stop_id": "12202", "stop_name": "Lawrence West Station"}}, {"type": "Feature", "geometry": {"type": "Point", "coordinates": [-79.58711242675781, 43.6877326965332]}, "properties": {"stop_id": "5003", "stop_name": "Dixon Rd at Skyway Ave"}}, {"type": "Feature", "geometry": {"type": "Point", "coordinates": [-79.48733520507812, 43.70631408691406]}, "properties": {"stop_id": "5356", "stop_name": "Lawrence Ave West at Culford Rd East Side"}}, {"type": "Feature", "geometry": {"type": "Point", "coordinates": [-79.49124908447266, 43.7054328918457]}, "properties": {"stop_id": "5391", "stop_name": "Lawrence Ave West at Olympia Dr East Side"}}, {"type": "Feature", "geometry": {"type": "Point", "coordinates": [-79.57426452636719, 43.69074630737305]}, "properties": {"stop_id": "4998", "stop_name": "585 Dixon Rd"}}, {"type": "Feature", "geometry": {"type": "Point", "coordinates": [-79.47737884521484, 43.70882034301758]}, "properties": {"stop_id": "5381", "stop_name": "Lawrence Ave West at Keele St East Side"}}, {"type": "Feature", "geometry": {"type": "Point", "coordinates": [-79.3921127319336, 43.727149963378906]}, "properties": {"stop_id": "1231", "stop_name": "Lawrence Ave East at Wanless Cres (West)"}}, {"type": "Feature", "geometry": {"type": "Point", "coordinates": [-79.42688751220703, 43.71977996826172]}, "properties": {"stop_id": "5370", "stop_name": "Lawrence Ave West at Glen Rush Blvd"}}, {"type": "Feature", "geometry": {"type": "Point", "coordinates": [-79.5428466796875, 43.69780731201172]}, "properties": {"stop_id": "4980", "stop_name": "Dixon Rd at Dixington Cres East Side"}}, {"type": "Feature", "geometry": {"type": "Point", "coordinates": [-79.41321563720703, 43.72268295288086]}, "properties": {"stop_id": "5392", "stop_name": "Lawrence Ave West at Rosewell Ave East Side"}}, {"type": "Feature", "geometry": {"type": "Point", "coordinates": [-79.55233001708984, 43.69562530517578]}, "properties": {"stop_id": "5005", "stop_name": "Dixon Rd at Wincott Dr"}}, {"type": "Feature", "geometry": {"type": "Point", "coordinates": [-79.60355377197266, 43.68601608276367]}, "properties": {"stop_id": "4760", "stop_name": "Airport Rd at Highway 427 (On Ramp)"}}, {"type": "Feature", "geometry": {"type": "Point", "coordinates": [-79.45254516601562, 43.71422576904297]}, "properties": {"stop_id": "15198", "stop_name": "Lawrence Ave West at Corona St"}}, {"type": "Feature", "geometry": {"type": "Point", "coordinates": [-79.46610260009766, 43.71146011352539]}, "properties": {"stop_id": "5350", "stop_name": "Lawrence Ave West at Caledonia Rd East Side"}}, {"type": "Feature", "geometry": {"type": "Point", "coordinates": [-79.62093353271484, 43.68680953979492]}, "properties": {"stop_id": "14278", "stop_name": "Pearson Airport Terminal 3 - Arrivals Level Columns C8-C12"}}, {"type": "Feature", "geometry": {"type": "Point", "coordinates": [-79.51171112060547, 43.70109176635742]}, "properties": {"stop_id": "5397", "stop_name": "Lawrence Ave West at Ralph St - Weston GO Station"}}, {"type": "Feature", "geometry": {"type": "Point", "coordinates": [-79.3940200805664, 43.726741790771484]}, "properties": {"stop_id": "1227", "stop_name": "Lawrence Ave East at Ronan Ave"}}, {"type": "Feature", "geometry": {"type": "Point", "coordinates": [-79.38204956054688, 43.7270622253418]}, "properties": {"stop_id": "1725", "stop_name": "Bayview Ave at Wood Ave"}}, {"type": "Feature", "geometry": {"type": "Point", "coordinates": [-79.46094512939453, 43.712615966796875]}, "properties": {"stop_id": "5363", "stop_name": "Lawrence Ave West at Dufflaw Rd"}}, {"type": "Feature", "geometry": {"type": "Point", "coordinates": [-79.53997039794922, 43.69842529296875]}, "properties": {"stop_id": "4981", "stop_name": "Dixon Rd at Tamarack Cir"}}, {"type": "Feature", "geometry": {"type": "Point", "coordinates": [-79.50419616699219, 43.70273971557617]}, "properties": {"stop_id": "2824", "stop_name": "Lawrence Ave West at Jane St"}}, {"type": "Feature", "geometry": {"type": "Point", "coordinates": [-79.44102478027344, 43.71664810180664]}, "properties": {"stop_id": "5407", "stop_name": "Lawrence Ave West at Shermount Ave East Side"}}, {"type": "Feature", "geometry": {"type": "Point", "coordinates": [-79.38323211669922, 43.727664947509766]}, "properties": {"stop_id": "1220", "stop_name": "Lawrence Ave East at Bayview Ave"}}, {"type": "Feature", "geometry": {"type": "Point", "coordinates": [-79.54597473144531, 43.697105407714844]}, "properties": {"stop_id": "4987", "stop_name": "Dixon Rd at Islington Ave East Side"}}, {"type": "Feature", "geometry": {"type": "Point", "coordinates": [-79.37974548339844, 43.724300384521484]}, "properties": {"stop_id": "1718", "stop_name": "Bayview Ave at Dawlish Ave South Side"}}, {"type": "Feature", "geometry": {"type": "Point", "coordinates": [-79.5297622680664, 43.69670486450195]}, "properties": {"stop_id": "5399", "stop_name": "Lawrence Ave West at Roxaline St"}}, {"type": "Feature", "geometry": {"type": "Point", "coordinates": [-79.55540466308594, 43.694908142089844]}, "properties": {"stop_id": "13698", "stop_name": "327 Dixon Rd"}}, {"type": "Feature", "geometry": {"type": "Point", "coordinates": [-79.43805694580078, 43.717281341552734]}, "properties": {"stop_id": "5369", "stop_name": "Lawrence Ave West at Englemount Ave East Side"}}, {"type": "Feature", "geometry": {"type": "Point", "coordinates": [-79.52228546142578, 43.69837951660156]}, "properties": {"stop_id": "6046", "stop_name": "Lawrence Ave West at Scarlett Rd East Side"}}, {"type": "Feature", "geometry": {"type": "Point", "coordinates": [-79.52336883544922, 43.69804382324219]}, "properties": {"stop_id": "5405", "stop_name": "Lawrence Ave West at Scarlett Rd"}}, {"type": "Feature", "geometry": {"type": "Point", "coordinates": [-79.41580963134766, 43.72207260131836]}, "properties": {"stop_id": "5335", "stop_name": "Lawrence Ave West at Avenue Rd"}}, {"type": "Feature", "geometry": {"type": "Point", "coordinates": [-79.56261444091797, 43.693233489990234]}, "properties": {"stop_id": "4977", "stop_name": "Dixon Rd at Celestine Dr"}}, {"type": "Feature", "geometry": {"type": "Point", "coordinates": [-79.411376953125, 43.72308349609375]}, "properties": {"stop_id": "5352", "stop_name": "Lawrence Ave West at Chatsworth Dr"}}, {"type": "Feature", "geometry": {"type": "Point", "coordinates": [-79.44952392578125, 43.71483612060547]}, "properties": {"stop_id": "5343", "stop_name": "Lawrence Ave West at Bolingbroke Rd"}}, {"type": "Feature", "geometry": {"type": "Point", "coordinates": [-79.45860290527344, 43.713138580322266]}, "properties": {"stop_id": "5373", "stop_name": "Lawrence Ave West at Good Shepherd Crt"}}, {"type": "Feature", "geometry": {"type": "Point", "coordinates": [-79.40181732177734, 43.72503662109375]}, "properties": {"stop_id": "1235", "stop_name": "Lawrence Ave East at Yonge St East Side"}}, {"type": "Feature", "geometry": {"type": "Point", "coordinates": [-79.53218078613281, 43.6961784362793]}, "properties": {"stop_id": "5402", "stop_name": "Lawrence Ave West at Royal York Rd East Side"}}, {"type": "Feature", "geometry": {"type": "Point", "coordinates": [-79.4467544555664, 43.715431213378906]}, "properties": {"stop_id": "5389", "stop_name": "Lawrence Ave West at Marlee Ave"}}, {"type": "Feature", "geometry": {"type": "Point", "coordinates": [-79.57111358642578, 43.691368103027344]}, "properties": {"stop_id": "4992", "stop_name": "Dixon Rd at Martin Grove Rd"}}, {"type": "Feature", "geometry": {"type": "Point", "coordinates": [-79.57719421386719, 43.69002914428711]}, "properties": {"stop_id": "4989", "stop_name": "Dixon Rd at Kelfield St"}}, {"type": "Feature", "geometry": {"type": "Point", "coordinates": [-79.51678466796875, 43.699920654296875]}, "properties": {"stop_id": "5414", "stop_name": "Lawrence Ave West at Weston Rd"}}, {"type": "Feature", "geometry": {"type": "Point", "coordinates": [-79.4331283569336, 43.718360900878906]}, "properties": {"stop_id": "5371", "stop_name": "Lawrence Ave West at Glenmount Ave"}}, {"type": "Feature", "geometry": {"type": "Point", "coordinates": [-79.37776947021484, 43.721378326416016]}, "properties": {"stop_id": "11996", "stop_name": "Wellness Way at Hospital Rd - Odette Cancer Centre"}}, {"type": "Feature", "geometry": {"type": "Point", "coordinates": [-79.53367614746094, 43.698219299316406]}, "properties": {"stop_id": "7025", "stop_name": "Royal York Rd at Royaleigh Ave South Side"}}, {"type": "Feature", "geometry": {"type": "Point", "coordinates": [-79.5201416015625, 43.69906234741211]}, "properties": {"stop_id": "5377", "stop_name": "Lawrence Ave West at Hickory Tree Rd"}}, {"type": "Feature", "geometry": {"type": "Point", "coordinates": [-79.4720230102539, 43.71014404296875]}, "properties": {"stop_id": "5340", "stop_name": "Lawrence Ave West at Benton Rd"}}]}