{"type": "FeatureCollection", "features": [{"type": "Feature", "geometry": {"type": "Point", "coordinates": [-79.4161605834961, 43.779727935791016]}, "properties": {"stop_id": "9130", "stop_name": "Finch Ave West at Yonge St West Side"}}, {"type": "Feature", "geometry": {"type": "Point", "coordinates": [-79.45137023925781, 43.772335052490234]}, "properties": {"stop_id": "3618", "stop_name": "Finch Ave West at Torresdale Ave West Side"}}, {"type": "Feature", "geometry": {"type": "Point", "coordinates": [-79.44860076904297, 43.77289962768555]}, "properties": {"stop_id": "3619", "stop_name": "Finch Ave West at Virgilwood Dr West Side - North York General Finch Branson"}}, {"type": "Feature", "geometry": {"type": "Point", "coordinates": [-79.44384002685547, 43.773841857910156]}, "properties": {"stop_id": "16062", "stop_name": "Finch Ave West at Bathurst St"}}, {"type": "Feature", "geometry": {"type": "Point", "coordinates": [-79.48806762695312, 43.7642707824707]}, "properties": {"stop_id": "2635", "stop_name": "Finch Ave West at Tangiers Rd"}}, {"type": "Feature", "geometry": {"type": "Point", "coordinates": [-79.41832733154297, 43.77923583984375]}, "properties": {"stop_id": "3595", "stop_name": "Finch Ave West at Greenview Ave"}}, {"type": "Feature", "geometry": {"type": "Point", "coordinates": [-79.4465103149414, 43.77335739135742]}, "properties": {"stop_id": "3610", "stop_name": "550 Finch Ave West"}}, {"type": "Feature", "geometry": {"type": "Point", "coordinates": [-79.49089813232422, 43.7651252746582]}, "properties": {"stop_id": "15566", "stop_name": "Finch West Station"}}, {"type": "Feature", "geometry": {"type": "Point", "coordinates": [-79.42769622802734, 43.777198791503906]}, "properties": {"stop_id": "3584", "stop_name": "Finch Ave West at Carney Rd"}}, {"type": "Feature", "geometry": {"type": "Point", "coordinates": [-79.41453552246094, 43.78028869628906]}, "properties": {"stop_id": "14686", "stop_name": "Finch Station"}}, {"type": "Feature", "geometry": {"type": "Point", "coordinates": [-79.47119903564453, 43.76802062988281]}, "properties": {"stop_id": "2582", "stop_name": "Finch Ave West at Alness St"}}, {"type": "Feature", "geometry": {"type": "Point", "coordinates": [-79.43209075927734, 43.776222229003906]}, "properties": {"stop_id": "3594", "stop_name": "Finch Ave West at Grantbrook St West Side"}}, {"type": "Feature", "geometry": {"type": "Point", "coordinates": [-79.47802734375, 43.766502380371094]}, "properties": {"stop_id": "2591", "stop_name": "Finch Ave West at Chesswood Dr West Side"}}, {"type": "Feature", "geometry": {"type": "Point", "coordinates": [-79.43806457519531, 43.77486801147461]}, "properties": {"stop_id": "3578", "stop_name": "Finch Ave West at Ancona St"}}, {"type": "Feature", "geometry": {"type": "Point", "coordinates": [-79.46633911132812, 43.76913070678711]}, "properties": {"stop_id": "3588", "stop_name": "Finch Ave West at Dufferin St"}}, {"type": "Feature", "geometry": {"type": "Point", "coordinates": [-79.483642578125, 43.765281677246094]}, "properties": {"stop_id": "2603", "stop_name": "1150 Finch Ave West"}}, {"type": "Feature", "geometry": {"type": "Point", "coordinates": [-79.42280578613281, 43.778263092041016]}, "properties": {"stop_id": "15313", "stop_name": "Finch Ave West at Talbot Rd"}}, {"type": "Feature", "geometry": {"type": "Point", "coordinates": [-79.43431854248047, 43.77570724487305]}, "properties": {"stop_id": "15785", "stop_name": "Finch Ave West at Glenborough Park Cres West Side"}}, {"type": "Feature", "geometry": {"type": "Point", "coordinates": [-79.47516632080078, 43.76712417602539]}, "properties": {"stop_id": "3580", "stop_name": "1118 Finch Ave West"}}, {"type": "Feature", "geometry": {"type": "Point", "coordinates": [-79.45745849609375, 43.771053314208984]}, "properties": {"stop_id": "3615", "stop_name": "Opposite 685 Finch Ave West - St Bernard's Residence"}}, {"type": "Feature", "geometry": {"type": "Point", "coordinates": [-79.45429992675781, 43.771705627441406]}, "properties": {"stop_id": "3609", "stop_name": "Opposite 625 Finch Ave West"}}, {"type": "Feature", "geometry": {"type": "Point", "coordinates": [-79.46064758300781, 43.770362854003906]}, "properties": {"stop_id": "3623", "stop_name": "Finch Ave West at Wilmington Ave"}}]}