{"type": "FeatureCollection", "features": [{"type": "Feature", "geometry": {"type": "Point", "coordinates": [-79.26627349853516, 43.8082275390625]}, "properties": {"stop_id": "2529", "stop_name": "Finch Ave East at McCowan Rd"}}, {"type": "Feature", "geometry": {"type": "Point", "coordinates": [-79.39917755126953, 43.7834587097168]}, "properties": {"stop_id": "2528", "stop_name": "Finch Ave East at Maxome Ave"}}, {"type": "Feature", "geometry": {"type": "Point", "coordinates": [-79.28868103027344, 43.80328369140625]}, "properties": {"stop_id": "2486", "stop_name": "Finch Ave East at Baylawn Dr"}}, {"type": "Feature", "geometry": {"type": "Point", "coordinates": [-79.21223449707031, 43.81974411010742]}, "properties": {"stop_id": "14487", "stop_name": "Old Finch Ave at Baffin Crt West Side"}}, {"type": "Feature", "geometry": {"type": "Point", "coordinates": [-79.22734069824219, 43.81652069091797]}, "properties": {"stop_id": "14550", "stop_name": "Finch Ave East at Neilson Rd"}}, {"type": "Feature", "geometry": {"type": "Point", "coordinates": [-79.40696716308594, 43.78173828125]}, "properties": {"stop_id": "2575", "stop_name": "Finch Ave East at Willowdale Ave"}}, {"type": "Feature", "geometry": {"type": "Point", "coordinates": [-79.20528411865234, 43.81918716430664]}, "properties": {"stop_id": "10950", "stop_name": "Littles Rd at Sewells Rd North Side"}}, {"type": "Feature", "geometry": {"type": "Point", "coordinates": [-79.25262451171875, 43.81103515625]}, "properties": {"stop_id": "2560", "stop_name": "Finch Ave East at Tiffield Rd"}}, {"type": "Feature", "geometry": {"type": "Point", "coordinates": [-79.32579040527344, 43.794498443603516]}, "properties": {"stop_id": "2539", "stop_name": "Finch Ave East at Pharmacy Ave"}}, {"type": "Feature", "geometry": {"type": "Point", "coordinates": [-79.3865737915039, 43.78641128540039]}, "properties": {"stop_id": "2563", "stop_name": "Finch Ave East at Tollerton Ave"}}, {"type": "Feature", "geometry": {"type": "Point", "coordinates": [-79.29946899414062, 43.80065155029297]}, "properties": {"stop_id": "2571", "stop_name": "Finch Ave East at Wayside Ave"}}, {"type": "Feature", "geometry": {"type": "Point", "coordinates": [-79.36296081542969, 43.79098129272461]}, "properties": {"stop_id": "2521", "stop_name": "Finch Ave East at Liszt Gate"}}, {"type": "Feature", "geometry": {"type": "Point", "coordinates": [-79.26255798339844, 43.80900192260742]}, "properties": {"stop_id": "2545", "stop_name": "Finch Ave East at Sandhurst Cir (East)"}}, {"type": "Feature", "geometry": {"type": "Point", "coordinates": [-79.4161605834961, 43.779727935791016]}, "properties": {"stop_id": "9130", "stop_name": "Finch Ave West at Yonge St West Side"}}, {"type": "Feature", "geometry": {"type": "Point", "coordinates": [-79.2313232421875, 43.81553268432617]}, "properties": {"stop_id": "16700", "stop_name": "Finch Ave East at Finchdene Sq"}}, {"type": "Feature", "geometry": {"type": "Point", "coordinates": [-79.28607940673828, 43.803932189941406]}, "properties": {"stop_id": "2535", "stop_name": "Finch Ave East at Midland Ave"}}, {"type": "Feature", "geometry": {"type": "Point", "coordinates": [-79.2820053100586, 43.80481719970703]}, "properties": {"stop_id": "2483", "stop_name": "Finch Ave East at Alexmuir Blvd"}}, {"type": "Feature", "geometry": {"type": "Point", "coordinates": [-79.33670806884766, 43.793548583984375]}, "properties": {"stop_id": "2503", "stop_name": "Finch Ave East at Cherokee Blvd"}}, {"type": "Feature", "geometry": {"type": "Point", "coordinates": [-79.27713012695312, 43.80588150024414]}, "properties": {"stop_id": "2498", "stop_name": "Finch Ave East at Brimley Rd"}}, {"type": "Feature", "geometry": {"type": "Point", "coordinates": [-79.2401123046875, 43.813697814941406]}, "properties": {"stop_id": "2562", "stop_name": "5600 Finch Ave East"}}, {"type": "Feature", "geometry": {"type": "Point", "coordinates": [-79.30976867675781, 43.79819107055664]}, "properties": {"stop_id": "2553", "stop_name": "Opposite 3501 Finch Ave East - St Aidan"}}, {"type": "Feature", "geometry": {"type": "Point", "coordinates": [-79.22119140625, 43.81917953491211]}, "properties": {"stop_id": "14445", "stop_name": "Finch Ave East at Morningside Ave West Side"}}, {"type": "Feature", "geometry": {"type": "Point", "coordinates": [-79.20934295654297, 43.820411682128906]}, "properties": {"stop_id": "14486", "stop_name": "Old Finch Ave at Harvest Moon Dr"}}, {"type": "Feature", "geometry": {"type": "Point", "coordinates": [-79.31547546386719, 43.79697036743164]}, "properties": {"stop_id": "2570", "stop_name": "Finch Ave East at Warden Ave"}}, {"type": "Feature", "geometry": {"type": "Point", "coordinates": [-79.40177154541016, 43.78288269042969]}, "properties": {"stop_id": "2573", "stop_name": "Finch Ave East at Wilfred Ave"}}, {"type": "Feature", "geometry": {"type": "Point", "coordinates": [-79.24276733398438, 43.81319808959961]}, "properties": {"stop_id": "2526", "stop_name": "Finch Ave East at Markham Rd"}}, {"type": "Feature", "geometry": {"type": "Point", "coordinates": [-79.31211853027344, 43.797672271728516]}, "properties": {"stop_id": "2495", "stop_name": "Finch Ave East at Bridletowne Circle (East)"}}, {"type": "Feature", "geometry": {"type": "Point", "coordinates": [-79.23787689208984, 43.81414031982422]}, "properties": {"stop_id": "16368", "stop_name": "Finch Ave East at Tapscott Rd West Side"}}, {"type": "Feature", "geometry": {"type": "Point", "coordinates": [-79.34957122802734, 43.793983459472656]}, "properties": {"stop_id": "2549", "stop_name": "Finch Ave East at Au Large Blvd - Seneca Polytechnic"}}, {"type": "Feature", "geometry": {"type": "Point", "coordinates": [-79.29413604736328, 43.801963806152344]}, "properties": {"stop_id": "10659", "stop_name": "Finch Ave East at Milliken Blvd"}}, {"type": "Feature", "geometry": {"type": "Point", "coordinates": [-79.21463012695312, 43.8192024230957]}, "properties": {"stop_id": "14488", "stop_name": "Old Finch Ave at Morningside Ave"}}, {"type": "Feature", "geometry": {"type": "Point", "coordinates": [-79.37311553955078, 43.7893180847168]}, "properties": {"stop_id": "2540", "stop_name": "Finch Ave East at Pineway Blvd"}}, {"type": "Feature", "geometry": {"type": "Point", "coordinates": [-79.41221618652344, 43.78057861328125]}, "properties": {"stop_id": "2517", "stop_name": "Finch Ave East at Kenneth Ave"}}, {"type": "Feature", "geometry": {"type": "Point", "coordinates": [-79.20603942871094, 43.82093048095703]}, "properties": {"stop_id": "10951", "stop_name": "Littles Rd at Old Finch Ave"}}, {"type": "Feature", "geometry": {"type": "Point", "coordinates": [-79.36907196044922, 43.7901611328125]}, "properties": {"stop_id": "2519", "stop_name": "Finch Ave East at Leslie St - Old Cummer GO Station"}}, {"type": "Feature", "geometry": {"type": "Point", "coordinates": [-79.30303192138672, 43.7997932434082]}, "properties": {"stop_id": "2568", "stop_name": "Finch Ave East at Opposite Walkway East of Birchmount Rd"}}, {"type": "Feature", "geometry": {"type": "Point", "coordinates": [-79.36518859863281, 43.79045486450195]}, "properties": {"stop_id": "2544", "stop_name": "Finch Ave East at Ravel Rd"}}, {"type": "Feature", "geometry": {"type": "Point", "coordinates": [-79.3520736694336, 43.7933464050293]}, "properties": {"stop_id": "2552", "stop_name": "Finch Ave East at Skymark Dr"}}, {"type": "Feature", "geometry": {"type": "Point", "coordinates": [-79.27021789550781, 43.80735778808594]}, "properties": {"stop_id": "2548", "stop_name": "Finch Ave East at Sandhurst Cir (West)"}}, {"type": "Feature", "geometry": {"type": "Point", "coordinates": [-79.35579681396484, 43.7926025390625]}, "properties": {"stop_id": "9617", "stop_name": "Finch Ave East at Don Mills Rd West Side"}}, {"type": "Feature", "geometry": {"type": "Point", "coordinates": [-79.29615783691406, 43.80148696899414]}, "properties": {"stop_id": "2515", "stop_name": "Finch Ave East at Kennedy Rd"}}, {"type": "Feature", "geometry": {"type": "Point", "coordinates": [-79.41410827636719, 43.780189514160156]}, "properties": {"stop_id": "9131", "stop_name": "Finch Ave East at Yonge St - Finch Station"}}, {"type": "Feature", "geometry": {"type": "Point", "coordinates": [-79.32329559326172, 43.79505157470703]}, "properties": {"stop_id": "2531", "stop_name": "Finch Ave East at Walkway to Huntingdale Blvd"}}, {"type": "Feature", "geometry": {"type": "Point", "coordinates": [-79.39588928222656, 43.7841796875]}, "properties": {"stop_id": "2576", "stop_name": "Finch Ave East at Winlock Park"}}, {"type": "Feature", "geometry": {"type": "Point", "coordinates": [-79.31909942626953, 43.79605484008789]}, "properties": {"stop_id": "2496", "stop_name": "Finch Ave East at Bridletowne Circle (West)"}}, {"type": "Feature", "geometry": {"type": "Point", "coordinates": [-79.30575561523438, 43.799171447753906]}, "properties": {"stop_id": "2491", "stop_name": "Finch Ave East at Birchmount Rd"}}, {"type": "Feature", "geometry": {"type": "Point", "coordinates": [-79.38895416259766, 43.78586959838867]}, "properties": {"stop_id": "2511", "stop_name": "Finch Ave East at Gaspe Rd"}}, {"type": "Feature", "geometry": {"type": "Point", "coordinates": [-79.40435028076172, 43.78231430053711]}, "properties": {"stop_id": "2523", "stop_name": "Finch Ave East at Longmore St"}}, {"type": "Feature", "geometry": {"type": "Point", "coordinates": [-79.25746154785156, 43.810081481933594]}, "properties": {"stop_id": "2533", "stop_name": "Finch Ave East at Middlefield Rd"}}, {"type": "Feature", "geometry": {"type": "Point", "coordinates": [-79.25049591064453, 43.81153106689453]}, "properties": {"stop_id": "11345", "stop_name": "5310 Finch Ave East"}}, {"type": "Feature", "geometry": {"type": "Point", "coordinates": [-79.38081359863281, 43.78763198852539]}, "properties": {"stop_id": "2542", "stop_name": "636 Finch Ave East (Plaza)"}}, {"type": "Feature", "geometry": {"type": "Point", "coordinates": [-79.22408294677734, 43.817081451416016]}, "properties": {"stop_id": "14443", "stop_name": "5910 Finch Ave East"}}, {"type": "Feature", "geometry": {"type": "Point", "coordinates": [-79.32804107666016, 43.79396057128906]}, "properties": {"stop_id": "10603", "stop_name": "Finch Ave East at Walkway to Chester Le Blvd"}}, {"type": "Feature", "geometry": {"type": "Point", "coordinates": [-79.38473510742188, 43.786781311035156]}, "properties": {"stop_id": "2536", "stop_name": "Finch Ave East at Page Ave West Side"}}, {"type": "Feature", "geometry": {"type": "Point", "coordinates": [-79.40962219238281, 43.78117370605469]}, "properties": {"stop_id": "2508", "stop_name": "Finch Ave East at Dudley Ave"}}, {"type": "Feature", "geometry": {"type": "Point", "coordinates": [-79.35789489746094, 43.79210662841797]}, "properties": {"stop_id": "2492", "stop_name": "Finch Ave East at Brahms Ave"}}, {"type": "Feature", "geometry": {"type": "Point", "coordinates": [-79.27395629882812, 43.806495666503906]}, "properties": {"stop_id": "11332", "stop_name": "4640 Finch Ave East"}}, {"type": "Feature", "geometry": {"type": "Point", "coordinates": [-79.39175415039062, 43.78521728515625]}, "properties": {"stop_id": "9127", "stop_name": "Finch Ave East at Bayview Ave"}}, {"type": "Feature", "geometry": {"type": "Point", "coordinates": [-79.33114624023438, 43.79330825805664]}, "properties": {"stop_id": "2566", "stop_name": "Finch Ave East at Victoria Park Ave"}}]}