{"type": "FeatureCollection", "features": [{"type": "Feature", "geometry": {"type": "Point", "coordinates": [-79.45494079589844, 43.713905334472656]}, "properties": {"stop_id": "5360", "stop_name": "Lawrence Ave West at Dufferin St"}}, {"type": "Feature", "geometry": {"type": "Point", "coordinates": [-79.47874450683594, 43.71116256713867]}, "properties": {"stop_id": "4016", "stop_name": "Keele St at North Park Dr"}}, {"type": "Feature", "geometry": {"type": "Point", "coordinates": [-79.43321990966797, 43.737945556640625]}, "properties": {"stop_id": "14507", "stop_name": "270 Wilson Ave - No Frills"}}, {"type": "Feature", "geometry": {"type": "Point", "coordinates": [-79.44952392578125, 43.71483612060547]}, "properties": {"stop_id": "5343", "stop_name": "Lawrence Ave West at Bolingbroke Rd"}}, {"type": "Feature", "geometry": {"type": "Point", "coordinates": [-79.44673919677734, 43.718814849853516]}, "properties": {"stop_id": "13622", "stop_name": "Flemington Rd at Dynasty Lane"}}, {"type": "Feature", "geometry": {"type": "Point", "coordinates": [-79.44120025634766, 43.729713439941406]}, "properties": {"stop_id": "6611", "stop_name": "150 Neptune Dr"}}, {"type": "Feature", "geometry": {"type": "Point", "coordinates": [-79.4632797241211, 43.712093353271484]}, "properties": {"stop_id": "5403", "stop_name": "Lawrence Ave West at Sage Ave"}}, {"type": "Feature", "geometry": {"type": "Point", "coordinates": [-79.44369506835938, 43.71567153930664]}, "properties": {"stop_id": "14731", "stop_name": "Lawrence West Station"}}, {"type": "Feature", "geometry": {"type": "Point", "coordinates": [-79.43305206298828, 43.73382568359375]}, "properties": {"stop_id": "158", "stop_name": "Bathurst St at Joicey Blvd"}}, {"type": "Feature", "geometry": {"type": "Point", "coordinates": [-79.4346694946289, 43.73108673095703]}, "properties": {"stop_id": "7434", "stop_name": "Wasdale Cres at Neptune Dr"}}, {"type": "Feature", "geometry": {"type": "Point", "coordinates": [-79.44828033447266, 43.717185974121094]}, "properties": {"stop_id": "11637", "stop_name": "Lawrence Sq at Northwest Entrance"}}, {"type": "Feature", "geometry": {"type": "Point", "coordinates": [-79.48814392089844, 43.72356414794922]}, "properties": {"stop_id": "15547", "stop_name": "Humber River Hospital"}}, {"type": "Feature", "geometry": {"type": "Point", "coordinates": [-79.44325256347656, 43.71945571899414]}, "properties": {"stop_id": "6385", "stop_name": "Flemington Rd at Replin Rd East Side"}}, {"type": "Feature", "geometry": {"type": "Point", "coordinates": [-79.4389877319336, 43.73173141479492]}, "properties": {"stop_id": "6617", "stop_name": "Neptune Dr at Rajah St"}}, {"type": "Feature", "geometry": {"type": "Point", "coordinates": [-79.46094512939453, 43.712615966796875]}, "properties": {"stop_id": "5363", "stop_name": "Lawrence Ave West at Dufflaw Rd"}}, {"type": "Feature", "geometry": {"type": "Point", "coordinates": [-79.45860290527344, 43.713138580322266]}, "properties": {"stop_id": "5373", "stop_name": "Lawrence Ave West at Good Shepherd Crt"}}, {"type": "Feature", "geometry": {"type": "Point", "coordinates": [-79.43417358398438, 43.729774475097656]}, "properties": {"stop_id": "11641", "stop_name": "Baycrest Home For Aged"}}, {"type": "Feature", "geometry": {"type": "Point", "coordinates": [-79.43341064453125, 43.7198600769043]}, "properties": {"stop_id": "15606", "stop_name": "25 Brucewood Cres"}}, {"type": "Feature", "geometry": {"type": "Point", "coordinates": [-79.48303985595703, 43.72060775756836]}, "properties": {"stop_id": "15601", "stop_name": "338 Falstaff Ave - Casa Abruzzo"}}, {"type": "Feature", "geometry": {"type": "Point", "coordinates": [-79.43525695800781, 43.71787643432617]}, "properties": {"stop_id": "5347", "stop_name": "Lawrence Ave West at Brookview Dr"}}, {"type": "Feature", "geometry": {"type": "Point", "coordinates": [-79.45254516601562, 43.71422576904297]}, "properties": {"stop_id": "15198", "stop_name": "Lawrence Ave West at Corona St"}}, {"type": "Feature", "geometry": {"type": "Point", "coordinates": [-79.43258666992188, 43.71961212158203]}, "properties": {"stop_id": "11638", "stop_name": "Lawrence Plaza at Canada Trust"}}, {"type": "Feature", "geometry": {"type": "Point", "coordinates": [-79.43775177001953, 43.73028564453125]}, "properties": {"stop_id": "7435", "stop_name": "Wasdale Cres at Rajah St East Side"}}, {"type": "Feature", "geometry": {"type": "Point", "coordinates": [-79.43785095214844, 43.717830657958984]}, "properties": {"stop_id": "7405", "stop_name": "Varna Dr at Lawrence Ave West"}}, {"type": "Feature", "geometry": {"type": "Point", "coordinates": [-79.4338150024414, 43.737186431884766]}, "properties": {"stop_id": "221", "stop_name": "Bathurst St at Wilson Ave"}}, {"type": "Feature", "geometry": {"type": "Point", "coordinates": [-79.4549560546875, 43.71199035644531]}, "properties": {"stop_id": "15604", "stop_name": "3010 Dufferin St - Casa Del Zotto"}}, {"type": "Feature", "geometry": {"type": "Point", "coordinates": [-79.4384536743164, 43.732086181640625]}, "properties": {"stop_id": "6618", "stop_name": "Neptune Dr at Rajah St"}}, {"type": "Feature", "geometry": {"type": "Point", "coordinates": [-79.44074249267578, 43.72990036010742]}, "properties": {"stop_id": "6616", "stop_name": "Opposite 130 Neptune Dr East Side"}}, {"type": "Feature", "geometry": {"type": "Point", "coordinates": [-79.43559265136719, 43.73250198364258]}, "properties": {"stop_id": "6422", "stop_name": "Hotspur Rd at Neptune Dr"}}, {"type": "Feature", "geometry": {"type": "Point", "coordinates": [-79.46610260009766, 43.71146011352539]}, "properties": {"stop_id": "5350", "stop_name": "Lawrence Ave West at Caledonia Rd East Side"}}, {"type": "Feature", "geometry": {"type": "Point", "coordinates": [-79.4813461303711, 43.71756362915039]}, "properties": {"stop_id": "15589", "stop_name": "Erie St at Rustic Rd"}}, {"type": "Feature", "geometry": {"type": "Point", "coordinates": [-79.4467544555664, 43.715431213378906]}, "properties": {"stop_id": "5389", "stop_name": "Lawrence Ave West at Marlee Ave"}}, {"type": "Feature", "geometry": {"type": "Point", "coordinates": [-79.43357849121094, 43.733131408691406]}, "properties": {"stop_id": "6421", "stop_name": "Hotspur Rd at Bathurst St West Side"}}, {"type": "Feature", "geometry": {"type": "Point", "coordinates": [-79.45524597167969, 43.71295928955078]}, "properties": {"stop_id": "15603", "stop_name": "3050 Dufferin St - Caboto Terrace"}}, {"type": "Feature", "geometry": {"type": "Point", "coordinates": [-79.43340301513672, 43.731285095214844]}, "properties": {"stop_id": "6613", "stop_name": "Neptune Dr at Bathurst St"}}, {"type": "Feature", "geometry": {"type": "Point", "coordinates": [-79.47431182861328, 43.70915603637695]}, "properties": {"stop_id": "15602", "stop_name": "North Park Plaza - Walmart"}}, {"type": "Feature", "geometry": {"type": "Point", "coordinates": [-79.43150329589844, 43.72724533081055]}, "properties": {"stop_id": "175", "stop_name": "Bathurst St at Melrose Ave"}}, {"type": "Feature", "geometry": {"type": "Point", "coordinates": [-79.44135284423828, 43.719642639160156]}, "properties": {"stop_id": "6389", "stop_name": "Flemington Rd at Varna Dr"}}, {"type": "Feature", "geometry": {"type": "Point", "coordinates": [-79.43994140625, 43.72917175292969]}, "properties": {"stop_id": "11640", "stop_name": "Wagman Centre"}}, {"type": "Feature", "geometry": {"type": "Point", "coordinates": [-79.47737884521484, 43.70882034301758]}, "properties": {"stop_id": "5381", "stop_name": "Lawrence Ave West at Keele St East Side"}}, {"type": "Feature", "geometry": {"type": "Point", "coordinates": [-79.430908203125, 43.724693298339844]}, "properties": {"stop_id": "135", "stop_name": "Bathurst St at Fairlawn Ave"}}, {"type": "Feature", "geometry": {"type": "Point", "coordinates": [-79.44281768798828, 43.71767044067383]}, "properties": {"stop_id": "16005", "stop_name": "5 Replin Rd - Lawrence Heights Community Centre"}}, {"type": "Feature", "geometry": {"type": "Point", "coordinates": [-79.4395980834961, 43.719444274902344]}, "properties": {"stop_id": "7397", "stop_name": "Varna Dr at Tundra Lane"}}, {"type": "Feature", "geometry": {"type": "Point", "coordinates": [-79.45657348632812, 43.71052932739258]}, "properties": {"stop_id": "15605", "stop_name": "40 Playfair Ave - Villa Colombo"}}, {"type": "Feature", "geometry": {"type": "Point", "coordinates": [-79.43241119384766, 43.73119354248047]}, "properties": {"stop_id": "91", "stop_name": "Bathurst St at Bannockburn Ave"}}, {"type": "Feature", "geometry": {"type": "Point", "coordinates": [-79.43280029296875, 43.718589782714844]}, "properties": {"stop_id": "5349", "stop_name": "Lawrence Ave West at Brucewood Cres"}}, {"type": "Feature", "geometry": {"type": "Point", "coordinates": [-79.4720230102539, 43.71014404296875]}, "properties": {"stop_id": "5340", "stop_name": "Lawrence Ave West at Benton Rd"}}, {"type": "Feature", "geometry": {"type": "Point", "coordinates": [-79.4332275390625, 43.72953796386719]}, "properties": {"stop_id": "15607", "stop_name": "Baycrest Hospital"}}, {"type": "Feature", "geometry": {"type": "Point", "coordinates": [-79.47956848144531, 43.71488952636719]}, "properties": {"stop_id": "4011", "stop_name": "Keele St at Maple Leaf Dr"}}]}