{"type": "FeatureCollection", "features": [{"type": "Feature", "geometry": {"type": "Point", "coordinates": [-79.45079803466797, 43.63943862915039]}, "properties": {"stop_id": "13479", "stop_name": "St Joseph'S Health Centre at 30 The Queensway"}}, {"type": "Feature", "geometry": {"type": "Point", "coordinates": [-79.4531021118164, 43.65697479248047]}, "properties": {"stop_id": "14663", "stop_name": "Dundas West Station"}}, {"type": "Feature", "geometry": {"type": "Point", "coordinates": [-79.45223236083984, 43.65644073486328]}, "properties": {"stop_id": "507", "stop_name": "Bloor St West at Dundas St West"}}, {"type": "Feature", "geometry": {"type": "Point", "coordinates": [-79.43965148925781, 43.649559020996094]}, "properties": {"stop_id": "11632", "stop_name": "Lansdowne Ave at Dundas St West South Side"}}, {"type": "Feature", "geometry": {"type": "Point", "coordinates": [-79.44786834716797, 43.657413482666016]}, "properties": {"stop_id": "4649", "stop_name": "Symington Ave at Bloor St West"}}, {"type": "Feature", "geometry": {"type": "Point", "coordinates": [-79.43466186523438, 43.64091873168945]}, "properties": {"stop_id": "6835", "stop_name": "Queen St West at Dunn Ave"}}, {"type": "Feature", "geometry": {"type": "Point", "coordinates": [-79.44852447509766, 43.6522331237793]}, "properties": {"stop_id": "2167", "stop_name": "Dundas St West at Howard Park Ave"}}, {"type": "Feature", "geometry": {"type": "Point", "coordinates": [-79.44325256347656, 43.650630950927734]}, "properties": {"stop_id": "991", "stop_name": "Dundas St West at Sterling Rd"}}, {"type": "Feature", "geometry": {"type": "Point", "coordinates": [-79.45125579833984, 43.653480529785156]}, "properties": {"stop_id": "2181", "stop_name": "Dundas St West at Roncesvalles Ave East Side"}}, {"type": "Feature", "geometry": {"type": "Point", "coordinates": [-79.43563842773438, 43.659912109375]}, "properties": {"stop_id": "16006", "stop_name": "Bloor St West at Dufferin St West Side"}}, {"type": "Feature", "geometry": {"type": "Point", "coordinates": [-79.43903350830078, 43.6591682434082]}, "properties": {"stop_id": "15322", "stop_name": "Bloor St West at Brock Ave"}}, {"type": "Feature", "geometry": {"type": "Point", "coordinates": [-79.44078826904297, 43.63982391357422]}, "properties": {"stop_id": "6852", "stop_name": "Queen St West at Sorauren Ave"}}, {"type": "Feature", "geometry": {"type": "Point", "coordinates": [-79.4389877319336, 43.646366119384766]}, "properties": {"stop_id": "5219", "stop_name": "Lansdowne Ave at Rideau Ave South Side"}}, {"type": "Feature", "geometry": {"type": "Point", "coordinates": [-79.44757843017578, 43.65739059448242]}, "properties": {"stop_id": "592", "stop_name": "Bloor St West at Symington Ave"}}, {"type": "Feature", "geometry": {"type": "Point", "coordinates": [-79.44577026367188, 43.63886260986328]}, "properties": {"stop_id": "6849", "stop_name": "Queen St West at Roncesvalles Ave"}}, {"type": "Feature", "geometry": {"type": "Point", "coordinates": [-79.45257568359375, 43.65644073486328]}, "properties": {"stop_id": "9856", "stop_name": "Dundas St West at Bloor St West"}}, {"type": "Feature", "geometry": {"type": "Point", "coordinates": [-79.43402862548828, 43.65579605102539]}, "properties": {"stop_id": "11630", "stop_name": "Dufferin Mall"}}, {"type": "Feature", "geometry": {"type": "Point", "coordinates": [-79.43296813964844, 43.63520050048828]}, "properties": {"stop_id": "11635", "stop_name": "Toronto Rehab - Bickle Centre at 130 Dunn Ave"}}, {"type": "Feature", "geometry": {"type": "Point", "coordinates": [-79.4438705444336, 43.63909149169922]}, "properties": {"stop_id": "15341", "stop_name": "Queen St West at Triller Ave"}}, {"type": "Feature", "geometry": {"type": "Point", "coordinates": [-79.44661712646484, 43.658447265625]}, "properties": {"stop_id": "11631", "stop_name": "55 Rankin Cres"}}, {"type": "Feature", "geometry": {"type": "Point", "coordinates": [-79.43751525878906, 43.64038848876953]}, "properties": {"stop_id": "6840", "stop_name": "Queen St West at Jameson Ave"}}, {"type": "Feature", "geometry": {"type": "Point", "coordinates": [-79.44780731201172, 43.657711029052734]}, "properties": {"stop_id": "4648", "stop_name": "Symington Ave at Bloor St West North Side"}}, {"type": "Feature", "geometry": {"type": "Point", "coordinates": [-79.43099975585938, 43.63813400268555]}, "properties": {"stop_id": "4186", "stop_name": "King St West at Spencer Ave"}}, {"type": "Feature", "geometry": {"type": "Point", "coordinates": [-79.44575500488281, 43.6512451171875]}, "properties": {"stop_id": "987", "stop_name": "Dundas St West at Sorauren Ave"}}, {"type": "Feature", "geometry": {"type": "Point", "coordinates": [-79.43805694580078, 43.64401626586914]}, "properties": {"stop_id": "5205", "stop_name": "106 Lansdowne Ave"}}, {"type": "Feature", "geometry": {"type": "Point", "coordinates": [-79.44013214111328, 43.65011215209961]}, "properties": {"stop_id": "2170", "stop_name": "Dundas St West at Lansdowne Ave"}}, {"type": "Feature", "geometry": {"type": "Point", "coordinates": [-79.4433822631836, 43.639320373535156]}, "properties": {"stop_id": "6857", "stop_name": "Queen St West at Triller Ave"}}, {"type": "Feature", "geometry": {"type": "Point", "coordinates": [-79.44542694091797, 43.63881301879883]}, "properties": {"stop_id": "16429", "stop_name": "Queen St West at Roncesvalles Ave East Side"}}, {"type": "Feature", "geometry": {"type": "Point", "coordinates": [-79.44257354736328, 43.65843963623047]}, "properties": {"stop_id": "536", "stop_name": "Bloor St West at Lansdowne Ave"}}, {"type": "Feature", "geometry": {"type": "Point", "coordinates": [-79.43685150146484, 43.64088439941406]}, "properties": {"stop_id": "5218", "stop_name": "Lansdowne Ave at Queen St West"}}, {"type": "Feature", "geometry": {"type": "Point", "coordinates": [-79.44126892089844, 43.63959884643555]}, "properties": {"stop_id": "10152", "stop_name": "Queen St West at Beaty Ave"}}, {"type": "Feature", "geometry": {"type": "Point", "coordinates": [-79.43759155273438, 43.642784118652344]}, "properties": {"stop_id": "5221", "stop_name": "Lansdowne Ave at Seaforth Ave"}}, {"type": "Feature", "geometry": {"type": "Point", "coordinates": [-79.43595123291016, 43.641944885253906]}, "properties": {"stop_id": "11723", "stop_name": "West Lodge Ave at May Robinson Apartments"}}]}