{"type": "FeatureCollection", "features": [{"type": "Feature", "geometry": {"type": "Point", "coordinates": [-79.5428695678711, 43.68824005126953]}, "properties": {"stop_id": "3853", "stop_name": "Islington Ave at The Westway South Side"}}, {"type": "Feature", "geometry": {"type": "Point", "coordinates": [-79.532470703125, 43.69601058959961]}, "properties": {"stop_id": "7005", "stop_name": "Royal York Rd at Lawrence Ave West"}}, {"type": "Feature", "geometry": {"type": "Point", "coordinates": [-79.53355407714844, 43.698516845703125]}, "properties": {"stop_id": "7026", "stop_name": "Royal York Rd at Royaleigh Ave"}}, {"type": "Feature", "geometry": {"type": "Point", "coordinates": [-79.52998352050781, 43.69028854370117]}, "properties": {"stop_id": "7034", "stop_name": "Royal York Rd at Trehorne Dr"}}, {"type": "Feature", "geometry": {"type": "Point", "coordinates": [-79.51902770996094, 43.684200286865234]}, "properties": {"stop_id": "14298", "stop_name": "60 Richview Rd - Ukrainian Canadian Care Centre"}}, {"type": "Feature", "geometry": {"type": "Point", "coordinates": [-79.53167724609375, 43.69416046142578]}, "properties": {"stop_id": "7040", "stop_name": "Royal York Rd at Yorkleigh Ave"}}, {"type": "Feature", "geometry": {"type": "Point", "coordinates": [-79.55294036865234, 43.680572509765625]}, "properties": {"stop_id": "14302", "stop_name": "1540 Kipling Ave - Richview Residence - Kipling Building"}}, {"type": "Feature", "geometry": {"type": "Point", "coordinates": [-79.53741455078125, 43.6992301940918]}, "properties": {"stop_id": "4994", "stop_name": "Dixon Rd at McManus Rd West Side"}}, {"type": "Feature", "geometry": {"type": "Point", "coordinates": [-79.5452651977539, 43.678585052490234]}, "properties": {"stop_id": "16648", "stop_name": "Eglinton Ave West at Wincott Dr"}}, {"type": "Feature", "geometry": {"type": "Point", "coordinates": [-79.53080749511719, 43.69209671020508]}, "properties": {"stop_id": "7038", "stop_name": "Royal York Rd at Weston Wood Rd North Side"}}, {"type": "Feature", "geometry": {"type": "Point", "coordinates": [-79.54334259033203, 43.69792556762695]}, "properties": {"stop_id": "4983", "stop_name": "Dixon Rd at Havenridge Dr West Side"}}, {"type": "Feature", "geometry": {"type": "Point", "coordinates": [-79.50773620605469, 43.68938064575195]}, "properties": {"stop_id": "16010", "stop_name": "170 Emmett Ave - West Park Healthcare Centre - Main Entrance"}}, {"type": "Feature", "geometry": {"type": "Point", "coordinates": [-79.55064392089844, 43.6773681640625]}, "properties": {"stop_id": "2371", "stop_name": "Eglinton Ave West at Kipling Ave"}}, {"type": "Feature", "geometry": {"type": "Point", "coordinates": [-79.5308837890625, 43.6911735534668]}, "properties": {"stop_id": "14300", "stop_name": "1500 Royal York Rd - Royal York Plaza/Metro"}}, {"type": "Feature", "geometry": {"type": "Point", "coordinates": [-79.55362701416016, 43.68074417114258]}, "properties": {"stop_id": "14303", "stop_name": "105 Clement Rd - Richview Residence - Clement Building"}}, {"type": "Feature", "geometry": {"type": "Point", "coordinates": [-79.51124572753906, 43.68410110473633]}, "properties": {"stop_id": "2407", "stop_name": "Eglinton Ave West at Scarlett Rd"}}, {"type": "Feature", "geometry": {"type": "Point", "coordinates": [-79.53974151611328, 43.69872283935547]}, "properties": {"stop_id": "4982", "stop_name": "Dixon Rd at Golfwood Heights"}}, {"type": "Feature", "geometry": {"type": "Point", "coordinates": [-79.52812957763672, 43.6861572265625]}, "properties": {"stop_id": "7029", "stop_name": "Royal York Rd at Renault Cres North Side"}}, {"type": "Feature", "geometry": {"type": "Point", "coordinates": [-79.50813293457031, 43.684593200683594]}, "properties": {"stop_id": "11716", "stop_name": "Eglinton Ave West at Walkway to Emmett Ave"}}, {"type": "Feature", "geometry": {"type": "Point", "coordinates": [-79.54461669921875, 43.696266174316406]}, "properties": {"stop_id": "16009", "stop_name": "245 Dixon Rd - No Frills"}}, {"type": "Feature", "geometry": {"type": "Point", "coordinates": [-79.54130554199219, 43.68473815917969]}, "properties": {"stop_id": "3802", "stop_name": "Islington Ave at Holgate St"}}, {"type": "Feature", "geometry": {"type": "Point", "coordinates": [-79.52745819091797, 43.68643569946289]}, "properties": {"stop_id": "14307", "stop_name": "1447 Royal York Rd - Humbervale Residence"}}, {"type": "Feature", "geometry": {"type": "Point", "coordinates": [-79.54644012451172, 43.67963409423828]}, "properties": {"stop_id": "14301", "stop_name": "250 Wincott Dr - Richview Square Plaza (Rexall)"}}, {"type": "Feature", "geometry": {"type": "Point", "coordinates": [-79.54069519042969, 43.68328094482422]}, "properties": {"stop_id": "3846", "stop_name": "Islington Ave at Summitcrest Dr"}}, {"type": "Feature", "geometry": {"type": "Point", "coordinates": [-79.5392074584961, 43.67993927001953]}, "properties": {"stop_id": "3783", "stop_name": "Islington Ave at Eglinton Ave West"}}, {"type": "Feature", "geometry": {"type": "Point", "coordinates": [-79.55520629882812, 43.677730560302734]}, "properties": {"stop_id": "15273", "stop_name": "63 Widdicombe Hill Blvd - Huntingwood Place"}}, {"type": "Feature", "geometry": {"type": "Point", "coordinates": [-79.55599212646484, 43.67502975463867]}, "properties": {"stop_id": "14304", "stop_name": "201 Lloyd Manor Rd - Lloyd Manor Place/Metro"}}, {"type": "Feature", "geometry": {"type": "Point", "coordinates": [-79.52870178222656, 43.68747329711914]}, "properties": {"stop_id": "6979", "stop_name": "Royal York Rd at Chapman Rd"}}, {"type": "Feature", "geometry": {"type": "Point", "coordinates": [-79.52198028564453, 43.684993743896484]}, "properties": {"stop_id": "14299", "stop_name": "123 La Rose Ave - St Demetrius Seniors Residence"}}]}