{"type": "FeatureCollection", "features": [{"type": "Feature", "geometry": {"type": "Point", "coordinates": [-79.1976318359375, 43.75476837158203]}, "properties": {"stop_id": "16714", "stop_name": "130 Westlake Rd - Guildwood Station"}}, {"type": "Feature", "geometry": {"type": "Point", "coordinates": [-79.22000122070312, 43.77033996582031]}, "properties": {"stop_id": "16799", "stop_name": "Brimorton Dr at Jeffton Cres"}}, {"type": "Feature", "geometry": {"type": "Point", "coordinates": [-79.20299530029297, 43.746246337890625]}, "properties": {"stop_id": "2686", "stop_name": "Guildwood Pkwy at Prince Philip Blvd"}}, {"type": "Feature", "geometry": {"type": "Point", "coordinates": [-79.21454620361328, 43.755096435546875]}, "properties": {"stop_id": "16715", "stop_name": "452 Scarborough Golf Club Rd - Masaryktown Homes"}}, {"type": "Feature", "geometry": {"type": "Point", "coordinates": [-79.21757507324219, 43.76742935180664]}, "properties": {"stop_id": "11095", "stop_name": "Scarborough Golf Club Rd at Mossbank Dr"}}, {"type": "Feature", "geometry": {"type": "Point", "coordinates": [-79.23571014404297, 43.770790100097656]}, "properties": {"stop_id": "16803", "stop_name": "Brimorton Dr at Amberjack Blvd"}}, {"type": "Feature", "geometry": {"type": "Point", "coordinates": [-79.2174301147461, 43.7547607421875]}, "properties": {"stop_id": "16712", "stop_name": "450B Scarborough Golf Club Rd - Masaryktown Residences"}}, {"type": "Feature", "geometry": {"type": "Point", "coordinates": [-79.25130462646484, 43.77384567260742]}, "properties": {"stop_id": "16709", "stop_name": "1255 McCowan Rd - Freshco"}}, {"type": "Feature", "geometry": {"type": "Point", "coordinates": [-79.24850463867188, 43.76555633544922]}, "properties": {"stop_id": "16175", "stop_name": "Brimorton Dr at McCowan Rd"}}, {"type": "Feature", "geometry": {"type": "Point", "coordinates": [-79.20089721679688, 43.746734619140625]}, "properties": {"stop_id": "16713", "stop_name": "123 Guildwood Pkwy - Guildwood Village Shopping Centre"}}, {"type": "Feature", "geometry": {"type": "Point", "coordinates": [-79.25794219970703, 43.774322509765625]}, "properties": {"stop_id": "14769", "stop_name": "Scarborough Centre Station"}}, {"type": "Feature", "geometry": {"type": "Point", "coordinates": [-79.25859069824219, 43.77756881713867]}, "properties": {"stop_id": "16708", "stop_name": "Walmart Scarborough Town Centre"}}, {"type": "Feature", "geometry": {"type": "Point", "coordinates": [-79.2564697265625, 43.77288818359375]}, "properties": {"stop_id": "15723", "stop_name": "156 Borough Dr - Scarborough Civic Centre and Library"}}, {"type": "Feature", "geometry": {"type": "Point", "coordinates": [-79.23045349121094, 43.773616790771484]}, "properties": {"stop_id": "16165", "stop_name": "Brimorton Dr at Markham Rd"}}, {"type": "Feature", "geometry": {"type": "Point", "coordinates": [-79.24999237060547, 43.76841354370117]}, "properties": {"stop_id": "5671", "stop_name": "McCowan Rd at Huronia Gate"}}, {"type": "Feature", "geometry": {"type": "Point", "coordinates": [-79.21511840820312, 43.762542724609375]}, "properties": {"stop_id": "16710", "stop_name": "3750 Lawrence Ave East - Giant Tiger"}}, {"type": "Feature", "geometry": {"type": "Point", "coordinates": [-79.20486450195312, 43.749210357666016]}, "properties": {"stop_id": "11372", "stop_name": "Guildwood Pkwy at Kingston Rd"}}, {"type": "Feature", "geometry": {"type": "Point", "coordinates": [-79.2165298461914, 43.76483154296875]}, "properties": {"stop_id": "11094", "stop_name": "Scarborough Golf Club Rd at Chandler Dr"}}, {"type": "Feature", "geometry": {"type": "Point", "coordinates": [-79.23897552490234, 43.767581939697266]}, "properties": {"stop_id": "16169", "stop_name": "Brimorton Dr at Bellamy Rd N"}}, {"type": "Feature", "geometry": {"type": "Point", "coordinates": [-79.22382354736328, 43.77371597290039]}, "properties": {"stop_id": "16801", "stop_name": "Brimorton Dr at Gaitwin Pl West Side"}}, {"type": "Feature", "geometry": {"type": "Point", "coordinates": [-79.2069091796875, 43.757606506347656]}, "properties": {"stop_id": "16711", "stop_name": "225 Confederation Dr - Cedar Ridge Creative Centre"}}, {"type": "Feature", "geometry": {"type": "Point", "coordinates": [-79.21571350097656, 43.76249313354492]}, "properties": {"stop_id": "11093", "stop_name": "Scarborough Golf Club Rd at Lawrence Ave East North Side"}}]}