{"type": "FeatureCollection", "features": [{"type": "Feature", "geometry": {"type": "Point", "coordinates": [-79.28129577636719, 43.765995025634766]}, "properties": {"stop_id": "4080", "stop_name": "Kennedy Rd at Ellesmere Rd"}}, {"type": "Feature", "geometry": {"type": "Point", "coordinates": [-79.27381134033203, 43.746028900146484]}, "properties": {"stop_id": "4116", "stop_name": "Kennedy Rd at Radnor Ave"}}, {"type": "Feature", "geometry": {"type": "Point", "coordinates": [-79.27032470703125, 43.73767852783203]}, "properties": {"stop_id": "13696", "stop_name": "Kennedy Rd at Bertrand Ave"}}, {"type": "Feature", "geometry": {"type": "Point", "coordinates": [-79.27888488769531, 43.759483337402344]}, "properties": {"stop_id": "4103", "stop_name": "Kennedy Rd at Munham Gate"}}, {"type": "Feature", "geometry": {"type": "Point", "coordinates": [-79.29780578613281, 43.82011032104492]}, "properties": {"stop_id": "11252", "stop_name": "Passmore Ave at Silver Star Blvd"}}, {"type": "Feature", "geometry": {"type": "Point", "coordinates": [-79.29621887207031, 43.82337188720703]}, "properties": {"stop_id": "10530", "stop_name": "4150 Midland Ave"}}, {"type": "Feature", "geometry": {"type": "Point", "coordinates": [-79.29998779296875, 43.807613372802734]}, "properties": {"stop_id": "4065", "stop_name": "3008 Kennedy Rd"}}, {"type": "Feature", "geometry": {"type": "Point", "coordinates": [-79.29536437988281, 43.7991828918457]}, "properties": {"stop_id": "4099", "stop_name": "Kennedy Rd at Lovering Rd"}}, {"type": "Feature", "geometry": {"type": "Point", "coordinates": [-79.3006591796875, 43.80907440185547]}, "properties": {"stop_id": "10601", "stop_name": "Kennedy Rd at Perthshire St"}}, {"type": "Feature", "geometry": {"type": "Point", "coordinates": [-79.30178833007812, 43.81155776977539]}, "properties": {"stop_id": "4060", "stop_name": "Kennedy Rd at McNicoll Ave South Side"}}, {"type": "Feature", "geometry": {"type": "Point", "coordinates": [-79.26914978027344, 43.734683990478516]}, "properties": {"stop_id": "4093", "stop_name": "Kennedy Rd at Landseer Rd South Side"}}, {"type": "Feature", "geometry": {"type": "Point", "coordinates": [-79.28218841552734, 43.768714904785156]}, "properties": {"stop_id": "4087", "stop_name": "Kennedy Rd at Glamorgan Ave South Side"}}, {"type": "Feature", "geometry": {"type": "Point", "coordinates": [-79.29276275634766, 43.79317855834961]}, "properties": {"stop_id": "4097", "stop_name": "Kennedy Rd at Linwood Ave South Side"}}, {"type": "Feature", "geometry": {"type": "Point", "coordinates": [-79.28670501708984, 43.779544830322266]}, "properties": {"stop_id": "4110", "stop_name": "Kennedy Rd at Pently Cres South Side"}}, {"type": "Feature", "geometry": {"type": "Point", "coordinates": [-79.29695892333984, 43.80137252807617]}, "properties": {"stop_id": "4082", "stop_name": "Kennedy Rd at Finch Ave East"}}, {"type": "Feature", "geometry": {"type": "Point", "coordinates": [-79.29187774658203, 43.79118728637695]}, "properties": {"stop_id": "13342", "stop_name": "Kennedy Rd at Havendale Rd"}}, {"type": "Feature", "geometry": {"type": "Point", "coordinates": [-79.26712036132812, 43.73229217529297]}, "properties": {"stop_id": "3539", "stop_name": "Eglinton Ave East at Kennedy Station"}}, {"type": "Feature", "geometry": {"type": "Point", "coordinates": [-79.27129364013672, 43.739959716796875]}, "properties": {"stop_id": "4069", "stop_name": "900 Kennedy Rd"}}, {"type": "Feature", "geometry": {"type": "Point", "coordinates": [-79.26278686523438, 43.73186111450195]}, "properties": {"stop_id": "16394", "stop_name": "Kennedy Station - Platform B"}}, {"type": "Feature", "geometry": {"type": "Point", "coordinates": [-79.2779769897461, 43.75708770751953]}, "properties": {"stop_id": "4124", "stop_name": "Kennedy Rd at Shropshire Dr South Side"}}, {"type": "Feature", "geometry": {"type": "Point", "coordinates": [-79.27581787109375, 43.7515869140625]}, "properties": {"stop_id": "4076", "stop_name": "Kennedy Rd at Cornwallis Dr South Side"}}, {"type": "Feature", "geometry": {"type": "Point", "coordinates": [-79.27951049804688, 43.76097869873047]}, "properties": {"stop_id": "4072", "stop_name": "Kennedy Rd at Brigstock Rd South Side"}}, {"type": "Feature", "geometry": {"type": "Point", "coordinates": [-79.272216796875, 43.74220657348633]}, "properties": {"stop_id": "4118", "stop_name": "Kennedy Rd at Ranstone Gardens"}}, {"type": "Feature", "geometry": {"type": "Point", "coordinates": [-79.293701171875, 43.795257568359375]}, "properties": {"stop_id": "4091", "stop_name": "Kennedy Rd at Huntingwood Dr"}}, {"type": "Feature", "geometry": {"type": "Point", "coordinates": [-79.30370330810547, 43.818763732910156]}, "properties": {"stop_id": "11254", "stop_name": "Passmore Ave at Kennedy Rd"}}, {"type": "Feature", "geometry": {"type": "Point", "coordinates": [-79.26351165771484, 43.73222732543945]}, "properties": {"stop_id": "16453", "stop_name": "Kennedy Station Drop-off Platform"}}, {"type": "Feature", "geometry": {"type": "Point", "coordinates": [-79.28328704833984, 43.771331787109375]}, "properties": {"stop_id": "4062", "stop_name": "Kennedy Rd at Antrim Cres South Side"}}, {"type": "Feature", "geometry": {"type": "Point", "coordinates": [-79.29839324951172, 43.80406188964844]}, "properties": {"stop_id": "4131", "stop_name": "Kennedy Rd at Trojan Gate"}}, {"type": "Feature", "geometry": {"type": "Point", "coordinates": [-79.27478790283203, 43.74848937988281]}, "properties": {"stop_id": "4084", "stop_name": "Kennedy Rd at Flora Dr"}}, {"type": "Feature", "geometry": {"type": "Point", "coordinates": [-79.27647399902344, 43.75334548950195]}, "properties": {"stop_id": "4132", "stop_name": "Kennedy Rd at Wickware Gate"}}, {"type": "Feature", "geometry": {"type": "Point", "coordinates": [-79.28585815429688, 43.77738571166992]}, "properties": {"stop_id": "4128", "stop_name": "Kennedy Rd at Village Green Sq"}}, {"type": "Feature", "geometry": {"type": "Point", "coordinates": [-79.29039764404297, 43.78771209716797]}, "properties": {"stop_id": "16418", "stop_name": "Opposite 2423 Kennedy Rd"}}, {"type": "Feature", "geometry": {"type": "Point", "coordinates": [-79.28852844238281, 43.78342819213867]}, "properties": {"stop_id": "4122", "stop_name": "Kennedy Rd at Sheppard Ave East"}}, {"type": "Feature", "geometry": {"type": "Point", "coordinates": [-79.27719116210938, 43.755088806152344]}, "properties": {"stop_id": "4086", "stop_name": "Kennedy Rd at Forbes Rd South Side"}}, {"type": "Feature", "geometry": {"type": "Point", "coordinates": [-79.29715728759766, 43.82542419433594]}, "properties": {"stop_id": "11251", "stop_name": "Midland Ave at Steeles Ave East South Side"}}, {"type": "Feature", "geometry": {"type": "Point", "coordinates": [-79.27517700195312, 43.74969482421875]}, "properties": {"stop_id": "4096", "stop_name": "Kennedy Rd at Lawrence Ave East"}}, {"type": "Feature", "geometry": {"type": "Point", "coordinates": [-79.28759002685547, 43.78168487548828]}, "properties": {"stop_id": "4092", "stop_name": "Kennedy Rd at Jade St"}}, {"type": "Feature", "geometry": {"type": "Point", "coordinates": [-79.30025482177734, 43.819549560546875]}, "properties": {"stop_id": "11253", "stop_name": "Opposite 65 Passmore Ave"}}, {"type": "Feature", "geometry": {"type": "Point", "coordinates": [-79.29899597167969, 43.80540466308594]}, "properties": {"stop_id": "4078", "stop_name": "Kennedy Rd at Dancy Ave"}}, {"type": "Feature", "geometry": {"type": "Point", "coordinates": [-79.28014373779297, 43.76274490356445]}, "properties": {"stop_id": "4063", "stop_name": "1400 Kennedy Rd"}}, {"type": "Feature", "geometry": {"type": "Point", "coordinates": [-79.30243682861328, 43.81298828125]}, "properties": {"stop_id": "11558", "stop_name": "Kennedy Rd at McNicoll Ave"}}, {"type": "Feature", "geometry": {"type": "Point", "coordinates": [-79.30426025390625, 43.817073822021484]}, "properties": {"stop_id": "12197", "stop_name": "Kennedy Rd at Purcell Sq South Side"}}, {"type": "Feature", "geometry": {"type": "Point", "coordinates": [-79.29451751708984, 43.797279357910156]}, "properties": {"stop_id": "4105", "stop_name": "Kennedy Rd at Norcap Ave"}}, {"type": "Feature", "geometry": {"type": "Point", "coordinates": [-79.29518127441406, 43.820919036865234]}, "properties": {"stop_id": "5732", "stop_name": "Midland Ave at Passmore Ave"}}, {"type": "Feature", "geometry": {"type": "Point", "coordinates": [-79.28968048095703, 43.7858772277832]}, "properties": {"stop_id": "16414", "stop_name": "Kennedy Rd at Bonis Ave"}}, {"type": "Feature", "geometry": {"type": "Point", "coordinates": [-79.28057098388672, 43.76362609863281]}, "properties": {"stop_id": "4064", "stop_name": "1420 Kennedy Rd"}}]}