{"type": "FeatureCollection", "features": [{"type": "Feature", "geometry": {"type": "Point", "coordinates": [-79.5433349609375, 43.65971374511719]}, "properties": {"stop_id": "1486", "stop_name": "Rathburn Rd at Kipling Ave"}}, {"type": "Feature", "geometry": {"type": "Point", "coordinates": [-79.56343078613281, 43.674652099609375]}, "properties": {"stop_id": "5609", "stop_name": "Martin Grove Rd at Eglinton Ave West"}}, {"type": "Feature", "geometry": {"type": "Point", "coordinates": [-79.552490234375, 43.667320251464844]}, "properties": {"stop_id": "6003", "stop_name": "Princess Margaret Blvd at Lloyd Manor Rd"}}, {"type": "Feature", "geometry": {"type": "Point", "coordinates": [-79.58260345458984, 43.71680450439453]}, "properties": {"stop_id": "5634", "stop_name": "Martin Grove Rd at Racine Rd"}}, {"type": "Feature", "geometry": {"type": "Point", "coordinates": [-79.60028076171875, 43.75413131713867]}, "properties": {"stop_id": "9266", "stop_name": "Martin Grove Rd at Cabernet Cir"}}, {"type": "Feature", "geometry": {"type": "Point", "coordinates": [-79.53870391845703, 43.649147033691406]}, "properties": {"stop_id": "4315", "stop_name": "Kipling Ave at Goswell Rd"}}, {"type": "Feature", "geometry": {"type": "Point", "coordinates": [-79.59461212158203, 43.742431640625]}, "properties": {"stop_id": "5589", "stop_name": "Martin Grove Rd at Albion Rd"}}, {"type": "Feature", "geometry": {"type": "Point", "coordinates": [-79.53955841064453, 43.6511344909668]}, "properties": {"stop_id": "4295", "stop_name": "Kipling Ave at Burnhamthorpe Rd"}}, {"type": "Feature", "geometry": {"type": "Point", "coordinates": [-79.54978942871094, 43.66391372680664]}, "properties": {"stop_id": "5499", "stop_name": "Lloyd Manor Rd at North Heights Rd"}}, {"type": "Feature", "geometry": {"type": "Point", "coordinates": [-79.59950256347656, 43.75242233276367]}, "properties": {"stop_id": "5643", "stop_name": "Martin Grove Rd at Royalcrest Rd"}}, {"type": "Feature", "geometry": {"type": "Point", "coordinates": [-79.53557586669922, 43.641998291015625]}, "properties": {"stop_id": "16020", "stop_name": "Kipling Ave at Bloor St West"}}, {"type": "Feature", "geometry": {"type": "Point", "coordinates": [-79.546630859375, 43.659217834472656]}, "properties": {"stop_id": "5501", "stop_name": "Lloyd Manor Rd at Rathburn Rd"}}, {"type": "Feature", "geometry": {"type": "Point", "coordinates": [-79.57992553710938, 43.71112823486328]}, "properties": {"stop_id": "5618", "stop_name": "1330 Martin Grove Rd"}}, {"type": "Feature", "geometry": {"type": "Point", "coordinates": [-79.56089782714844, 43.669281005859375]}, "properties": {"stop_id": "5606", "stop_name": "Martin Grove Rd at Dewitt Rd"}}, {"type": "Feature", "geometry": {"type": "Point", "coordinates": [-79.56623840332031, 43.68094253540039]}, "properties": {"stop_id": "5626", "stop_name": "Martin Grove Rd at Longbourne Dr"}}, {"type": "Feature", "geometry": {"type": "Point", "coordinates": [-79.59552764892578, 43.74435806274414]}, "properties": {"stop_id": "5624", "stop_name": "Martin Grove Rd at Lexington Ave"}}, {"type": "Feature", "geometry": {"type": "Point", "coordinates": [-79.57586669921875, 43.70209503173828]}, "properties": {"stop_id": "5598", "stop_name": "Martin Grove Rd at Belfield Rd"}}, {"type": "Feature", "geometry": {"type": "Point", "coordinates": [-79.53487396240234, 43.6392822265625]}, "properties": {"stop_id": "12130", "stop_name": "West Service Rd at St Albans Rd"}}, {"type": "Feature", "geometry": {"type": "Point", "coordinates": [-79.56930541992188, 43.68783950805664]}, "properties": {"stop_id": "5654", "stop_name": "Martin Grove Rd at Waterbury Dr"}}, {"type": "Feature", "geometry": {"type": "Point", "coordinates": [-79.59141540527344, 43.73601531982422]}, "properties": {"stop_id": "5615", "stop_name": "Martin Grove Rd at Finch Ave West South Side"}}, {"type": "Feature", "geometry": {"type": "Point", "coordinates": [-79.5407943725586, 43.65401840209961]}, "properties": {"stop_id": "5134", "stop_name": "Kipling Ave at Wingrove Hill South Side"}}, {"type": "Feature", "geometry": {"type": "Point", "coordinates": [-79.59883880615234, 43.751075744628906]}, "properties": {"stop_id": "5647", "stop_name": "Martin Grove Rd at Silverstone Dr"}}, {"type": "Feature", "geometry": {"type": "Point", "coordinates": [-79.56555938720703, 43.679412841796875]}, "properties": {"stop_id": "5605", "stop_name": "Martin Grove Rd at Caverley Dr"}}, {"type": "Feature", "geometry": {"type": "Point", "coordinates": [-79.54216766357422, 43.65708541870117]}, "properties": {"stop_id": "4299", "stop_name": "Kipling Ave at Bywood Dr"}}, {"type": "Feature", "geometry": {"type": "Point", "coordinates": [-79.59789276123047, 43.74918746948242]}, "properties": {"stop_id": "5595", "stop_name": "Martin Grove Rd at Walkway to 308 Silverstone Dr"}}, {"type": "Feature", "geometry": {"type": "Point", "coordinates": [-79.57840728759766, 43.70764923095703]}, "properties": {"stop_id": "5600", "stop_name": "Martin Grove Rd at Bethridge Rd"}}, {"type": "Feature", "geometry": {"type": "Point", "coordinates": [-79.59296417236328, 43.73912811279297]}, "properties": {"stop_id": "15882", "stop_name": "Martin Grove Rd at Betteridge Lane"}}, {"type": "Feature", "geometry": {"type": "Point", "coordinates": [-79.53694915771484, 43.645111083984375]}, "properties": {"stop_id": "4383", "stop_name": "Kipling Ave at Tyre Ave"}}, {"type": "Feature", "geometry": {"type": "Point", "coordinates": [-79.57698822021484, 43.70460891723633]}, "properties": {"stop_id": "5651", "stop_name": "Martin Grove Rd at Vulcan St South Side"}}, {"type": "Feature", "geometry": {"type": "Point", "coordinates": [-79.58358001708984, 43.71888732910156]}, "properties": {"stop_id": "5623", "stop_name": "Martin Grove Rd at Jeffcoat Dr"}}, {"type": "Feature", "geometry": {"type": "Point", "coordinates": [-79.57328033447266, 43.69645309448242]}, "properties": {"stop_id": "5613", "stop_name": "Martin Grove Rd at Enterprise Rd South Side"}}, {"type": "Feature", "geometry": {"type": "Point", "coordinates": [-79.53777313232422, 43.64703369140625]}, "properties": {"stop_id": "13447", "stop_name": "Kipling Ave at Mattice Rd"}}, {"type": "Feature", "geometry": {"type": "Point", "coordinates": [-79.58113098144531, 43.71356964111328]}, "properties": {"stop_id": "5638", "stop_name": "Martin Grove Rd at Rexdale Blvd South Side"}}, {"type": "Feature", "geometry": {"type": "Point", "coordinates": [-79.55978393554688, 43.66682434082031]}, "properties": {"stop_id": "5644", "stop_name": "Martin Grove Rd at Sabine Rd"}}, {"type": "Feature", "geometry": {"type": "Point", "coordinates": [-79.58968353271484, 43.73222351074219]}, "properties": {"stop_id": "5621", "stop_name": "Martin Grove Rd at John Garland Blvd"}}, {"type": "Feature", "geometry": {"type": "Point", "coordinates": [-79.57501983642578, 43.70029067993164]}, "properties": {"stop_id": "5604", "stop_name": "1120 Martin Grove Rd @ Highway 409"}}, {"type": "Feature", "geometry": {"type": "Point", "coordinates": [-79.5673828125, 43.68347930908203]}, "properties": {"stop_id": "5637", "stop_name": "Martin Grove Rd at Redgrave Dr (North)"}}, {"type": "Feature", "geometry": {"type": "Point", "coordinates": [-79.58518981933594, 43.72229766845703]}, "properties": {"stop_id": "5632", "stop_name": "Martin Grove Rd at Porterfield Rd"}}, {"type": "Feature", "geometry": {"type": "Point", "coordinates": [-79.56877899169922, 43.68667984008789]}, "properties": {"stop_id": "5650", "stop_name": "Martin Grove Rd at Tollington Rd"}}, {"type": "Feature", "geometry": {"type": "Point", "coordinates": [-79.59635925292969, 43.746055603027344]}, "properties": {"stop_id": "5603", "stop_name": "Opposite 1915 Martin Grove Rd"}}, {"type": "Feature", "geometry": {"type": "Point", "coordinates": [-79.58873748779297, 43.730220794677734]}, "properties": {"stop_id": "5629", "stop_name": "Martin Grove Rd at Milkwood Ave"}}, {"type": "Feature", "geometry": {"type": "Point", "coordinates": [-79.59052276611328, 43.73411178588867]}, "properties": {"stop_id": "5636", "stop_name": "Martin Grove Rd at Rampart Rd"}}, {"type": "Feature", "geometry": {"type": "Point", "coordinates": [-79.57118225097656, 43.691856384277344]}, "properties": {"stop_id": "5608", "stop_name": "Martin Grove Rd at Dixon Rd"}}, {"type": "Feature", "geometry": {"type": "Point", "coordinates": [-79.55797576904297, 43.66633605957031]}, "properties": {"stop_id": "6002", "stop_name": "Princess Margaret Blvd at Dornoch Dr"}}, {"type": "Feature", "geometry": {"type": "Point", "coordinates": [-79.57203674316406, 43.6938362121582]}, "properties": {"stop_id": "5642", "stop_name": "Martin Grove Rd at Ronson Dr"}}, {"type": "Feature", "geometry": {"type": "Point", "coordinates": [-79.55094146728516, 43.665523529052734]}, "properties": {"stop_id": "5497", "stop_name": "Lloyd Manor Rd at Firwood Cres"}}, {"type": "Feature", "geometry": {"type": "Point", "coordinates": [-79.60350799560547, 43.757667541503906]}, "properties": {"stop_id": "9825", "stop_name": "Steeles Ave West at Martin Grove Rd"}}, {"type": "Feature", "geometry": {"type": "Point", "coordinates": [-79.56442260742188, 43.67692565917969]}, "properties": {"stop_id": "5640", "stop_name": "Martin Grove Rd at Richgrove Dr"}}, {"type": "Feature", "geometry": {"type": "Point", "coordinates": [-79.60183715820312, 43.75606155395508]}, "properties": {"stop_id": "9724", "stop_name": "Martin Grove Rd at Brunello Gate"}}, {"type": "Feature", "geometry": {"type": "Point", "coordinates": [-79.54776000976562, 43.6617431640625]}, "properties": {"stop_id": "5495", "stop_name": "Lloyd Manor Rd at Beaverbrook Ave"}}, {"type": "Feature", "geometry": {"type": "Point", "coordinates": [-79.5868911743164, 43.72611999511719]}, "properties": {"stop_id": "5627", "stop_name": "Martin Grove Rd at Mercury Rd"}}, {"type": "Feature", "geometry": {"type": "Point", "coordinates": [-79.53506469726562, 43.638084411621094]}, "properties": {"stop_id": "14723", "stop_name": "Kipling Station"}}, {"type": "Feature", "geometry": {"type": "Point", "coordinates": [-79.57274627685547, 43.69535827636719]}, "properties": {"stop_id": "5591", "stop_name": "1030 Martin Grove Rd"}}, {"type": "Feature", "geometry": {"type": "Point", "coordinates": [-79.60784149169922, 43.75666427612305]}, "properties": {"stop_id": "9824", "stop_name": "Steeles Ave West Loop at Martin Grove Rd"}}, {"type": "Feature", "geometry": {"type": "Point", "coordinates": [-79.56219482421875, 43.67206954956055]}, "properties": {"stop_id": "5630", "stop_name": "Martin Grove Rd at Nottinghill Gate South Side"}}]}