{"type": "FeatureCollection", "features": [{"type": "Feature", "geometry": {"type": "Point", "coordinates": [-79.60784149169922, 43.75666427612305]}, "properties": {"stop_id": "9824", "stop_name": "Steeles Ave West Loop at Martin Grove Rd"}}, {"type": "Feature", "geometry": {"type": "Point", "coordinates": [-79.59378814697266, 43.74149703979492]}, "properties": {"stop_id": "5590", "stop_name": "Martin Grove Rd at Albion Rd"}}, {"type": "Feature", "geometry": {"type": "Point", "coordinates": [-79.56597137451172, 43.681121826171875]}, "properties": {"stop_id": "5625", "stop_name": "Martin Grove Rd at Longbourne Dr North Side"}}, {"type": "Feature", "geometry": {"type": "Point", "coordinates": [-79.5492935180664, 43.663700103759766]}, "properties": {"stop_id": "5498", "stop_name": "Lloyd Manor Rd at North Heights Rd"}}, {"type": "Feature", "geometry": {"type": "Point", "coordinates": [-79.53506469726562, 43.638084411621094]}, "properties": {"stop_id": "14723", "stop_name": "Kipling Station"}}, {"type": "Feature", "geometry": {"type": "Point", "coordinates": [-79.5821762084961, 43.71660614013672]}, "properties": {"stop_id": "5633", "stop_name": "Martin Grove Rd at Racine Rd"}}, {"type": "Feature", "geometry": {"type": "Point", "coordinates": [-79.58478546142578, 43.722129821777344]}, "properties": {"stop_id": "5631", "stop_name": "Martin Grove Rd at Porterfield Rd"}}, {"type": "Feature", "geometry": {"type": "Point", "coordinates": [-79.5983657836914, 43.75080871582031]}, "properties": {"stop_id": "5646", "stop_name": "Martin Grove Rd at Silverstone Dr"}}, {"type": "Feature", "geometry": {"type": "Point", "coordinates": [-79.58646392822266, 43.725929260253906]}, "properties": {"stop_id": "5655", "stop_name": "Martin Grove Rd at Westhumber Blvd"}}, {"type": "Feature", "geometry": {"type": "Point", "coordinates": [-79.56893157958984, 43.68770217895508]}, "properties": {"stop_id": "5653", "stop_name": "Martin Grove Rd at Waterbury Dr"}}, {"type": "Feature", "geometry": {"type": "Point", "coordinates": [-79.56423950195312, 43.67732238769531]}, "properties": {"stop_id": "2865", "stop_name": "Martin Grove Rd at Richgrove Dr North Side"}}, {"type": "Feature", "geometry": {"type": "Point", "coordinates": [-79.54156494140625, 43.6564826965332]}, "properties": {"stop_id": "4298", "stop_name": "Kipling Ave at Bywood Dr"}}, {"type": "Feature", "geometry": {"type": "Point", "coordinates": [-79.5886001586914, 43.73067855834961]}, "properties": {"stop_id": "5628", "stop_name": "Martin Grove Rd at Milkwood Ave North Side"}}, {"type": "Feature", "geometry": {"type": "Point", "coordinates": [-79.5628433227539, 43.674217224121094]}, "properties": {"stop_id": "5612", "stop_name": "Martin Grove Rd at Eglinton Ave West"}}, {"type": "Feature", "geometry": {"type": "Point", "coordinates": [-79.59910583496094, 43.75224685668945]}, "properties": {"stop_id": "9258", "stop_name": "Martin Grove Rd at Royalcrest Rd"}}, {"type": "Feature", "geometry": {"type": "Point", "coordinates": [-79.53834533691406, 43.649051666259766]}, "properties": {"stop_id": "4314", "stop_name": "Kipling Ave at Goswell Rd"}}, {"type": "Feature", "geometry": {"type": "Point", "coordinates": [-79.599853515625, 43.7539176940918]}, "properties": {"stop_id": "9259", "stop_name": "Martin Grove Rd at Gihon Spring Dr"}}, {"type": "Feature", "geometry": {"type": "Point", "coordinates": [-79.54369354248047, 43.659828186035156]}, "properties": {"stop_id": "6010", "stop_name": "Rathburn Rd at Kipling Ave West Side"}}, {"type": "Feature", "geometry": {"type": "Point", "coordinates": [-79.57234954833984, 43.69511413574219]}, "properties": {"stop_id": "5596", "stop_name": "951 Martin Grove Rd"}}, {"type": "Feature", "geometry": {"type": "Point", "coordinates": [-79.57084655761719, 43.691959381103516]}, "properties": {"stop_id": "5607", "stop_name": "Martin Grove Rd at Dixon Rd North Side"}}, {"type": "Feature", "geometry": {"type": "Point", "coordinates": [-79.55093383789062, 43.66582489013672]}, "properties": {"stop_id": "5496", "stop_name": "Lloyd Manor Rd at Firwood Cres North Side"}}, {"type": "Feature", "geometry": {"type": "Point", "coordinates": [-79.57478332519531, 43.7004280090332]}, "properties": {"stop_id": "5592", "stop_name": "1051 Martin Grove Rd @ Highway 409"}}, {"type": "Feature", "geometry": {"type": "Point", "coordinates": [-79.57164764404297, 43.69364547729492]}, "properties": {"stop_id": "5641", "stop_name": "Martin Grove Rd at Ronson Dr"}}, {"type": "Feature", "geometry": {"type": "Point", "coordinates": [-79.56515502929688, 43.67928695678711]}, "properties": {"stop_id": "2866", "stop_name": "Martin Grove Rd at Sedgeley Dr"}}, {"type": "Feature", "geometry": {"type": "Point", "coordinates": [-79.57813262939453, 43.707847595214844]}, "properties": {"stop_id": "5599", "stop_name": "Martin Grove Rd at Bethridge Rd North Side"}}, {"type": "Feature", "geometry": {"type": "Point", "coordinates": [-79.59515380859375, 43.744232177734375]}, "properties": {"stop_id": "5617", "stop_name": "Martin Grove Rd at Garfella Dr"}}, {"type": "Feature", "geometry": {"type": "Point", "coordinates": [-79.54747772216797, 43.6615104675293]}, "properties": {"stop_id": "5494", "stop_name": "Lloyd Manor Rd at Beaverbrook Ave"}}, {"type": "Feature", "geometry": {"type": "Point", "coordinates": [-79.59140014648438, 43.73666763305664]}, "properties": {"stop_id": "5616", "stop_name": "Martin Grove Rd at Finch Ave West"}}, {"type": "Feature", "geometry": {"type": "Point", "coordinates": [-79.5521011352539, 43.66743469238281]}, "properties": {"stop_id": "5500", "stop_name": "Lloyd Manor Rd at Princess Margaret Blvd"}}, {"type": "Feature", "geometry": {"type": "Point", "coordinates": [-79.5927505493164, 43.73920822143555]}, "properties": {"stop_id": "15883", "stop_name": "Martin Grove Rd at Betteridge Lane North Side"}}, {"type": "Feature", "geometry": {"type": "Point", "coordinates": [-79.53740692138672, 43.64689254760742]}, "properties": {"stop_id": "4338", "stop_name": "Kipling Ave at Mattice Rd"}}, {"type": "Feature", "geometry": {"type": "Point", "coordinates": [-79.5592269897461, 43.666419982910156]}, "properties": {"stop_id": "6004", "stop_name": "Princess Margaret Blvd at Martin Grove Rd"}}, {"type": "Feature", "geometry": {"type": "Point", "coordinates": [-79.57530212402344, 43.70170211791992]}, "properties": {"stop_id": "5597", "stop_name": "Martin Grove Rd at Belfield Rd"}}, {"type": "Feature", "geometry": {"type": "Point", "coordinates": [-79.5619888305664, 43.67230987548828]}, "properties": {"stop_id": "5657", "stop_name": "Martin Grove Rd at Winterton Dr"}}, {"type": "Feature", "geometry": {"type": "Point", "coordinates": [-79.57681274414062, 43.704925537109375]}, "properties": {"stop_id": "5652", "stop_name": "Martin Grove Rd at Vulcan St"}}, {"type": "Feature", "geometry": {"type": "Point", "coordinates": [-79.60443878173828, 43.75772476196289]}, "properties": {"stop_id": "9835", "stop_name": "Steeles Ave West at Martin Grove Rd West Side"}}, {"type": "Feature", "geometry": {"type": "Point", "coordinates": [-79.56844329833984, 43.686561584472656]}, "properties": {"stop_id": "5649", "stop_name": "Martin Grove Rd at Tollington Rd"}}, {"type": "Feature", "geometry": {"type": "Point", "coordinates": [-79.54637145996094, 43.659202575683594]}, "properties": {"stop_id": "6011", "stop_name": "Rathburn Rd at Lloyd Manor Rd"}}, {"type": "Feature", "geometry": {"type": "Point", "coordinates": [-79.59012603759766, 43.733943939208984]}, "properties": {"stop_id": "5635", "stop_name": "Martin Grove Rd at Rampart Rd"}}, {"type": "Feature", "geometry": {"type": "Point", "coordinates": [-79.5406494140625, 43.654293060302734]}, "properties": {"stop_id": "4391", "stop_name": "Kipling Ave at Wingrove Hill"}}, {"type": "Feature", "geometry": {"type": "Point", "coordinates": [-79.56060791015625, 43.66902160644531]}, "properties": {"stop_id": "14849", "stop_name": "Martin Grove Rd at Dewitt Rd"}}, {"type": "Feature", "geometry": {"type": "Point", "coordinates": [-79.58316802978516, 43.71870422363281]}, "properties": {"stop_id": "5622", "stop_name": "Martin Grove Rd at Jeffcoat Dr"}}, {"type": "Feature", "geometry": {"type": "Point", "coordinates": [-79.57960510253906, 43.710994720458984]}, "properties": {"stop_id": "5593", "stop_name": "1245 Martin Grove Rd"}}, {"type": "Feature", "geometry": {"type": "Point", "coordinates": [-79.56314849853516, 43.67490768432617]}, "properties": {"stop_id": "5610", "stop_name": "Martin Grove Rd at Eglinton Ave West North Side"}}, {"type": "Feature", "geometry": {"type": "Point", "coordinates": [-79.58916473388672, 43.73191833496094]}, "properties": {"stop_id": "5620", "stop_name": "Martin Grove Rd at John Garland Blvd"}}, {"type": "Feature", "geometry": {"type": "Point", "coordinates": [-79.60150146484375, 43.7559928894043]}, "properties": {"stop_id": "9726", "stop_name": "Martin Grove Rd at Brunello Gate"}}, {"type": "Feature", "geometry": {"type": "Point", "coordinates": [-79.53910064697266, 43.65077590942383]}, "properties": {"stop_id": "4294", "stop_name": "Kipling Ave at Burnhamthorpe Rd"}}, {"type": "Feature", "geometry": {"type": "Point", "coordinates": [-79.58076477050781, 43.71359634399414]}, "properties": {"stop_id": "5639", "stop_name": "Martin Grove Rd at Rexdale Blvd"}}, {"type": "Feature", "geometry": {"type": "Point", "coordinates": [-79.59617614746094, 43.74630355834961]}, "properties": {"stop_id": "5602", "stop_name": "1915 Martin Grove Rd"}}, {"type": "Feature", "geometry": {"type": "Point", "coordinates": [-79.5728988647461, 43.6963996887207]}, "properties": {"stop_id": "5614", "stop_name": "Martin Grove Rd at Enterprise Rd"}}, {"type": "Feature", "geometry": {"type": "Point", "coordinates": [-79.5567855834961, 43.66627502441406]}, "properties": {"stop_id": "6001", "stop_name": "Princess Margaret Blvd at Cramond Crt"}}, {"type": "Feature", "geometry": {"type": "Point", "coordinates": [-79.59725189208984, 43.74848556518555]}, "properties": {"stop_id": "5648", "stop_name": "Martin Grove Rd at Smithfield Park"}}, {"type": "Feature", "geometry": {"type": "Point", "coordinates": [-79.5354232788086, 43.642303466796875]}, "properties": {"stop_id": "4291", "stop_name": "Kipling Ave at Bloor St West North Side"}}, {"type": "Feature", "geometry": {"type": "Point", "coordinates": [-79.56690979003906, 43.68318176269531]}, "properties": {"stop_id": "5656", "stop_name": "Martin Grove Rd at The Westway"}}, {"type": "Feature", "geometry": {"type": "Point", "coordinates": [-79.53657531738281, 43.64501190185547]}, "properties": {"stop_id": "4382", "stop_name": "Kipling Ave at Tyre Ave"}}]}