{"type": "FeatureCollection", "features": [{"type": "Feature", "geometry": {"type": "Point", "coordinates": [-79.51103973388672, 43.64828109741211]}, "properties": {"stop_id": "14752", "stop_name": "Royal York Station"}}, {"type": "Feature", "geometry": {"type": "Point", "coordinates": [-79.54652404785156, 43.65899658203125]}, "properties": {"stop_id": "1481", "stop_name": "Rathburn Rd at Haliburton Ave"}}, {"type": "Feature", "geometry": {"type": "Point", "coordinates": [-79.58158111572266, 43.65060043334961]}, "properties": {"stop_id": "1500", "stop_name": "Opposite 580 Rathburn Rd - Seneca School"}}, {"type": "Feature", "geometry": {"type": "Point", "coordinates": [-79.53199005126953, 43.66215133666992]}, "properties": {"stop_id": "1483", "stop_name": "Rathburn Rd at Islington Ave"}}, {"type": "Feature", "geometry": {"type": "Point", "coordinates": [-79.52899169921875, 43.664573669433594]}, "properties": {"stop_id": "18", "stop_name": "Anglesey Blvd at Wimbleton Rd East Side"}}, {"type": "Feature", "geometry": {"type": "Point", "coordinates": [-79.53925323486328, 43.66061019897461]}, "properties": {"stop_id": "1497", "stop_name": "Rathburn Rd at Remington Dr"}}, {"type": "Feature", "geometry": {"type": "Point", "coordinates": [-79.52179718017578, 43.663795471191406]}, "properties": {"stop_id": "12", "stop_name": "Anglesey Blvd at The Kingsway"}}, {"type": "Feature", "geometry": {"type": "Point", "coordinates": [-79.51602172851562, 43.65739822387695]}, "properties": {"stop_id": "1512", "stop_name": "Royal York Rd at Dundas St West South Side"}}, {"type": "Feature", "geometry": {"type": "Point", "coordinates": [-79.53356170654297, 43.6618537902832]}, "properties": {"stop_id": "1469", "stop_name": "Rathburn Rd at Birchcroft Rd"}}, {"type": "Feature", "geometry": {"type": "Point", "coordinates": [-79.5433349609375, 43.65971374511719]}, "properties": {"stop_id": "1486", "stop_name": "Rathburn Rd at Kipling Ave"}}, {"type": "Feature", "geometry": {"type": "Point", "coordinates": [-79.54922485351562, 43.65837478637695]}, "properties": {"stop_id": "1474", "stop_name": "Rathburn Rd at Edenwood Dr"}}, {"type": "Feature", "geometry": {"type": "Point", "coordinates": [-79.58697509765625, 43.64736557006836]}, "properties": {"stop_id": "1476", "stop_name": "Rathburn Rd at Elmcrest Rd"}}, {"type": "Feature", "geometry": {"type": "Point", "coordinates": [-79.5553970336914, 43.656925201416016]}, "properties": {"stop_id": "1491", "stop_name": "Rathburn Rd at Martin Grove Rd"}}, {"type": "Feature", "geometry": {"type": "Point", "coordinates": [-79.53170013427734, 43.66386032104492]}, "properties": {"stop_id": "1162", "stop_name": "Islington Ave at Anglesey Blvd"}}, {"type": "Feature", "geometry": {"type": "Point", "coordinates": [-79.57969665527344, 43.651222229003906]}, "properties": {"stop_id": "1499", "stop_name": "Rathburn Rd at Renforth Dr"}}, {"type": "Feature", "geometry": {"type": "Point", "coordinates": [-79.57279205322266, 43.65283966064453]}, "properties": {"stop_id": "1504", "stop_name": "Rathburn Rd at The West Mall"}}, {"type": "Feature", "geometry": {"type": "Point", "coordinates": [-79.52437591552734, 43.66310119628906]}, "properties": {"stop_id": "14", "stop_name": "Anglesey Blvd at Pinehurst Cres East Side"}}, {"type": "Feature", "geometry": {"type": "Point", "coordinates": [-79.55872344970703, 43.65615463256836]}, "properties": {"stop_id": "1478", "stop_name": "Rathburn Rd at Walkway to Alanmeade Cres"}}, {"type": "Feature", "geometry": {"type": "Point", "coordinates": [-79.5179672241211, 43.661922454833984]}, "properties": {"stop_id": "15958", "stop_name": "1161 Royal York Rd"}}, {"type": "Feature", "geometry": {"type": "Point", "coordinates": [-79.57483673095703, 43.65241622924805]}, "properties": {"stop_id": "15542", "stop_name": "475 Rathburn Rd"}}, {"type": "Feature", "geometry": {"type": "Point", "coordinates": [-79.53577423095703, 43.661376953125]}, "properties": {"stop_id": "1470", "stop_name": "Rathburn Rd at Cedarland Dr"}}, {"type": "Feature", "geometry": {"type": "Point", "coordinates": [-79.58076477050781, 43.63682174682617]}, "properties": {"stop_id": "1340", "stop_name": "Mill Rd at Markland Dr North Side - Silverthorne C.I."}}, {"type": "Feature", "geometry": {"type": "Point", "coordinates": [-79.51429748535156, 43.65386199951172]}, "properties": {"stop_id": "1516", "stop_name": "Royal York Rd at Kingsgrove Blvd"}}, {"type": "Feature", "geometry": {"type": "Point", "coordinates": [-79.51982116699219, 43.66577911376953]}, "properties": {"stop_id": "17", "stop_name": "Anglesey Blvd at Royal York Rd"}}, {"type": "Feature", "geometry": {"type": "Point", "coordinates": [-79.51323699951172, 43.651466369628906]}, "properties": {"stop_id": "1517", "stop_name": "Royal York Rd at Lynngrove Ave"}}, {"type": "Feature", "geometry": {"type": "Point", "coordinates": [-79.56367492675781, 43.65500259399414]}, "properties": {"stop_id": "1472", "stop_name": "Rathburn Rd at The East Mall East Side"}}, {"type": "Feature", "geometry": {"type": "Point", "coordinates": [-79.51860809326172, 43.6634521484375]}, "properties": {"stop_id": "6974", "stop_name": "Royal York Rd at Ashley Rd"}}, {"type": "Feature", "geometry": {"type": "Point", "coordinates": [-79.51268768310547, 43.65022659301758]}, "properties": {"stop_id": "1514", "stop_name": "Royal York Rd at King Georges Rd"}}, {"type": "Feature", "geometry": {"type": "Point", "coordinates": [-79.5827865600586, 43.649837493896484]}, "properties": {"stop_id": "1493", "stop_name": "Rathburn Rd at Melbert Rd"}}]}