{"type": "FeatureCollection", "features": [{"type": "Feature", "geometry": {"type": "Point", "coordinates": [-79.56607055664062, 43.63461685180664]}, "properties": {"stop_id": "534", "stop_name": "Bloor St West at Koos Rd"}}, {"type": "Feature", "geometry": {"type": "Point", "coordinates": [-79.58031463623047, 43.63621520996094]}, "properties": {"stop_id": "1272", "stop_name": "Markland Dr at Mill Rd"}}, {"type": "Feature", "geometry": {"type": "Point", "coordinates": [-79.57708740234375, 43.63406753540039]}, "properties": {"stop_id": "1348", "stop_name": "Mill Rd at Toledo Rd"}}, {"type": "Feature", "geometry": {"type": "Point", "coordinates": [-79.54045104980469, 43.64014434814453]}, "properties": {"stop_id": "1200", "stop_name": "Aukland Rd at Bloor St West South Side"}}, {"type": "Feature", "geometry": {"type": "Point", "coordinates": [-79.54194641113281, 43.640220642089844]}, "properties": {"stop_id": "488", "stop_name": "Bloor St West at Acorn Ave"}}, {"type": "Feature", "geometry": {"type": "Point", "coordinates": [-79.55680847167969, 43.636749267578125]}, "properties": {"stop_id": "510", "stop_name": "Bloor St West at The East Mall"}}, {"type": "Feature", "geometry": {"type": "Point", "coordinates": [-79.57296752929688, 43.632850646972656]}, "properties": {"stop_id": "513", "stop_name": "Bloor St West at Forest View Rd East Side"}}, {"type": "Feature", "geometry": {"type": "Point", "coordinates": [-79.53836822509766, 43.638580322265625]}, "properties": {"stop_id": "1203", "stop_name": "Aukland Rd at Dundas St West"}}, {"type": "Feature", "geometry": {"type": "Point", "coordinates": [-79.57457733154297, 43.632171630859375]}, "properties": {"stop_id": "550", "stop_name": "Bloor St West at Mill Rd East Side"}}, {"type": "Feature", "geometry": {"type": "Point", "coordinates": [-79.53550720214844, 43.637718200683594]}, "properties": {"stop_id": "14720", "stop_name": "Kipling Station"}}, {"type": "Feature", "geometry": {"type": "Point", "coordinates": [-79.57030487060547, 43.63359832763672]}, "properties": {"stop_id": "546", "stop_name": "Bloor St West at Markland Dr (East) East Side"}}, {"type": "Feature", "geometry": {"type": "Point", "coordinates": [-79.54457092285156, 43.63961410522461]}, "properties": {"stop_id": "597", "stop_name": "Bloor St West at Wilmar Rd"}}, {"type": "Feature", "geometry": {"type": "Point", "coordinates": [-79.58024597167969, 43.62966537475586]}, "properties": {"stop_id": "1269", "stop_name": "Markland Dr (West) at Bloor St West North Side"}}, {"type": "Feature", "geometry": {"type": "Point", "coordinates": [-79.58267211914062, 43.63313674926758]}, "properties": {"stop_id": "1271", "stop_name": "Markland Dr at Cherry Post Cres (North)"}}, {"type": "Feature", "geometry": {"type": "Point", "coordinates": [-79.55210876464844, 43.63788604736328]}, "properties": {"stop_id": "594", "stop_name": "Bloor St West at Tremont Rd East Side"}}, {"type": "Feature", "geometry": {"type": "Point", "coordinates": [-79.54742431640625, 43.63896179199219]}, "properties": {"stop_id": "581", "stop_name": "Bloor St West at Shaver Ave South East Side"}}, {"type": "Feature", "geometry": {"type": "Point", "coordinates": [-79.58145141601562, 43.63468551635742]}, "properties": {"stop_id": "1274", "stop_name": "Markland Dr at Silverthorne Bush Dr"}}, {"type": "Feature", "geometry": {"type": "Point", "coordinates": [-79.56269073486328, 43.63541030883789]}, "properties": {"stop_id": "595", "stop_name": "Bloor St West at The West Mall"}}]}