{"type": "FeatureCollection", "features": [{"type": "Feature", "geometry": {"type": "Point", "coordinates": [-79.48340606689453, 43.6203727722168]}, "properties": {"stop_id": "5185", "stop_name": "Lake Shore Blvd West at Legion Rd"}}, {"type": "Feature", "geometry": {"type": "Point", "coordinates": [-79.37725830078125, 43.64923095703125]}, "properties": {"stop_id": "15638", "stop_name": "King St West at Yonge St East Side - King Station"}}, {"type": "Feature", "geometry": {"type": "Point", "coordinates": [-79.40536499023438, 43.64329528808594]}, "properties": {"stop_id": "4189", "stop_name": "King St West at Tecumseth St"}}, {"type": "Feature", "geometry": {"type": "Point", "coordinates": [-79.52770233154297, 43.59568405151367]}, "properties": {"stop_id": "5160", "stop_name": "Lake Shore Blvd West at Twenty Eighth St"}}, {"type": "Feature", "geometry": {"type": "Point", "coordinates": [-79.50311279296875, 43.60115051269531]}, "properties": {"stop_id": "5170", "stop_name": "Lake Shore Blvd West at Fifth St"}}, {"type": "Feature", "geometry": {"type": "Point", "coordinates": [-79.438720703125, 43.63655090332031]}, "properties": {"stop_id": "4164", "stop_name": "King St West at Dowling Ave"}}, {"type": "Feature", "geometry": {"type": "Point", "coordinates": [-79.45863342285156, 43.639564514160156]}, "properties": {"stop_id": "14280", "stop_name": "The Queensway at Colborne Lodge Dr East Side"}}, {"type": "Feature", "geometry": {"type": "Point", "coordinates": [-79.35809326171875, 43.65283966064453]}, "properties": {"stop_id": "15461", "stop_name": "Cherry St at Front St East"}}, {"type": "Feature", "geometry": {"type": "Point", "coordinates": [-79.50879669189453, 43.599876403808594]}, "properties": {"stop_id": "5150", "stop_name": "Lake Shore Blvd West at Tenth St"}}, {"type": "Feature", "geometry": {"type": "Point", "coordinates": [-79.4872817993164, 43.617149353027344]}, "properties": {"stop_id": "5173", "stop_name": "Lake Shore Blvd West at Burlington St"}}, {"type": "Feature", "geometry": {"type": "Point", "coordinates": [-79.53041076660156, 43.59515380859375]}, "properties": {"stop_id": "5163", "stop_name": "Lake Shore Blvd West at Thirty First St"}}, {"type": "Feature", "geometry": {"type": "Point", "coordinates": [-79.36337280273438, 43.652557373046875]}, "properties": {"stop_id": "4140", "stop_name": "King St East at Parliament St"}}, {"type": "Feature", "geometry": {"type": "Point", "coordinates": [-79.36837005615234, 43.65116882324219]}, "properties": {"stop_id": "4145", "stop_name": "King St East at Sherbourne St"}}, {"type": "Feature", "geometry": {"type": "Point", "coordinates": [-79.48995208740234, 43.61082077026367]}, "properties": {"stop_id": "15720", "stop_name": "Lake Shore Blvd West at Norris Cres"}}, {"type": "Feature", "geometry": {"type": "Point", "coordinates": [-79.47850799560547, 43.631195068359375]}, "properties": {"stop_id": "5506", "stop_name": "Humber Loop at The Queensway"}}, {"type": "Feature", "geometry": {"type": "Point", "coordinates": [-79.4459228515625, 43.63835525512695]}, "properties": {"stop_id": "16452", "stop_name": "King St West at The Queensway"}}, {"type": "Feature", "geometry": {"type": "Point", "coordinates": [-79.36616516113281, 43.65164566040039]}, "properties": {"stop_id": "15352", "stop_name": "King St East at Ontario St"}}, {"type": "Feature", "geometry": {"type": "Point", "coordinates": [-79.37128448486328, 43.65053939819336]}, "properties": {"stop_id": "15636", "stop_name": "King St West at Jarvis St East Side"}}, {"type": "Feature", "geometry": {"type": "Point", "coordinates": [-79.37962341308594, 43.64872360229492]}, "properties": {"stop_id": "15640", "stop_name": "King St West at Bay St East Side"}}, {"type": "Feature", "geometry": {"type": "Point", "coordinates": [-79.4333724975586, 43.63764572143555]}, "properties": {"stop_id": "4168", "stop_name": "King St West at Dunn Ave"}}, {"type": "Feature", "geometry": {"type": "Point", "coordinates": [-79.38926696777344, 43.64661407470703]}, "properties": {"stop_id": "15644", "stop_name": "King St West at John St East Side"}}, {"type": "Feature", "geometry": {"type": "Point", "coordinates": [-79.49858856201172, 43.60213851928711]}, "properties": {"stop_id": "13946", "stop_name": "Lake Shore Blvd West at First St"}}, {"type": "Feature", "geometry": {"type": "Point", "coordinates": [-79.41748046875, 43.64085388183594]}, "properties": {"stop_id": "13344", "stop_name": "King St West at Sudbury St"}}, {"type": "Feature", "geometry": {"type": "Point", "coordinates": [-79.39164733886719, 43.64610290527344]}, "properties": {"stop_id": "15646", "stop_name": "King St West at Blue Jays Way East Side"}}, {"type": "Feature", "geometry": {"type": "Point", "coordinates": [-79.54412078857422, 43.59181213378906]}, "properties": {"stop_id": "5511", "stop_name": "Long Branch Loop"}}, {"type": "Feature", "geometry": {"type": "Point", "coordinates": [-79.46568298339844, 43.6379280090332]}, "properties": {"stop_id": "14281", "stop_name": "The Queensway at Ellis Ave East Side"}}, {"type": "Feature", "geometry": {"type": "Point", "coordinates": [-79.41521453857422, 43.64130783081055]}, "properties": {"stop_id": "4162", "stop_name": "King St West at Shaw St"}}, {"type": "Feature", "geometry": {"type": "Point", "coordinates": [-79.52141571044922, 43.59711456298828]}, "properties": {"stop_id": "5157", "stop_name": "Lake Shore Blvd West at Twenty Second St"}}, {"type": "Feature", "geometry": {"type": "Point", "coordinates": [-79.3836898803711, 43.64780807495117]}, "properties": {"stop_id": "15642", "stop_name": "King St West at York St - St Andrew Station"}}, {"type": "Feature", "geometry": {"type": "Point", "coordinates": [-79.45392608642578, 43.63966369628906]}, "properties": {"stop_id": "6908", "stop_name": "The Queensway at Parkside Dr"}}, {"type": "Feature", "geometry": {"type": "Point", "coordinates": [-79.41209411621094, 43.641937255859375]}, "properties": {"stop_id": "4187", "stop_name": "King St West at Strachan Ave"}}, {"type": "Feature", "geometry": {"type": "Point", "coordinates": [-79.427490234375, 43.63882064819336]}, "properties": {"stop_id": "4167", "stop_name": "King St West at Dufferin St"}}, {"type": "Feature", "geometry": {"type": "Point", "coordinates": [-79.51718139648438, 43.598045349121094]}, "properties": {"stop_id": "5182", "stop_name": "Lake Shore Blvd West at Colonel Samuel Smith Park Dr"}}, {"type": "Feature", "geometry": {"type": "Point", "coordinates": [-79.48130798339844, 43.622779846191406]}, "properties": {"stop_id": "5195", "stop_name": "Lake Shore Blvd West at Park Lawn Rd"}}, {"type": "Feature", "geometry": {"type": "Point", "coordinates": [-79.42141723632812, 43.640052795410156]}, "properties": {"stop_id": "4155", "stop_name": "King St West at Atlantic Ave"}}, {"type": "Feature", "geometry": {"type": "Point", "coordinates": [-79.40181732177734, 43.64398956298828]}, "properties": {"stop_id": "15650", "stop_name": "King St West at Bathurst St East Side"}}, {"type": "Feature", "geometry": {"type": "Point", "coordinates": [-79.48931121826172, 43.61354064941406]}, "properties": {"stop_id": "5192", "stop_name": "Lake Shore Blvd West at Mimico Ave"}}, {"type": "Feature", "geometry": {"type": "Point", "coordinates": [-79.43621826171875, 43.63707733154297]}, "properties": {"stop_id": "4173", "stop_name": "King St West at Jameson Ave"}}, {"type": "Feature", "geometry": {"type": "Point", "coordinates": [-79.49024200439453, 43.608192443847656]}, "properties": {"stop_id": "15721", "stop_name": "Lake Shore Blvd West at Miles Rd"}}, {"type": "Feature", "geometry": {"type": "Point", "coordinates": [-79.53834533691406, 43.59333419799805]}, "properties": {"stop_id": "5164", "stop_name": "Lake Shore Blvd West at Thirty Seventh St"}}, {"type": "Feature", "geometry": {"type": "Point", "coordinates": [-79.48861694335938, 43.61481857299805]}, "properties": {"stop_id": "5201", "stop_name": "Lake Shore Blvd West at Superior Ave"}}, {"type": "Feature", "geometry": {"type": "Point", "coordinates": [-79.46920776367188, 43.63725662231445]}, "properties": {"stop_id": "14282", "stop_name": "The Queensway at Windermere Ave East Side"}}, {"type": "Feature", "geometry": {"type": "Point", "coordinates": [-79.4931869506836, 43.60354232788086]}, "properties": {"stop_id": "15722", "stop_name": "Lake Shore Blvd West at Royal York Rd"}}, {"type": "Feature", "geometry": {"type": "Point", "coordinates": [-79.36038208007812, 43.654300689697266]}, "properties": {"stop_id": "4143", "stop_name": "King St East at Sackville St"}}, {"type": "Feature", "geometry": {"type": "Point", "coordinates": [-79.48646545410156, 43.6187858581543]}, "properties": {"stop_id": "5189", "stop_name": "Lake Shore Blvd West at Louisa St"}}, {"type": "Feature", "geometry": {"type": "Point", "coordinates": [-79.39429473876953, 43.6455078125]}, "properties": {"stop_id": "15648", "stop_name": "King St West at Spadina Ave East Side"}}, {"type": "Feature", "geometry": {"type": "Point", "coordinates": [-79.52503967285156, 43.59632873535156]}, "properties": {"stop_id": "5159", "stop_name": "Lake Shore Blvd West at Twenty Seventh St"}}, {"type": "Feature", "geometry": {"type": "Point", "coordinates": [-79.35681915283203, 43.650856018066406]}, "properties": {"stop_id": "15462", "stop_name": "Distillery Loop"}}, {"type": "Feature", "geometry": {"type": "Point", "coordinates": [-79.45077514648438, 43.63916778564453]}, "properties": {"stop_id": "6888", "stop_name": "The Queensway at Glendale Ave East Side - St Joseph's Health Centre"}}, {"type": "Feature", "geometry": {"type": "Point", "coordinates": [-79.43099975585938, 43.63813400268555]}, "properties": {"stop_id": "4186", "stop_name": "King St West at Spencer Ave"}}, {"type": "Feature", "geometry": {"type": "Point", "coordinates": [-79.40776062011719, 43.6428108215332]}, "properties": {"stop_id": "4178", "stop_name": "King St West at Niagara St"}}, {"type": "Feature", "geometry": {"type": "Point", "coordinates": [-79.44245147705078, 43.63693618774414]}, "properties": {"stop_id": "4194", "stop_name": "King St West at Wilson Park Rd"}}, {"type": "Feature", "geometry": {"type": "Point", "coordinates": [-79.53412628173828, 43.594303131103516]}, "properties": {"stop_id": "5187", "stop_name": "Lake Shore Blvd West at Long Branch Ave"}}, {"type": "Feature", "geometry": {"type": "Point", "coordinates": [-79.47974395751953, 43.62570571899414]}, "properties": {"stop_id": "5175", "stop_name": "2155 Lake Shore Blvd West"}}, {"type": "Feature", "geometry": {"type": "Point", "coordinates": [-79.35870361328125, 43.65528106689453]}, "properties": {"stop_id": "4148", "stop_name": "King St East at Sumach St"}}, {"type": "Feature", "geometry": {"type": "Point", "coordinates": [-79.47305297851562, 43.63581848144531]}, "properties": {"stop_id": "6916", "stop_name": "The Queensway at South Kingsway"}}, {"type": "Feature", "geometry": {"type": "Point", "coordinates": [-79.5053939819336, 43.60063934326172]}, "properties": {"stop_id": "5172", "stop_name": "Lake Shore Blvd West at Seventh St"}}, {"type": "Feature", "geometry": {"type": "Point", "coordinates": [-79.511962890625, 43.599212646484375]}, "properties": {"stop_id": "5152", "stop_name": "Lake Shore Blvd West at Thirteenth St"}}, {"type": "Feature", "geometry": {"type": "Point", "coordinates": [-79.50086975097656, 43.601654052734375]}, "properties": {"stop_id": "5167", "stop_name": "Lake Shore Blvd West at Third St"}}, {"type": "Feature", "geometry": {"type": "Point", "coordinates": [-79.39950561523438, 43.64445877075195]}, "properties": {"stop_id": "15649", "stop_name": "King St West at Portland St East Side"}}, {"type": "Feature", "geometry": {"type": "Point", "coordinates": [-79.4781494140625, 43.629066467285156]}, "properties": {"stop_id": "5199", "stop_name": "2111 Lake Shore Blvd West"}}, {"type": "Feature", "geometry": {"type": "Point", "coordinates": [-79.37382507324219, 43.64998245239258]}, "properties": {"stop_id": "12537", "stop_name": "King St East at Church St East Side"}}, {"type": "Feature", "geometry": {"type": "Point", "coordinates": [-79.42372131347656, 43.639591217041016]}, "properties": {"stop_id": "15353", "stop_name": "King St West at Joe Shuster Way"}}]}