{"type": "FeatureCollection", "features": [{"type": "Feature", "geometry": {"type": "Point", "coordinates": [-79.4542007446289, 43.675437927246094]}, "properties": {"stop_id": "14931", "stop_name": "St Clair Ave West at Caledonia Rd East Side"}}, {"type": "Feature", "geometry": {"type": "Point", "coordinates": [-79.42289733886719, 43.68218994140625]}, "properties": {"stop_id": "14870", "stop_name": "St Clair Ave West at Wychwood Ave East Side"}}, {"type": "Feature", "geometry": {"type": "Point", "coordinates": [-79.41333770751953, 43.684085845947266]}, "properties": {"stop_id": "14343", "stop_name": "St Clair Ave West at Tweedsmuir Ave"}}, {"type": "Feature", "geometry": {"type": "Point", "coordinates": [-79.47183990478516, 43.671913146972656]}, "properties": {"stop_id": "14958", "stop_name": "Gunns Loop at St Clair Ave West"}}, {"type": "Feature", "geometry": {"type": "Point", "coordinates": [-79.41767120361328, 43.68321228027344]}, "properties": {"stop_id": "14336", "stop_name": "St Clair Ave West at Bathurst St East Side"}}, {"type": "Feature", "geometry": {"type": "Point", "coordinates": [-79.45707702636719, 43.67478942871094]}, "properties": {"stop_id": "14933", "stop_name": "St Clair Ave West at Laughton Ave East Side"}}, {"type": "Feature", "geometry": {"type": "Point", "coordinates": [-79.46244049072266, 43.67359924316406]}, "properties": {"stop_id": "14937", "stop_name": "St Clair Ave West at Old Weston Rd East Side"}}, {"type": "Feature", "geometry": {"type": "Point", "coordinates": [-79.40475463867188, 43.68592071533203]}, "properties": {"stop_id": "14351", "stop_name": "St Clair Ave West at Dunvegan Rd"}}, {"type": "Feature", "geometry": {"type": "Point", "coordinates": [-79.45001983642578, 43.676353454589844]}, "properties": {"stop_id": "14889", "stop_name": "St Clair Ave West at Lansdowne Ave East Side"}}, {"type": "Feature", "geometry": {"type": "Point", "coordinates": [-79.47048950195312, 43.67185974121094]}, "properties": {"stop_id": "15050", "stop_name": "St Clair Ave West at Old Stock Yards Rd"}}, {"type": "Feature", "geometry": {"type": "Point", "coordinates": [-79.43807220458984, 43.678985595703125]}, "properties": {"stop_id": "14881", "stop_name": "St Clair Ave West at Glenholme Ave East Side"}}, {"type": "Feature", "geometry": {"type": "Point", "coordinates": [-79.45943450927734, 43.67427444458008]}, "properties": {"stop_id": "14935", "stop_name": "St Clair Ave West at Hounslow Heath Rd East Side"}}, {"type": "Feature", "geometry": {"type": "Point", "coordinates": [-79.41056823730469, 43.68470001220703]}, "properties": {"stop_id": "14344", "stop_name": "St Clair Ave West at Spadina Rd East Side"}}, {"type": "Feature", "geometry": {"type": "Point", "coordinates": [-79.43506622314453, 43.67966079711914]}, "properties": {"stop_id": "14879", "stop_name": "St Clair Ave West at Oakwood Ave East Side"}}, {"type": "Feature", "geometry": {"type": "Point", "coordinates": [-79.42515563964844, 43.681758880615234]}, "properties": {"stop_id": "14872", "stop_name": "St Clair Ave West at Christie St East Side"}}, {"type": "Feature", "geometry": {"type": "Point", "coordinates": [-79.40087890625, 43.68666458129883]}, "properties": {"stop_id": "8149", "stop_name": "St Clair Ave West at Avenue Rd East Side"}}, {"type": "Feature", "geometry": {"type": "Point", "coordinates": [-79.41561126708984, 43.684295654296875]}, "properties": {"stop_id": "15308", "stop_name": "St Clair West Station"}}, {"type": "Feature", "geometry": {"type": "Point", "coordinates": [-79.44029998779297, 43.67848587036133]}, "properties": {"stop_id": "14883", "stop_name": "St Clair Ave West at Northcliffe Blvd East Side"}}, {"type": "Feature", "geometry": {"type": "Point", "coordinates": [-79.44247436523438, 43.67801284790039]}, "properties": {"stop_id": "14885", "stop_name": "St Clair Ave West at Dufferin St East Side"}}, {"type": "Feature", "geometry": {"type": "Point", "coordinates": [-79.39745330810547, 43.687339782714844]}, "properties": {"stop_id": "8160", "stop_name": "St Clair Ave West at Deer Park Cres East Side"}}, {"type": "Feature", "geometry": {"type": "Point", "coordinates": [-79.42831420898438, 43.681095123291016]}, "properties": {"stop_id": "14874", "stop_name": "St Clair Ave West at Arlington Ave East Side"}}, {"type": "Feature", "geometry": {"type": "Point", "coordinates": [-79.44684600830078, 43.67704391479492]}, "properties": {"stop_id": "14887", "stop_name": "St Clair Ave West at Earlscourt Ave East Side"}}, {"type": "Feature", "geometry": {"type": "Point", "coordinates": [-79.46784210205078, 43.67245101928711]}, "properties": {"stop_id": "14939", "stop_name": "St Clair Ave West at Keele St/ Weston Rd"}}, {"type": "Feature", "geometry": {"type": "Point", "coordinates": [-79.40731811523438, 43.685401916503906]}, "properties": {"stop_id": "8181", "stop_name": "St Clair Ave West at Russell Hill Rd East Side"}}, {"type": "Feature", "geometry": {"type": "Point", "coordinates": [-79.43194580078125, 43.68032455444336]}, "properties": {"stop_id": "14877", "stop_name": "St Clair Ave West at Winona Dr East Side"}}, {"type": "Feature", "geometry": {"type": "Point", "coordinates": [-79.41934967041016, 43.68287658691406]}, "properties": {"stop_id": "14335", "stop_name": "St Clair Ave West at Vaughan Rd East Side"}}, {"type": "Feature", "geometry": {"type": "Point", "coordinates": [-79.39196014404297, 43.68785858154297]}, "properties": {"stop_id": "14778", "stop_name": "St Clair Station"}}]}