{"type": "FeatureCollection", "features": [{"type": "Feature", "geometry": {"type": "Point", "coordinates": [-79.50530242919922, 43.64801788330078]}, "properties": {"stop_id": "6771", "stop_name": "Prince Edward Dr South at Bloor St West South Side"}}, {"type": "Feature", "geometry": {"type": "Point", "coordinates": [-79.49002838134766, 43.628662109375]}, "properties": {"stop_id": "10127", "stop_name": "Park Lawn Rd at The Queensway South Side"}}, {"type": "Feature", "geometry": {"type": "Point", "coordinates": [-79.50257873535156, 43.64165115356445]}, "properties": {"stop_id": "6794", "stop_name": "Prince Edward Dr South at Sunnylea Ave West"}}, {"type": "Feature", "geometry": {"type": "Point", "coordinates": [-79.4796371459961, 43.62571716308594]}, "properties": {"stop_id": "14542", "stop_name": "Opposite 2155 Lake Shore Blvd West"}}, {"type": "Feature", "geometry": {"type": "Point", "coordinates": [-79.48756408691406, 43.62677764892578]}, "properties": {"stop_id": "10128", "stop_name": "134 Park Lawn Rd"}}, {"type": "Feature", "geometry": {"type": "Point", "coordinates": [-79.50082397460938, 43.63755798339844]}, "properties": {"stop_id": "6775", "stop_name": "Prince Edward Dr South at Fairmar Ave"}}, {"type": "Feature", "geometry": {"type": "Point", "coordinates": [-79.49579620361328, 43.635581970214844]}, "properties": {"stop_id": "6259", "stop_name": "Berry Rd at Glenn Murray Dr"}}, {"type": "Feature", "geometry": {"type": "Point", "coordinates": [-79.49295043945312, 43.634822845458984]}, "properties": {"stop_id": "10124", "stop_name": "Park Lawn Rd at Keywell Crt"}}, {"type": "Feature", "geometry": {"type": "Point", "coordinates": [-79.47685241699219, 43.626686096191406]}, "properties": {"stop_id": "14545", "stop_name": "58 Marine Parade Dr"}}, {"type": "Feature", "geometry": {"type": "Point", "coordinates": [-79.49970245361328, 43.63497543334961]}, "properties": {"stop_id": "13426", "stop_name": "Prince Edward Dr South at Berry Rd"}}, {"type": "Feature", "geometry": {"type": "Point", "coordinates": [-79.50171661376953, 43.639644622802734]}, "properties": {"stop_id": "6777", "stop_name": "Prince Edward Dr South at Glenellen Dr West"}}, {"type": "Feature", "geometry": {"type": "Point", "coordinates": [-79.49407958984375, 43.63591384887695]}, "properties": {"stop_id": "11091", "stop_name": "Berry Rd at Park Lawn Rd"}}, {"type": "Feature", "geometry": {"type": "Point", "coordinates": [-79.5034408569336, 43.6436882019043]}, "properties": {"stop_id": "6778", "stop_name": "Prince Edward Dr South at Glenroy Ave"}}, {"type": "Feature", "geometry": {"type": "Point", "coordinates": [-79.49125671386719, 43.63087463378906]}, "properties": {"stop_id": "10126", "stop_name": "Park Lawn Rd at Lorne Ave"}}, {"type": "Feature", "geometry": {"type": "Point", "coordinates": [-79.49980163574219, 43.65006637573242]}, "properties": {"stop_id": "16408", "stop_name": "Bloor St West at The Kingsway West Side"}}, {"type": "Feature", "geometry": {"type": "Point", "coordinates": [-79.47761535644531, 43.62465286254883]}, "properties": {"stop_id": "16403", "stop_name": "Marine Parade Dr at Silver Moon Dr"}}, {"type": "Feature", "geometry": {"type": "Point", "coordinates": [-79.49507141113281, 43.65015411376953]}, "properties": {"stop_id": "14742", "stop_name": "Old Mill Station"}}, {"type": "Feature", "geometry": {"type": "Point", "coordinates": [-79.48165130615234, 43.62298583984375]}, "properties": {"stop_id": "10130", "stop_name": "Park Lawn Rd at Lake Shore Blvd West"}}, {"type": "Feature", "geometry": {"type": "Point", "coordinates": [-79.49222564697266, 43.63311767578125]}, "properties": {"stop_id": "10125", "stop_name": "Park Lawn Rd at Park Lane"}}, {"type": "Feature", "geometry": {"type": "Point", "coordinates": [-79.47901916503906, 43.626991271972656]}, "properties": {"stop_id": "14543", "stop_name": "Lake Shore Blvd West at Brookers Lane"}}, {"type": "Feature", "geometry": {"type": "Point", "coordinates": [-79.486328125, 43.6258544921875]}, "properties": {"stop_id": "13697", "stop_name": "Park Lawn Rd at Gardiner Expressway WB On Ramp)"}}, {"type": "Feature", "geometry": {"type": "Point", "coordinates": [-79.50446319580078, 43.646080017089844]}, "properties": {"stop_id": "6767", "stop_name": "Prince Edward Dr South at Ashton Manor"}}, {"type": "Feature", "geometry": {"type": "Point", "coordinates": [-79.47640228271484, 43.62997817993164]}, "properties": {"stop_id": "14544", "stop_name": "Marine Parade Dr (East) at Lake Shore Blvd West"}}, {"type": "Feature", "geometry": {"type": "Point", "coordinates": [-79.49794006347656, 43.63510513305664]}, "properties": {"stop_id": "6260", "stop_name": "Berry Rd at Minstrel Dr"}}, {"type": "Feature", "geometry": {"type": "Point", "coordinates": [-79.48426055908203, 43.62427520751953]}, "properties": {"stop_id": "10129", "stop_name": "88 Park Lawn Rd"}}, {"type": "Feature", "geometry": {"type": "Point", "coordinates": [-79.48091125488281, 43.62255096435547]}, "properties": {"stop_id": "10116", "stop_name": "Marine Parade Dr Loop at Lake Shore Blvd West"}}]}