{"type": "FeatureCollection", "features": [{"type": "Feature", "geometry": {"type": "Point", "coordinates": [-79.4874267578125, 43.62697982788086]}, "properties": {"stop_id": "10119", "stop_name": "Park Lawn Rd at Gardiner Expressway (Wb On Ramp)"}}, {"type": "Feature", "geometry": {"type": "Point", "coordinates": [-79.50109100341797, 43.638729095458984]}, "properties": {"stop_id": "6786", "stop_name": "Prince Edward Dr South at Kirk Bradden Rd East"}}, {"type": "Feature", "geometry": {"type": "Point", "coordinates": [-79.4861831665039, 43.62602233886719]}, "properties": {"stop_id": "16525", "stop_name": "Park Lawn Rd at Gardiner Expressway EB Off ramp"}}, {"type": "Feature", "geometry": {"type": "Point", "coordinates": [-79.49507141113281, 43.65015411376953]}, "properties": {"stop_id": "14742", "stop_name": "Old Mill Station"}}, {"type": "Feature", "geometry": {"type": "Point", "coordinates": [-79.48188781738281, 43.623321533203125]}, "properties": {"stop_id": "10117", "stop_name": "Park Lawn Rd at Lake Shore Blvd West North Side"}}, {"type": "Feature", "geometry": {"type": "Point", "coordinates": [-79.49945831298828, 43.64990997314453]}, "properties": {"stop_id": "533", "stop_name": "Bloor St West at The Kingsway"}}, {"type": "Feature", "geometry": {"type": "Point", "coordinates": [-79.50402069091797, 43.645530700683594]}, "properties": {"stop_id": "6773", "stop_name": "Prince Edward Dr South at Edgemore Dr North Side"}}, {"type": "Feature", "geometry": {"type": "Point", "coordinates": [-79.49040222167969, 43.629486083984375]}, "properties": {"stop_id": "10120", "stop_name": "Park Lawn Rd at The Queensway North Side"}}, {"type": "Feature", "geometry": {"type": "Point", "coordinates": [-79.50033569335938, 43.6368522644043]}, "properties": {"stop_id": "6774", "stop_name": "Prince Edward Dr South at Edwalter Ave"}}, {"type": "Feature", "geometry": {"type": "Point", "coordinates": [-79.491943359375, 43.63297653198242]}, "properties": {"stop_id": "10122", "stop_name": "Park Lawn Rd at Cannon Rd"}}, {"type": "Feature", "geometry": {"type": "Point", "coordinates": [-79.50529479980469, 43.648494720458984]}, "properties": {"stop_id": "6768", "stop_name": "Prince Edward Dr South at Bloor St West"}}, {"type": "Feature", "geometry": {"type": "Point", "coordinates": [-79.47761535644531, 43.62465286254883]}, "properties": {"stop_id": "16403", "stop_name": "Marine Parade Dr at Silver Moon Dr"}}, {"type": "Feature", "geometry": {"type": "Point", "coordinates": [-79.50286865234375, 43.642845153808594]}, "properties": {"stop_id": "6776", "stop_name": "Prince Edward Dr South at Glenaden Ave East"}}, {"type": "Feature", "geometry": {"type": "Point", "coordinates": [-79.49523162841797, 43.63580322265625]}, "properties": {"stop_id": "6255", "stop_name": "Berry Rd at Ballacaine Dr"}}, {"type": "Feature", "geometry": {"type": "Point", "coordinates": [-79.49300384521484, 43.635501861572266]}, "properties": {"stop_id": "10123", "stop_name": "Park Lawn Rd at Kinsdale Blvd North Side"}}, {"type": "Feature", "geometry": {"type": "Point", "coordinates": [-79.48408508300781, 43.62442398071289]}, "properties": {"stop_id": "10118", "stop_name": "Opposite 88 Park Lawn Rd"}}, {"type": "Feature", "geometry": {"type": "Point", "coordinates": [-79.49931335449219, 43.634925842285156]}, "properties": {"stop_id": "6263", "stop_name": "Berry Rd at Prince Edward Dr South"}}, {"type": "Feature", "geometry": {"type": "Point", "coordinates": [-79.50211334228516, 43.640968322753906]}, "properties": {"stop_id": "16448", "stop_name": "Prince Edward Dr South at Kingslea Gardens"}}, {"type": "Feature", "geometry": {"type": "Point", "coordinates": [-79.50462341308594, 43.64687728881836]}, "properties": {"stop_id": "6787", "stop_name": "Prince Edward Dr South at Meadowvale Dr"}}, {"type": "Feature", "geometry": {"type": "Point", "coordinates": [-79.490966796875, 43.63072967529297]}, "properties": {"stop_id": "14331", "stop_name": "Park Lawn Rd at Lorne Ave"}}, {"type": "Feature", "geometry": {"type": "Point", "coordinates": [-79.49502563476562, 43.65031051635742]}, "properties": {"stop_id": "15297", "stop_name": "Old Mill Station"}}]}