{"type": "FeatureCollection", "features": [{"type": "Feature", "geometry": {"type": "Point", "coordinates": [-79.26911163330078, 43.68907165527344]}, "properties": {"stop_id": "7904", "stop_name": "Kingston Rd at Manderley Dr"}}, {"type": "Feature", "geometry": {"type": "Point", "coordinates": [-79.23580932617188, 43.71600341796875]}, "properties": {"stop_id": "3306", "stop_name": "Barkdene Hills at Gradwell Dr"}}, {"type": "Feature", "geometry": {"type": "Point", "coordinates": [-79.27496337890625, 43.6977653503418]}, "properties": {"stop_id": "1623", "stop_name": "Warden Ave at Danforth Rd"}}, {"type": "Feature", "geometry": {"type": "Point", "coordinates": [-79.2632827758789, 43.69511413574219]}, "properties": {"stop_id": "16702", "stop_name": "Birchmount Rd at Hollis Ave"}}, {"type": "Feature", "geometry": {"type": "Point", "coordinates": [-79.27304077148438, 43.69318771362305]}, "properties": {"stop_id": "8572", "stop_name": "Warden Ave at Hollis Ave North Side"}}, {"type": "Feature", "geometry": {"type": "Point", "coordinates": [-79.27751922607422, 43.7039680480957]}, "properties": {"stop_id": "15013", "stop_name": "Warden Ave at Firvalley Crt"}}, {"type": "Feature", "geometry": {"type": "Point", "coordinates": [-79.27822875976562, 43.70563888549805]}, "properties": {"stop_id": "1626", "stop_name": "673 Warden Ave"}}, {"type": "Feature", "geometry": {"type": "Point", "coordinates": [-79.2433853149414, 43.7158203125]}, "properties": {"stop_id": "13334", "stop_name": "Kingston Rd at Resthaven Memorial Gardens"}}, {"type": "Feature", "geometry": {"type": "Point", "coordinates": [-79.25855255126953, 43.699222564697266]}, "properties": {"stop_id": "15012", "stop_name": "Opposite 3701 Danforth Ave - Variety Village"}}, {"type": "Feature", "geometry": {"type": "Point", "coordinates": [-79.23779296875, 43.7155876159668]}, "properties": {"stop_id": "14297", "stop_name": "Barkdene Hills at Larwood Blvd"}}, {"type": "Feature", "geometry": {"type": "Point", "coordinates": [-79.27897644042969, 43.70741271972656]}, "properties": {"stop_id": "1621", "stop_name": "689 Warden Ave"}}, {"type": "Feature", "geometry": {"type": "Point", "coordinates": [-79.26466369628906, 43.691612243652344]}, "properties": {"stop_id": "4206", "stop_name": "Kingston Rd at Birchcliff Ave"}}, {"type": "Feature", "geometry": {"type": "Point", "coordinates": [-79.27462768554688, 43.69701385498047]}, "properties": {"stop_id": "8555", "stop_name": "Warden Ave at Danforth Rd"}}, {"type": "Feature", "geometry": {"type": "Point", "coordinates": [-79.2450942993164, 43.714298248291016]}, "properties": {"stop_id": "4215", "stop_name": "Kingston Rd at Chine Dr"}}, {"type": "Feature", "geometry": {"type": "Point", "coordinates": [-79.27682495117188, 43.70231246948242]}, "properties": {"stop_id": "1622", "stop_name": "Warden Ave at Cataraqui Cres"}}, {"type": "Feature", "geometry": {"type": "Point", "coordinates": [-79.26371002197266, 43.69618225097656]}, "properties": {"stop_id": "15010", "stop_name": "Birchmount Rd at Parkette Pl"}}, {"type": "Feature", "geometry": {"type": "Point", "coordinates": [-79.2800064086914, 43.709815979003906]}, "properties": {"stop_id": "16636", "stop_name": "Warden Station"}}, {"type": "Feature", "geometry": {"type": "Point", "coordinates": [-79.262451171875, 43.69313430786133]}, "properties": {"stop_id": "7553", "stop_name": "Birchmount Rd at Kingston Rd"}}, {"type": "Feature", "geometry": {"type": "Point", "coordinates": [-79.24850463867188, 43.710975646972656]}, "properties": {"stop_id": "4245", "stop_name": "Kingston Rd at Midland Ave West Side"}}, {"type": "Feature", "geometry": {"type": "Point", "coordinates": [-79.2528305053711, 43.70416259765625]}, "properties": {"stop_id": "4216", "stop_name": "Kingston Rd at Claremore Ave"}}, {"type": "Feature", "geometry": {"type": "Point", "coordinates": [-79.23380279541016, 43.716861724853516]}, "properties": {"stop_id": "3377", "stop_name": "Brooklawn Ave at Barkdene Hills"}}, {"type": "Feature", "geometry": {"type": "Point", "coordinates": [-79.24089050292969, 43.718013763427734]}, "properties": {"stop_id": "10970", "stop_name": "Kingston Rd at Brimley Rd West Side"}}, {"type": "Feature", "geometry": {"type": "Point", "coordinates": [-79.2498550415039, 43.70896530151367]}, "properties": {"stop_id": "4261", "stop_name": "Kingston Rd at Sandown Ave"}}, {"type": "Feature", "geometry": {"type": "Point", "coordinates": [-79.25137329101562, 43.70652770996094]}, "properties": {"stop_id": "4264", "stop_name": "Kingston Rd at Sharpe St"}}, {"type": "Feature", "geometry": {"type": "Point", "coordinates": [-79.27104187011719, 43.688194274902344]}, "properties": {"stop_id": "8579", "stop_name": "Warden Ave at Kingston Rd North Side"}}, {"type": "Feature", "geometry": {"type": "Point", "coordinates": [-79.27204895019531, 43.690677642822266]}, "properties": {"stop_id": "8577", "stop_name": "Warden Ave at Ionson Blvd"}}, {"type": "Feature", "geometry": {"type": "Point", "coordinates": [-79.27593231201172, 43.70013427734375]}, "properties": {"stop_id": "1625", "stop_name": "Warden Ave at Mack Ave"}}, {"type": "Feature", "geometry": {"type": "Point", "coordinates": [-79.26703643798828, 43.690303802490234]}, "properties": {"stop_id": "4218", "stop_name": "Kingston Rd at Eastwood Ave"}}, {"type": "Feature", "geometry": {"type": "Point", "coordinates": [-79.27347564697266, 43.694236755371094]}, "properties": {"stop_id": "8553", "stop_name": "Warden Ave at Danforth Ave"}}]}