{"type": "FeatureCollection", "features": [{"type": "Feature", "geometry": {"type": "Point", "coordinates": [-79.36767578125, 43.648887634277344]}, "properties": {"stop_id": "6376", "stop_name": "The Esplanade at Lower Sherbourne St"}}, {"type": "Feature", "geometry": {"type": "Point", "coordinates": [-79.3676986694336, 43.65022277832031]}, "properties": {"stop_id": "7316", "stop_name": "Sherbourne St at Front St East"}}, {"type": "Feature", "geometry": {"type": "Point", "coordinates": [-79.3738021850586, 43.66518783569336]}, "properties": {"stop_id": "7307", "stop_name": "433 Sherbourne St"}}, {"type": "Feature", "geometry": {"type": "Point", "coordinates": [-79.37664794921875, 43.67215347290039]}, "properties": {"stop_id": "7309", "stop_name": "Sherbourne St at Bloor St East - Sherbourne Station"}}, {"type": "Feature", "geometry": {"type": "Point", "coordinates": [-79.36967468261719, 43.64542770385742]}, "properties": {"stop_id": "6475", "stop_name": "Lower Jarvis St at Lake Shore Blvd East"}}, {"type": "Feature", "geometry": {"type": "Point", "coordinates": [-79.3707504272461, 43.64807891845703]}, "properties": {"stop_id": "6474", "stop_name": "Lower Jarvis St at The Esplanade"}}, {"type": "Feature", "geometry": {"type": "Point", "coordinates": [-79.36914825439453, 43.64439010620117]}, "properties": {"stop_id": "6477", "stop_name": "Lower Jarvis St at Queens Quay East North Side"}}, {"type": "Feature", "geometry": {"type": "Point", "coordinates": [-79.36930847167969, 43.65431213378906]}, "properties": {"stop_id": "7327", "stop_name": "Sherbourne St at Queen St East"}}, {"type": "Feature", "geometry": {"type": "Point", "coordinates": [-79.36811828613281, 43.65109634399414]}, "properties": {"stop_id": "7322", "stop_name": "Sherbourne St at King St East"}}, {"type": "Feature", "geometry": {"type": "Point", "coordinates": [-79.37537384033203, 43.66896438598633]}, "properties": {"stop_id": "7314", "stop_name": "Sherbourne St at Earl St North Side"}}, {"type": "Feature", "geometry": {"type": "Point", "coordinates": [-79.37112426757812, 43.65879440307617]}, "properties": {"stop_id": "7312", "stop_name": "Sherbourne St at Dundas St East North Side"}}, {"type": "Feature", "geometry": {"type": "Point", "coordinates": [-79.37451934814453, 43.66689682006836]}, "properties": {"stop_id": "7332", "stop_name": "Sherbourne St at Wellesley St East"}}, {"type": "Feature", "geometry": {"type": "Point", "coordinates": [-79.36869049072266, 43.65254211425781]}, "properties": {"stop_id": "7305", "stop_name": "Sherbourne St at Adelaide St East North Side"}}, {"type": "Feature", "geometry": {"type": "Point", "coordinates": [-79.37208557128906, 43.661075592041016]}, "properties": {"stop_id": "7318", "stop_name": "Sherbourne St at Gerrard St East"}}, {"type": "Feature", "geometry": {"type": "Point", "coordinates": [-79.3729019165039, 43.66305160522461]}, "properties": {"stop_id": "7310", "stop_name": "Sherbourne St at Carlton St"}}, {"type": "Feature", "geometry": {"type": "Point", "coordinates": [-79.36995697021484, 43.65601348876953]}, "properties": {"stop_id": "7330", "stop_name": "Sherbourne St at Shuter St"}}]}