{"type": "FeatureCollection", "features": [{"type": "Feature", "geometry": {"type": "Point", "coordinates": [-79.4720458984375, 43.64048385620117]}, "properties": {"stop_id": "6303", "stop_name": "80 Coe Hill Dr"}}, {"type": "Feature", "geometry": {"type": "Point", "coordinates": [-79.4722900390625, 43.638187408447266]}, "properties": {"stop_id": "10995", "stop_name": "Southport St at Windermere Pl"}}, {"type": "Feature", "geometry": {"type": "Point", "coordinates": [-79.47502136230469, 43.63670349121094]}, "properties": {"stop_id": "10661", "stop_name": "South Kingsway at Ripley Ave"}}, {"type": "Feature", "geometry": {"type": "Point", "coordinates": [-79.46955871582031, 43.639190673828125]}, "properties": {"stop_id": "6302", "stop_name": "44 Coe Hill Dr"}}, {"type": "Feature", "geometry": {"type": "Point", "coordinates": [-79.47579193115234, 43.63926315307617]}, "properties": {"stop_id": "10673", "stop_name": "Ormskirk Ave at Ripley Ave East Side"}}, {"type": "Feature", "geometry": {"type": "Point", "coordinates": [-79.47406005859375, 43.641319274902344]}, "properties": {"stop_id": "6305", "stop_name": "Coe Hill Dr at Windermere Ave South Side"}}, {"type": "Feature", "geometry": {"type": "Point", "coordinates": [-79.47817993164062, 43.644996643066406]}, "properties": {"stop_id": "6608", "stop_name": "Morningside Ave at Windermere Ave"}}, {"type": "Feature", "geometry": {"type": "Point", "coordinates": [-79.4728775024414, 43.636234283447266]}, "properties": {"stop_id": "15146", "stop_name": "The Queensway at South Kingsway"}}, {"type": "Feature", "geometry": {"type": "Point", "coordinates": [-79.47425079345703, 43.64595031738281]}, "properties": {"stop_id": "7067", "stop_name": "Runnymede Rd at Morningside Ave"}}, {"type": "Feature", "geometry": {"type": "Point", "coordinates": [-79.47364807128906, 43.63935089111328]}, "properties": {"stop_id": "10675", "stop_name": "60 Southport St"}}, {"type": "Feature", "geometry": {"type": "Point", "coordinates": [-79.47625732421875, 43.65085220336914]}, "properties": {"stop_id": "7049", "stop_name": "Runnymede Rd at Bloor St West South Side"}}, {"type": "Feature", "geometry": {"type": "Point", "coordinates": [-79.47107696533203, 43.63814163208008]}, "properties": {"stop_id": "7453", "stop_name": "Windermere Pl at Windermere Ave"}}, {"type": "Feature", "geometry": {"type": "Point", "coordinates": [-79.47554016113281, 43.651824951171875]}, "properties": {"stop_id": "15092", "stop_name": "Runnymede Station"}}, {"type": "Feature", "geometry": {"type": "Point", "coordinates": [-79.47541809082031, 43.64885330200195]}, "properties": {"stop_id": "7056", "stop_name": "Runnymede Rd at Deforest Rd"}}, {"type": "Feature", "geometry": {"type": "Point", "coordinates": [-79.47594451904297, 43.64235305786133]}, "properties": {"stop_id": "7448", "stop_name": "Windermere Ave at St Olaves Rd"}}, {"type": "Feature", "geometry": {"type": "Point", "coordinates": [-79.4765625, 43.63866424560547]}, "properties": {"stop_id": "10662", "stop_name": "South Kingsway at Ormskirk Ave"}}, {"type": "Feature", "geometry": {"type": "Point", "coordinates": [-79.46855163574219, 43.637672424316406]}, "properties": {"stop_id": "6304", "stop_name": "Coe Hill Dr at The Queensway"}}, {"type": "Feature", "geometry": {"type": "Point", "coordinates": [-79.47046661376953, 43.63731384277344]}, "properties": {"stop_id": "6923", "stop_name": "The Queensway at Windermere Ave West Side"}}]}