{"type": "FeatureCollection", "features": [{"type": "Feature", "geometry": {"type": "Point", "coordinates": [-79.47262573242188, 43.639915466308594]}, "properties": {"stop_id": "7450", "stop_name": "89 Windermere Ave"}}, {"type": "Feature", "geometry": {"type": "Point", "coordinates": [-79.47554016113281, 43.651824951171875]}, "properties": {"stop_id": "15092", "stop_name": "Runnymede Station"}}, {"type": "Feature", "geometry": {"type": "Point", "coordinates": [-79.47592163085938, 43.64249038696289]}, "properties": {"stop_id": "7449", "stop_name": "Windermere Ave at St Olaves Rd"}}, {"type": "Feature", "geometry": {"type": "Point", "coordinates": [-79.47421264648438, 43.6462287902832]}, "properties": {"stop_id": "7066", "stop_name": "Runnymede Rd at Morningside Ave North Side"}}, {"type": "Feature", "geometry": {"type": "Point", "coordinates": [-79.47445678710938, 43.641326904296875]}, "properties": {"stop_id": "7451", "stop_name": "Windermere Ave at Coe Hill Dr"}}, {"type": "Feature", "geometry": {"type": "Point", "coordinates": [-79.47630310058594, 43.65143966674805]}, "properties": {"stop_id": "11760", "stop_name": "Runnymede Rd at Bloor St West North Side"}}, {"type": "Feature", "geometry": {"type": "Point", "coordinates": [-79.4751968383789, 43.648651123046875]}, "properties": {"stop_id": "7055", "stop_name": "Runnymede Rd at Deforest Rd"}}, {"type": "Feature", "geometry": {"type": "Point", "coordinates": [-79.4781723022461, 43.6447639465332]}, "properties": {"stop_id": "7452", "stop_name": "Windermere Ave at Morningside Ave"}}, {"type": "Feature", "geometry": {"type": "Point", "coordinates": [-79.4765853881836, 43.645240783691406]}, "properties": {"stop_id": "6605", "stop_name": "Morningside Ave at Lavinia Ave East Side"}}, {"type": "Feature", "geometry": {"type": "Point", "coordinates": [-79.47107696533203, 43.63814163208008]}, "properties": {"stop_id": "7453", "stop_name": "Windermere Pl at Windermere Ave"}}]}