{"type": "FeatureCollection", "features": [{"type": "Feature", "geometry": {"type": "Point", "coordinates": [-79.52291107177734, 43.697994232177734]}, "properties": {"stop_id": "7096", "stop_name": "Scarlett Rd at Lawrence Ave West"}}, {"type": "Feature", "geometry": {"type": "Point", "coordinates": [-79.50145721435547, 43.66947937011719]}, "properties": {"stop_id": "6398", "stop_name": "Foxwell St at Scarlett Rd"}}, {"type": "Feature", "geometry": {"type": "Point", "coordinates": [-79.477783203125, 43.65505599975586]}, "properties": {"stop_id": "7053", "stop_name": "Runnymede Rd at Colbeck St North Side"}}, {"type": "Feature", "geometry": {"type": "Point", "coordinates": [-79.49569702148438, 43.67106628417969]}, "properties": {"stop_id": "6394", "stop_name": "Foxwell St at Duern St"}}, {"type": "Feature", "geometry": {"type": "Point", "coordinates": [-79.51751708984375, 43.69283676147461]}, "properties": {"stop_id": "7102", "stop_name": "Scarlett Rd at Scarlettwood Crt North Side"}}, {"type": "Feature", "geometry": {"type": "Point", "coordinates": [-79.51678466796875, 43.699920654296875]}, "properties": {"stop_id": "5414", "stop_name": "Lawrence Ave West at Weston Rd"}}, {"type": "Feature", "geometry": {"type": "Point", "coordinates": [-79.51312255859375, 43.687137603759766]}, "properties": {"stop_id": "7093", "stop_name": "Scarlett Rd at La Rose Ave North Side"}}, {"type": "Feature", "geometry": {"type": "Point", "coordinates": [-79.4942626953125, 43.67153549194336]}, "properties": {"stop_id": "6395", "stop_name": "Foxwell St at Jane St West Side"}}, {"type": "Feature", "geometry": {"type": "Point", "coordinates": [-79.48336791992188, 43.6688232421875]}, "properties": {"stop_id": "7068", "stop_name": "Runnymede Rd at St Clair Ave West"}}, {"type": "Feature", "geometry": {"type": "Point", "coordinates": [-79.48193359375, 43.66536331176758]}, "properties": {"stop_id": "7057", "stop_name": "Runnymede Rd at Dundas St West"}}, {"type": "Feature", "geometry": {"type": "Point", "coordinates": [-79.4798812866211, 43.659950256347656]}, "properties": {"stop_id": "7047", "stop_name": "Runnymede Rd at Annette St"}}, {"type": "Feature", "geometry": {"type": "Point", "coordinates": [-79.48123931884766, 43.6636962890625]}, "properties": {"stop_id": "7070", "stop_name": "Runnymede Rd at St John's Rd"}}, {"type": "Feature", "geometry": {"type": "Point", "coordinates": [-79.50791931152344, 43.701351165771484]}, "properties": {"stop_id": "3021", "stop_name": "Pine St at Lawrence Ave West"}}, {"type": "Feature", "geometry": {"type": "Point", "coordinates": [-79.51433563232422, 43.68929672241211]}, "properties": {"stop_id": "7076", "stop_name": "Scarlett Rd at Chapman Rd North Side"}}, {"type": "Feature", "geometry": {"type": "Point", "coordinates": [-79.51171112060547, 43.70109176635742]}, "properties": {"stop_id": "5397", "stop_name": "Lawrence Ave West at Ralph St - Weston GO Station"}}, {"type": "Feature", "geometry": {"type": "Point", "coordinates": [-79.51569366455078, 43.69084930419922]}, "properties": {"stop_id": "13451", "stop_name": "Scarlett Rd at Saxony Cres"}}, {"type": "Feature", "geometry": {"type": "Point", "coordinates": [-79.48412322998047, 43.670562744140625]}, "properties": {"stop_id": "7062", "stop_name": "Runnymede Rd at Henrietta St"}}, {"type": "Feature", "geometry": {"type": "Point", "coordinates": [-79.48623657226562, 43.67032241821289]}, "properties": {"stop_id": "6417", "stop_name": "Henrietta St at Castleton Ave"}}, {"type": "Feature", "geometry": {"type": "Point", "coordinates": [-79.49260711669922, 43.66962814331055]}, "properties": {"stop_id": "6797", "stop_name": "Pritchard Ave at Jane St"}}, {"type": "Feature", "geometry": {"type": "Point", "coordinates": [-79.49005889892578, 43.670196533203125]}, "properties": {"stop_id": "6795", "stop_name": "Pritchard Ave at Batavia Ave West Side"}}, {"type": "Feature", "geometry": {"type": "Point", "coordinates": [-79.50894165039062, 43.6811637878418]}, "properties": {"stop_id": "7084", "stop_name": "Scarlett Rd at Edenbridge Dr North Side"}}, {"type": "Feature", "geometry": {"type": "Point", "coordinates": [-79.50578308105469, 43.6767578125]}, "properties": {"stop_id": "7082", "stop_name": "Scarlett Rd at East Dr"}}, {"type": "Feature", "geometry": {"type": "Point", "coordinates": [-79.49856567382812, 43.670127868652344]}, "properties": {"stop_id": "6392", "stop_name": "Foxwell St at Bruton Rd"}}, {"type": "Feature", "geometry": {"type": "Point", "coordinates": [-79.4805679321289, 43.662105560302734]}, "properties": {"stop_id": "7064", "stop_name": "Runnymede Rd at Maher Ave"}}, {"type": "Feature", "geometry": {"type": "Point", "coordinates": [-79.50263214111328, 43.670711517333984]}, "properties": {"stop_id": "7090", "stop_name": "Scarlett Rd at Ellins Ave"}}, {"type": "Feature", "geometry": {"type": "Point", "coordinates": [-79.48222351074219, 43.66609191894531]}, "properties": {"stop_id": "7058", "stop_name": "Runnymede Rd at Dundas St West North Side"}}, {"type": "Feature", "geometry": {"type": "Point", "coordinates": [-79.51242065429688, 43.68577194213867]}, "properties": {"stop_id": "7099", "stop_name": "Scarlett Rd at Richview Rd North Side"}}, {"type": "Feature", "geometry": {"type": "Point", "coordinates": [-79.5207290649414, 43.696109771728516]}, "properties": {"stop_id": "15675", "stop_name": "Scarlett Rd at Hill Garden Rd"}}, {"type": "Feature", "geometry": {"type": "Point", "coordinates": [-79.50395965576172, 43.6725959777832]}, "properties": {"stop_id": "7086", "stop_name": "Scarlett Rd at Edinborough Crt North Side"}}, {"type": "Feature", "geometry": {"type": "Point", "coordinates": [-79.50650024414062, 43.70014572143555]}, "properties": {"stop_id": "3205", "stop_name": "Wright Ave at Gibson Ave West Side"}}, {"type": "Feature", "geometry": {"type": "Point", "coordinates": [-79.51101684570312, 43.6837158203125]}, "properties": {"stop_id": "7088", "stop_name": "Scarlett Rd at Eglinton Ave West"}}, {"type": "Feature", "geometry": {"type": "Point", "coordinates": [-79.47571563720703, 43.65178680419922]}, "properties": {"stop_id": "14756", "stop_name": "Runnymede Station"}}, {"type": "Feature", "geometry": {"type": "Point", "coordinates": [-79.50419616699219, 43.70273971557617]}, "properties": {"stop_id": "2824", "stop_name": "Lawrence Ave West at Jane St"}}, {"type": "Feature", "geometry": {"type": "Point", "coordinates": [-79.5038070678711, 43.700767517089844]}, "properties": {"stop_id": "3206", "stop_name": "Wright Ave at Jane St West Side"}}, {"type": "Feature", "geometry": {"type": "Point", "coordinates": [-79.50839233398438, 43.70185470581055]}, "properties": {"stop_id": "5395", "stop_name": "Lawrence Ave West at Pine St"}}, {"type": "Feature", "geometry": {"type": "Point", "coordinates": [-79.4786605834961, 43.65713882446289]}, "properties": {"stop_id": "7060", "stop_name": "Runnymede Rd at Glenwood Ave North Side"}}, {"type": "Feature", "geometry": {"type": "Point", "coordinates": [-79.47925567626953, 43.65855407714844]}, "properties": {"stop_id": "7073", "stop_name": "Runnymede Rd at Webb Ave"}}, {"type": "Feature", "geometry": {"type": "Point", "coordinates": [-79.48785400390625, 43.670684814453125]}, "properties": {"stop_id": "6800", "stop_name": "Pritchard Ave at Mould Ave"}}, {"type": "Feature", "geometry": {"type": "Point", "coordinates": [-79.5201416015625, 43.69906234741211]}, "properties": {"stop_id": "5377", "stop_name": "Lawrence Ave West at Hickory Tree Rd"}}, {"type": "Feature", "geometry": {"type": "Point", "coordinates": [-79.51870727539062, 43.694183349609375]}, "properties": {"stop_id": "7103", "stop_name": "Scarlett Rd at Tilden Cres"}}]}