{"type": "FeatureCollection", "features": [{"type": "Feature", "geometry": {"type": "Point", "coordinates": [-79.56829071044922, 43.746498107910156]}, "properties": {"stop_id": "16518", "stop_name": "Finch Ave West at Islington Ave"}}, {"type": "Feature", "geometry": {"type": "Point", "coordinates": [-79.60479736328125, 43.72859573364258]}, "properties": {"stop_id": "15406", "stop_name": "Humber College Bus Terminal"}}, {"type": "Feature", "geometry": {"type": "Point", "coordinates": [-79.55210876464844, 43.75010681152344]}, "properties": {"stop_id": "2620", "stop_name": "Finch Ave West at Milvan Dr"}}, {"type": "Feature", "geometry": {"type": "Point", "coordinates": [-79.56218719482422, 43.7479248046875]}, "properties": {"stop_id": "2624", "stop_name": "Finch Ave West at Pearldale Ave"}}, {"type": "Feature", "geometry": {"type": "Point", "coordinates": [-79.52408599853516, 43.756134033203125]}, "properties": {"stop_id": "2621", "stop_name": "Finch Ave West at Norfinch Dr - Humber Reactivation Care"}}, {"type": "Feature", "geometry": {"type": "Point", "coordinates": [-79.55747985839844, 43.748958587646484]}, "properties": {"stop_id": "2596", "stop_name": "Finch Ave West at Duncanwoods Dr"}}, {"type": "Feature", "geometry": {"type": "Point", "coordinates": [-79.5077896118164, 43.75938034057617]}, "properties": {"stop_id": "2637", "stop_name": "Finch Ave West at Tobermory Dr"}}, {"type": "Feature", "geometry": {"type": "Point", "coordinates": [-79.58267974853516, 43.743324279785156]}, "properties": {"stop_id": "11029", "stop_name": "Finch Ave West at Kipling Ave West Side"}}, {"type": "Feature", "geometry": {"type": "Point", "coordinates": [-79.59136199951172, 43.73694610595703]}, "properties": {"stop_id": "2617", "stop_name": "Finch Ave West at Martin Grove Rd"}}, {"type": "Feature", "geometry": {"type": "Point", "coordinates": [-79.49979400634766, 43.761192321777344]}, "properties": {"stop_id": "2629", "stop_name": "Finch Ave West at Sentinel Rd"}}, {"type": "Feature", "geometry": {"type": "Point", "coordinates": [-79.60151672363281, 43.73470687866211]}, "properties": {"stop_id": "16516", "stop_name": "Finch Ave West at Westmore Dr"}}, {"type": "Feature", "geometry": {"type": "Point", "coordinates": [-79.49140167236328, 43.76395034790039]}, "properties": {"stop_id": "11321", "stop_name": "Keele St at Finch Ave West - Finch West Station"}}, {"type": "Feature", "geometry": {"type": "Point", "coordinates": [-79.51325225830078, 43.75818634033203]}, "properties": {"stop_id": "2594", "stop_name": "Finch Ave West at Driftwood Ave"}}, {"type": "Feature", "geometry": {"type": "Point", "coordinates": [-79.53611755371094, 43.75347137451172]}, "properties": {"stop_id": "16570", "stop_name": "Finch Ave West at Signet Dr"}}, {"type": "Feature", "geometry": {"type": "Point", "coordinates": [-79.60233306884766, 43.730350494384766]}, "properties": {"stop_id": "11272", "stop_name": "Humber College Blvd at Highway 27 West Side"}}, {"type": "Feature", "geometry": {"type": "Point", "coordinates": [-79.51744079589844, 43.757450103759766]}, "properties": {"stop_id": "16517", "stop_name": "Finch Ave West at Jane St"}}, {"type": "Feature", "geometry": {"type": "Point", "coordinates": [-79.58756256103516, 43.74318313598633]}, "properties": {"stop_id": "11041", "stop_name": "Finch Ave West at Opposite Albion Centre"}}, {"type": "Feature", "geometry": {"type": "Point", "coordinates": [-79.54293060302734, 43.75209426879883]}, "properties": {"stop_id": "7761", "stop_name": "Finch Ave West at Weston Rd West Side"}}, {"type": "Feature", "geometry": {"type": "Point", "coordinates": [-79.49095153808594, 43.76536560058594]}, "properties": {"stop_id": "15565", "stop_name": "Finch West Station"}}, {"type": "Feature", "geometry": {"type": "Point", "coordinates": [-79.58931732177734, 43.741329193115234]}, "properties": {"stop_id": "12452", "stop_name": "Finch Ave West at Albion Rd"}}]}