{"type": "FeatureCollection", "features": [{"type": "Feature", "geometry": {"type": "Point", "coordinates": [-79.38611602783203, 43.677528381347656]}, "properties": {"stop_id": "6330", "stop_name": "Crescent Rd at Cluny Dr"}}, {"type": "Feature", "geometry": {"type": "Point", "coordinates": [-79.37403869628906, 43.68098449707031]}, "properties": {"stop_id": "6419", "stop_name": "Highland Ave at Glen Rd"}}, {"type": "Feature", "geometry": {"type": "Point", "coordinates": [-79.37821960449219, 43.677940368652344]}, "properties": {"stop_id": "6331", "stop_name": "Crescent Rd at Lamport Ave"}}, {"type": "Feature", "geometry": {"type": "Point", "coordinates": [-79.38249969482422, 43.678531646728516]}, "properties": {"stop_id": "6337", "stop_name": "Crescent Rd at South Dr (West)"}}, {"type": "Feature", "geometry": {"type": "Point", "coordinates": [-79.37769317626953, 43.68572998046875]}, "properties": {"stop_id": "7378", "stop_name": "Summerhill Ave at Maclennan Ave"}}, {"type": "Feature", "geometry": {"type": "Point", "coordinates": [-79.38013458251953, 43.67822265625]}, "properties": {"stop_id": "6333", "stop_name": "Crescent Rd at Mt Pleasant Rd"}}, {"type": "Feature", "geometry": {"type": "Point", "coordinates": [-79.37765502929688, 43.68286895751953]}, "properties": {"stop_id": "16690", "stop_name": "20 Scholfield Ave (Rosedale Park)"}}, {"type": "Feature", "geometry": {"type": "Point", "coordinates": [-79.38887786865234, 43.676841735839844]}, "properties": {"stop_id": "14750", "stop_name": "Rosedale Station"}}, {"type": "Feature", "geometry": {"type": "Point", "coordinates": [-79.38492584228516, 43.67780685424805]}, "properties": {"stop_id": "6335", "stop_name": "Crescent Rd at Rosedale Rd West Side"}}, {"type": "Feature", "geometry": {"type": "Point", "coordinates": [-79.3758544921875, 43.67770767211914]}, "properties": {"stop_id": "7337", "stop_name": "South Dr at May St"}}]}