{"type": "FeatureCollection", "features": [{"type": "Feature", "geometry": {"type": "Point", "coordinates": [-79.21919250488281, 43.7433967590332]}, "properties": {"stop_id": "5559", "stop_name": "Markham Rd at Eglinton Ave East"}}, {"type": "Feature", "geometry": {"type": "Point", "coordinates": [-79.22933959960938, 43.785911560058594]}, "properties": {"stop_id": "15887", "stop_name": "Centennial College Bus Terminal"}}, {"type": "Feature", "geometry": {"type": "Point", "coordinates": [-79.2513198852539, 43.83607864379883]}, "properties": {"stop_id": "13668", "stop_name": "Markham Rd at Steeles Ave East South Side"}}, {"type": "Feature", "geometry": {"type": "Point", "coordinates": [-79.22232055664062, 43.750816345214844]}, "properties": {"stop_id": "5553", "stop_name": "Markham Rd at Blakemanor Blvd South Side"}}, {"type": "Feature", "geometry": {"type": "Point", "coordinates": [-79.2323226928711, 43.72544479370117]}, "properties": {"stop_id": "4240", "stop_name": "Kingston Rd at McCowan Rd"}}, {"type": "Feature", "geometry": {"type": "Point", "coordinates": [-79.23084259033203, 43.773712158203125]}, "properties": {"stop_id": "5555", "stop_name": "Markham Rd at Brimorton Dr"}}, {"type": "Feature", "geometry": {"type": "Point", "coordinates": [-79.2419662475586, 43.720855712890625]}, "properties": {"stop_id": "1555", "stop_name": "St Clair Ave East at Brimley Rd West Side"}}, {"type": "Feature", "geometry": {"type": "Point", "coordinates": [-79.27183532714844, 43.71414566040039]}, "properties": {"stop_id": "1554", "stop_name": "St Clair Ave East at Birchmount Rd West Side"}}, {"type": "Feature", "geometry": {"type": "Point", "coordinates": [-79.28043365478516, 43.7109375]}, "properties": {"stop_id": "16642", "stop_name": "Warden Station"}}, {"type": "Feature", "geometry": {"type": "Point", "coordinates": [-79.23717498779297, 43.7219123840332]}, "properties": {"stop_id": "1565", "stop_name": "St Clair Ave East at Kingston Rd West Side"}}, {"type": "Feature", "geometry": {"type": "Point", "coordinates": [-79.22850036621094, 43.7676887512207]}, "properties": {"stop_id": "5575", "stop_name": "Markham Rd at Painted Post Dr"}}, {"type": "Feature", "geometry": {"type": "Point", "coordinates": [-79.23383331298828, 43.78118133544922]}, "properties": {"stop_id": "5579", "stop_name": "Markham Rd at Progress Ave South Side"}}, {"type": "Feature", "geometry": {"type": "Point", "coordinates": [-79.23587036132812, 43.789730072021484]}, "properties": {"stop_id": "16347", "stop_name": "Milner Ave at Markham Rd East Side"}}, {"type": "Feature", "geometry": {"type": "Point", "coordinates": [-79.24812316894531, 43.824153900146484]}, "properties": {"stop_id": "12602", "stop_name": "Markham Rd at McNicoll Ave"}}, {"type": "Feature", "geometry": {"type": "Point", "coordinates": [-79.24336242675781, 43.813201904296875]}, "properties": {"stop_id": "5562", "stop_name": "Markham Rd at Finch Ave East"}}, {"type": "Feature", "geometry": {"type": "Point", "coordinates": [-79.24645233154297, 43.82032012939453]}, "properties": {"stop_id": "10841", "stop_name": "Markham Rd at Nashdene Rd"}}, {"type": "Feature", "geometry": {"type": "Point", "coordinates": [-79.21730041503906, 43.738895416259766]}, "properties": {"stop_id": "5567", "stop_name": "Markham Rd at Kingston Rd"}}, {"type": "Feature", "geometry": {"type": "Point", "coordinates": [-79.25936889648438, 43.71708679199219]}, "properties": {"stop_id": "1558", "stop_name": "St Clair Ave East at Danforth Rd"}}, {"type": "Feature", "geometry": {"type": "Point", "coordinates": [-79.23202514648438, 43.77666473388672]}, "properties": {"stop_id": "5560", "stop_name": "Markham Rd at Ellesmere Rd"}}, {"type": "Feature", "geometry": {"type": "Point", "coordinates": [-79.22032928466797, 43.73609161376953]}, "properties": {"stop_id": "4251", "stop_name": "Kingston Rd at Parkcrest Dr"}}, {"type": "Feature", "geometry": {"type": "Point", "coordinates": [-79.2255630493164, 43.760009765625]}, "properties": {"stop_id": "5568", "stop_name": "Markham Rd at Lawrence Ave East"}}, {"type": "Feature", "geometry": {"type": "Point", "coordinates": [-79.25091552734375, 43.830780029296875]}, "properties": {"stop_id": "13669", "stop_name": "Markham Rd at Passmore Ave"}}, {"type": "Feature", "geometry": {"type": "Point", "coordinates": [-79.24209594726562, 43.835792541503906]}, "properties": {"stop_id": "16252", "stop_name": "Morningside Ave at Passmore Ave - Amazon Fulfillment Centre"}}, {"type": "Feature", "geometry": {"type": "Point", "coordinates": [-79.24134826660156, 43.79875183105469]}, "properties": {"stop_id": "5574", "stop_name": "Markham Rd at Nugget Ave"}}, {"type": "Feature", "geometry": {"type": "Point", "coordinates": [-79.25218200683594, 43.718631744384766]}, "properties": {"stop_id": "16797", "stop_name": "St Clair Ave East at Midland Ave West Side"}}, {"type": "Feature", "geometry": {"type": "Point", "coordinates": [-79.23914337158203, 43.79408264160156]}, "properties": {"stop_id": "5583", "stop_name": "Markham Rd at Sheppard Ave East"}}]}