{"type": "FeatureCollection", "features": [{"type": "Feature", "geometry": {"type": "Point", "coordinates": [-79.3152084350586, 43.758243560791016]}, "properties": {"stop_id": "8456", "stop_name": "Victoria Park Ave at Ellesmere Rd North Side"}}, {"type": "Feature", "geometry": {"type": "Point", "coordinates": [-79.30171203613281, 43.72277069091797]}, "properties": {"stop_id": "8455", "stop_name": "Victoria Park Ave at Eglinton Sq"}}, {"type": "Feature", "geometry": {"type": "Point", "coordinates": [-79.34141540527344, 43.816619873046875]}, "properties": {"stop_id": "7946", "stop_name": "Victoria Park Ave Loop at Steeles Ave East"}}, {"type": "Feature", "geometry": {"type": "Point", "coordinates": [-79.33606719970703, 43.803897857666016]}, "properties": {"stop_id": "8480", "stop_name": "Victoria Park Ave at McNicoll Ave"}}, {"type": "Feature", "geometry": {"type": "Point", "coordinates": [-79.3171615600586, 43.76253128051758]}, "properties": {"stop_id": "7416", "stop_name": "Victoria Park Ave at Pachino Blvd North Side"}}, {"type": "Feature", "geometry": {"type": "Point", "coordinates": [-79.32272338867188, 43.77508544921875]}, "properties": {"stop_id": "8497", "stop_name": "Victoria Park Ave at Sheppard Ave East"}}, {"type": "Feature", "geometry": {"type": "Point", "coordinates": [-79.34101104736328, 43.815311431884766]}, "properties": {"stop_id": "8511", "stop_name": "Victoria Park Ave at Steeles Ave East"}}, {"type": "Feature", "geometry": {"type": "Point", "coordinates": [-79.28924560546875, 43.69441223144531]}, "properties": {"stop_id": "14976", "stop_name": "Victoria Park Station"}}, {"type": "Feature", "geometry": {"type": "Point", "coordinates": [-79.3027572631836, 43.725364685058594]}, "properties": {"stop_id": "6152", "stop_name": "Victoria Park Ave at Eglinton Ave East North Side"}}, {"type": "Feature", "geometry": {"type": "Point", "coordinates": [-79.31287384033203, 43.75140380859375]}, "properties": {"stop_id": "14271", "stop_name": "Victoria Park Ave at Rowena Dr"}}, {"type": "Feature", "geometry": {"type": "Point", "coordinates": [-79.29576873779297, 43.7086181640625]}, "properties": {"stop_id": "8505", "stop_name": "Victoria Park Ave at St Clair Ave East"}}, {"type": "Feature", "geometry": {"type": "Point", "coordinates": [-79.33113098144531, 43.792930603027344]}, "properties": {"stop_id": "8460", "stop_name": "Victoria Park Ave at Finch Ave East"}}, {"type": "Feature", "geometry": {"type": "Point", "coordinates": [-79.33892059326172, 43.81029510498047]}, "properties": {"stop_id": "8464", "stop_name": "Victoria Park Ave at Gordon Baker Rd"}}, {"type": "Feature", "geometry": {"type": "Point", "coordinates": [-79.30952453613281, 43.741756439208984]}, "properties": {"stop_id": "8475", "stop_name": "Victoria Park Ave at Lawrence Ave East"}}, {"type": "Feature", "geometry": {"type": "Point", "coordinates": [-79.32125091552734, 43.77179718017578]}, "properties": {"stop_id": "8481", "stop_name": "Victoria Park Ave at Meadowacres Dr"}}]}