{"type": "FeatureCollection", "features": [{"type": "Feature", "geometry": {"type": "Point", "coordinates": [-79.42720031738281, 43.6387825012207]}, "properties": {"stop_id": "2066", "stop_name": "Dufferin St at King St West"}}, {"type": "Feature", "geometry": {"type": "Point", "coordinates": [-79.42650604248047, 43.63694763183594]}, "properties": {"stop_id": "2071", "stop_name": "Dufferin St at Liberty St"}}, {"type": "Feature", "geometry": {"type": "Point", "coordinates": [-79.45155334472656, 43.70062255859375]}, "properties": {"stop_id": "2025", "stop_name": "Dufferin St at Castlefield Ave"}}, {"type": "Feature", "geometry": {"type": "Point", "coordinates": [-79.42587280273438, 43.6343994140625]}, "properties": {"stop_id": "2032", "stop_name": "Dufferin Gate Loop"}}, {"type": "Feature", "geometry": {"type": "Point", "coordinates": [-79.4410629272461, 43.67338562011719]}, "properties": {"stop_id": "2038", "stop_name": "Dufferin St at Davenport Rd North Side"}}, {"type": "Feature", "geometry": {"type": "Point", "coordinates": [-79.42842864990234, 43.64200973510742]}, "properties": {"stop_id": "2081", "stop_name": "Dufferin St at Queen St West"}}, {"type": "Feature", "geometry": {"type": "Point", "coordinates": [-79.45010375976562, 43.695556640625]}, "properties": {"stop_id": "16367", "stop_name": "Dufferin St at Eglinton Ave West"}}, {"type": "Feature", "geometry": {"type": "Point", "coordinates": [-79.43343353271484, 43.65510559082031]}, "properties": {"stop_id": "2098", "stop_name": "Dufferin St at Sylvan Ave North Side"}}, {"type": "Feature", "geometry": {"type": "Point", "coordinates": [-79.45866394042969, 43.7318115234375]}, "properties": {"stop_id": "2108", "stop_name": "Dufferin St at Wilson Ave"}}, {"type": "Feature", "geometry": {"type": "Point", "coordinates": [-79.43257904052734, 43.65287399291992]}, "properties": {"stop_id": "2033", "stop_name": "Dufferin St at College St North Side"}}, {"type": "Feature", "geometry": {"type": "Point", "coordinates": [-79.4559555053711, 43.72039031982422]}, "properties": {"stop_id": "2091", "stop_name": "Dufferin St at Orfus Rd"}}, {"type": "Feature", "geometry": {"type": "Point", "coordinates": [-79.44290924072266, 43.67776870727539]}, "properties": {"stop_id": "2093", "stop_name": "Dufferin St at St Clair Ave West"}}, {"type": "Feature", "geometry": {"type": "Point", "coordinates": [-79.43412017822266, 43.65693283081055]}, "properties": {"stop_id": "2040", "stop_name": "Dufferin St at Dufferin Park Ave"}}, {"type": "Feature", "geometry": {"type": "Point", "coordinates": [-79.45303344726562, 43.7068977355957]}, "properties": {"stop_id": "2053", "stop_name": "Dufferin St at Glencairn Ave"}}, {"type": "Feature", "geometry": {"type": "Point", "coordinates": [-79.43533325195312, 43.66019821166992]}, "properties": {"stop_id": "2020", "stop_name": "Dufferin St at Bloor St West - Dufferin Station"}}, {"type": "Feature", "geometry": {"type": "Point", "coordinates": [-79.4312515258789, 43.64945983886719]}, "properties": {"stop_id": "2043", "stop_name": "Dufferin St at Dundas St West"}}, {"type": "Feature", "geometry": {"type": "Point", "coordinates": [-79.45092010498047, 43.734474182128906]}, "properties": {"stop_id": "14799", "stop_name": "Wilson Station"}}, {"type": "Feature", "geometry": {"type": "Point", "coordinates": [-79.45699310302734, 43.72508239746094]}, "properties": {"stop_id": "985", "stop_name": "Dufferin St at Jane Osler Blvd - Yorkdale Shopping Centre"}}, {"type": "Feature", "geometry": {"type": "Point", "coordinates": [-79.43883514404297, 43.66825866699219]}, "properties": {"stop_id": "2045", "stop_name": "Dufferin St at Dupont St"}}, {"type": "Feature", "geometry": {"type": "Point", "coordinates": [-79.45463562011719, 43.71449279785156]}, "properties": {"stop_id": "2069", "stop_name": "Dufferin St at Lawrence Ave West North Side"}}, {"type": "Feature", "geometry": {"type": "Point", "coordinates": [-79.44597625732422, 43.68545913696289]}, "properties": {"stop_id": "2082", "stop_name": "Dufferin St at Rogers Rd"}}]}