{"type": "FeatureCollection", "features": [{"type": "Feature", "geometry": {"type": "Point", "coordinates": [-79.52454376220703, 43.644859313964844]}, "properties": {"stop_id": "16046", "stop_name": "Islington Station"}}, {"type": "Feature", "geometry": {"type": "Point", "coordinates": [-79.56871032714844, 43.7549934387207]}, "properties": {"stop_id": "3779", "stop_name": "Islington Ave at Duncanwoods Dr North Side"}}, {"type": "Feature", "geometry": {"type": "Point", "coordinates": [-79.55573272705078, 43.71674728393555]}, "properties": {"stop_id": "3767", "stop_name": "Islington Ave at Bergamot Ave"}}, {"type": "Feature", "geometry": {"type": "Point", "coordinates": [-79.55760192871094, 43.720787048339844]}, "properties": {"stop_id": "3797", "stop_name": "Islington Ave at Golfdown Dr"}}, {"type": "Feature", "geometry": {"type": "Point", "coordinates": [-79.55509185791016, 43.715354919433594]}, "properties": {"stop_id": "14120", "stop_name": "Islington Ave at Rexdale Blvd North Side"}}, {"type": "Feature", "geometry": {"type": "Point", "coordinates": [-79.56810760498047, 43.752166748046875]}, "properties": {"stop_id": "3816", "stop_name": "Islington Ave at Milady Rd"}}, {"type": "Feature", "geometry": {"type": "Point", "coordinates": [-79.52359008789062, 43.645408630371094]}, "properties": {"stop_id": "9901", "stop_name": "Islington Ave at Bloor St West North Side"}}, {"type": "Feature", "geometry": {"type": "Point", "coordinates": [-79.56769561767578, 43.74285888671875]}, "properties": {"stop_id": "2716", "stop_name": "Islington Ave at Beaumonde Heights Dr North Side"}}, {"type": "Feature", "geometry": {"type": "Point", "coordinates": [-79.52615356445312, 43.65125274658203]}, "properties": {"stop_id": "3780", "stop_name": "Islington Ave at Dundas St West"}}, {"type": "Feature", "geometry": {"type": "Point", "coordinates": [-79.56837463378906, 43.74584197998047]}, "properties": {"stop_id": "3791", "stop_name": "Islington Ave at Finch Ave West"}}, {"type": "Feature", "geometry": {"type": "Point", "coordinates": [-79.56964874267578, 43.75722885131836]}, "properties": {"stop_id": "3851", "stop_name": "Islington Ave at Vanhill Ave"}}, {"type": "Feature", "geometry": {"type": "Point", "coordinates": [-79.55992126464844, 43.725738525390625]}, "properties": {"stop_id": "3750", "stop_name": "Islington Ave at Gosfield Gate"}}, {"type": "Feature", "geometry": {"type": "Point", "coordinates": [-79.56800079345703, 43.748939514160156]}, "properties": {"stop_id": "3847", "stop_name": "2825 Islington Ave"}}, {"type": "Feature", "geometry": {"type": "Point", "coordinates": [-79.53874206542969, 43.679691314697266]}, "properties": {"stop_id": "3782", "stop_name": "Islington Ave at Eglinton Ave West"}}, {"type": "Feature", "geometry": {"type": "Point", "coordinates": [-79.55010223388672, 43.70478057861328]}, "properties": {"stop_id": "3815", "stop_name": "Islington Ave at Monogram Pl"}}, {"type": "Feature", "geometry": {"type": "Point", "coordinates": [-79.56550598144531, 43.73810577392578]}, "properties": {"stop_id": "2711", "stop_name": "Islington Ave at Barkwin Dr"}}, {"type": "Feature", "geometry": {"type": "Point", "coordinates": [-79.56050109863281, 43.726959228515625]}, "properties": {"stop_id": "3795", "stop_name": "Islington Ave at Fordwich Cres"}}, {"type": "Feature", "geometry": {"type": "Point", "coordinates": [-79.54634857177734, 43.69671630859375]}, "properties": {"stop_id": "3777", "stop_name": "Islington Ave at Dixon Rd"}}, {"type": "Feature", "geometry": {"type": "Point", "coordinates": [-79.53094482421875, 43.66225814819336]}, "properties": {"stop_id": "3829", "stop_name": "Islington Ave at Rathburn Rd"}}, {"type": "Feature", "geometry": {"type": "Point", "coordinates": [-79.5426254272461, 43.68848419189453]}, "properties": {"stop_id": "3854", "stop_name": "Islington Ave at The Westway"}}, {"type": "Feature", "geometry": {"type": "Point", "coordinates": [-79.56488800048828, 43.736656188964844]}, "properties": {"stop_id": "3754", "stop_name": "Islington Ave at Albion Rd"}}, {"type": "Feature", "geometry": {"type": "Point", "coordinates": [-79.56690979003906, 43.74110412597656]}, "properties": {"stop_id": "2723", "stop_name": "Islington Ave at Kingsmoor Gate North Side"}}, {"type": "Feature", "geometry": {"type": "Point", "coordinates": [-79.57364654541016, 43.76295471191406]}, "properties": {"stop_id": "3848", "stop_name": "Islington Ave at Thorold Gate North Side"}}, {"type": "Feature", "geometry": {"type": "Point", "coordinates": [-79.57658386230469, 43.76409149169922]}, "properties": {"stop_id": "9170", "stop_name": "Steeles Ave West Loop at Islington Ave"}}, {"type": "Feature", "geometry": {"type": "Point", "coordinates": [-79.55863952636719, 43.72303009033203]}, "properties": {"stop_id": "3785", "stop_name": "Islington Ave at Elmhurst Dr"}}, {"type": "Feature", "geometry": {"type": "Point", "coordinates": [-79.56390380859375, 43.734500885009766]}, "properties": {"stop_id": "3836", "stop_name": "Islington Ave at Sandhill Dr North Side"}}, {"type": "Feature", "geometry": {"type": "Point", "coordinates": [-79.5627212524414, 43.73176956176758]}, "properties": {"stop_id": "3762", "stop_name": "Islington Ave at Barker Ave"}}, {"type": "Feature", "geometry": {"type": "Point", "coordinates": [-79.5566177368164, 43.71868896484375]}, "properties": {"stop_id": "3813", "stop_name": "Islington Ave at Leduc Dr North Side"}}, {"type": "Feature", "geometry": {"type": "Point", "coordinates": [-79.5715560913086, 43.75996017456055]}, "properties": {"stop_id": "3818", "stop_name": "Islington Ave at Millwick Dr"}}]}