{"type": "FeatureCollection", "features": [{"type": "Feature", "geometry": {"type": "Point", "coordinates": [-79.31600952148438, 43.796573638916016]}, "properties": {"stop_id": "2569", "stop_name": "Finch Ave East at Warden Ave"}}, {"type": "Feature", "geometry": {"type": "Point", "coordinates": [-79.28650665283203, 43.803565979003906]}, "properties": {"stop_id": "2534", "stop_name": "Finch Ave East at Midland Ave"}}, {"type": "Feature", "geometry": {"type": "Point", "coordinates": [-79.26153564453125, 43.773658752441406]}, "properties": {"stop_id": "1612", "stop_name": "Triton Rd at Borough Dr"}}, {"type": "Feature", "geometry": {"type": "Point", "coordinates": [-79.26499938964844, 43.75076675415039]}, "properties": {"stop_id": "16376", "stop_name": "Midland Ave at Lawrence Ave East South Side"}}, {"type": "Feature", "geometry": {"type": "Point", "coordinates": [-79.36709594726562, 43.78986740112305]}, "properties": {"stop_id": "2518", "stop_name": "Finch Ave East at Leslie St East Side"}}, {"type": "Feature", "geometry": {"type": "Point", "coordinates": [-79.25908660888672, 43.78978729248047]}, "properties": {"stop_id": "1318", "stop_name": "McCowan Rd at Sheppard Ave East"}}, {"type": "Feature", "geometry": {"type": "Point", "coordinates": [-79.2967300415039, 43.80107879638672]}, "properties": {"stop_id": "2514", "stop_name": "Finch Ave East at Kennedy Rd"}}, {"type": "Feature", "geometry": {"type": "Point", "coordinates": [-79.3926010131836, 43.784732818603516]}, "properties": {"stop_id": "2488", "stop_name": "Finch Ave East at Bayview Ave"}}, {"type": "Feature", "geometry": {"type": "Point", "coordinates": [-79.2667236328125, 43.80784606933594]}, "properties": {"stop_id": "1055", "stop_name": "Finch Ave East at McCowan Rd"}}, {"type": "Feature", "geometry": {"type": "Point", "coordinates": [-79.40725708007812, 43.781497955322266]}, "properties": {"stop_id": "2574", "stop_name": "Finch Ave East at Willowdale Ave"}}, {"type": "Feature", "geometry": {"type": "Point", "coordinates": [-79.32617950439453, 43.79413604736328]}, "properties": {"stop_id": "2538", "stop_name": "Finch Ave East at Pharmacy Ave"}}, {"type": "Feature", "geometry": {"type": "Point", "coordinates": [-79.26351165771484, 43.73222732543945]}, "properties": {"stop_id": "16453", "stop_name": "Kennedy Station Drop-off Platform"}}, {"type": "Feature", "geometry": {"type": "Point", "coordinates": [-79.26383972167969, 43.73171615600586]}, "properties": {"stop_id": "16381", "stop_name": "Kennedy Station - Platform B"}}, {"type": "Feature", "geometry": {"type": "Point", "coordinates": [-79.33167266845703, 43.792903900146484]}, "properties": {"stop_id": "2565", "stop_name": "Finch Ave East at Victoria Park Ave"}}, {"type": "Feature", "geometry": {"type": "Point", "coordinates": [-79.30619049072266, 43.79880142211914]}, "properties": {"stop_id": "2490", "stop_name": "Finch Ave East at Birchmount Rd"}}, {"type": "Feature", "geometry": {"type": "Point", "coordinates": [-79.27115631103516, 43.7674674987793]}, "properties": {"stop_id": "16375", "stop_name": "Midland Ave at Ellesmere Rd South Side"}}, {"type": "Feature", "geometry": {"type": "Point", "coordinates": [-79.46730041503906, 43.76862335205078]}, "properties": {"stop_id": "3587", "stop_name": "Finch Ave West at Dufferin St"}}, {"type": "Feature", "geometry": {"type": "Point", "coordinates": [-79.27759552001953, 43.805484771728516]}, "properties": {"stop_id": "2497", "stop_name": "Finch Ave East at Brimley Rd"}}, {"type": "Feature", "geometry": {"type": "Point", "coordinates": [-79.35417938232422, 43.79261779785156]}, "properties": {"stop_id": "2506", "stop_name": "Finch Ave East at Don Mills Rd East Side"}}, {"type": "Feature", "geometry": {"type": "Point", "coordinates": [-79.35062408447266, 43.79344177246094]}, "properties": {"stop_id": "2550", "stop_name": "Finch Ave East at Seneca Hill Dr - Opposite Seneca Polytechnic"}}, {"type": "Feature", "geometry": {"type": "Point", "coordinates": [-79.4422836303711, 43.773841857910156]}, "properties": {"stop_id": "16061", "stop_name": "Finch Ave West at Bathurst St"}}, {"type": "Feature", "geometry": {"type": "Point", "coordinates": [-79.45048522949219, 43.77225875854492]}, "properties": {"stop_id": "3593", "stop_name": "Finch Ave West at Goldfinch Crt East Side"}}, {"type": "Feature", "geometry": {"type": "Point", "coordinates": [-79.43034362792969, 43.77632522583008]}, "properties": {"stop_id": "3613", "stop_name": "Finch Ave West at Senlac Rd"}}, {"type": "Feature", "geometry": {"type": "Point", "coordinates": [-79.49085998535156, 43.76491928100586]}, "properties": {"stop_id": "15567", "stop_name": "Finch West Station"}}, {"type": "Feature", "geometry": {"type": "Point", "coordinates": [-79.41519165039062, 43.781429290771484]}, "properties": {"stop_id": "14692", "stop_name": "Finch Station"}}, {"type": "Feature", "geometry": {"type": "Point", "coordinates": [-79.25724792480469, 43.774497985839844]}, "properties": {"stop_id": "14766", "stop_name": "Scarborough Centre Station"}}]}