{"type": "FeatureCollection", "features": [{"type": "Feature", "geometry": {"type": "Point", "coordinates": [-79.51714324951172, 43.59835433959961]}, "properties": {"stop_id": "12124", "stop_name": "Kipling Ave at Lake Shore Blvd West"}}, {"type": "Feature", "geometry": {"type": "Point", "coordinates": [-79.5267333984375, 43.6204719543457]}, "properties": {"stop_id": "4362", "stop_name": "Kipling Ave at The Queensway South Side"}}, {"type": "Feature", "geometry": {"type": "Point", "coordinates": [-79.51683807373047, 43.594276428222656]}, "properties": {"stop_id": "12120", "stop_name": "Colonel Samuel Smith Park Dr"}}, {"type": "Feature", "geometry": {"type": "Point", "coordinates": [-79.5159683227539, 43.595726013183594]}, "properties": {"stop_id": "12126", "stop_name": "Colonel Samuel Park at Opposite Humber College Cottages C-M"}}, {"type": "Feature", "geometry": {"type": "Point", "coordinates": [-79.51820373535156, 43.600826263427734]}, "properties": {"stop_id": "4290", "stop_name": "Kipling Ave at Birmingham St"}}, {"type": "Feature", "geometry": {"type": "Point", "coordinates": [-79.53534698486328, 43.63785171508789]}, "properties": {"stop_id": "14721", "stop_name": "Kipling Station"}}, {"type": "Feature", "geometry": {"type": "Point", "coordinates": [-79.52091979980469, 43.60733413696289]}, "properties": {"stop_id": "4327", "stop_name": "Kipling Ave at Horner Ave"}}, {"type": "Feature", "geometry": {"type": "Point", "coordinates": [-79.5249252319336, 43.61601257324219]}, "properties": {"stop_id": "4308", "stop_name": "Kipling Ave at Evans Ave"}}]}