{"type": "FeatureCollection", "features": [{"type": "Feature", "geometry": {"type": "Point", "coordinates": [-79.52678680419922, 43.62136459350586]}, "properties": {"stop_id": "4361", "stop_name": "Kipling Ave at The Queensway North Side"}}, {"type": "Feature", "geometry": {"type": "Point", "coordinates": [-79.53534698486328, 43.63785171508789]}, "properties": {"stop_id": "14721", "stop_name": "Kipling Station"}}, {"type": "Feature", "geometry": {"type": "Point", "coordinates": [-79.51683807373047, 43.594276428222656]}, "properties": {"stop_id": "12120", "stop_name": "Colonel Samuel Smith Park Dr"}}, {"type": "Feature", "geometry": {"type": "Point", "coordinates": [-79.51677703857422, 43.598060607910156]}, "properties": {"stop_id": "12122", "stop_name": "Kipling Ave at Lake Shore Blvd West"}}, {"type": "Feature", "geometry": {"type": "Point", "coordinates": [-79.51583862304688, 43.59588623046875]}, "properties": {"stop_id": "12121", "stop_name": "Colonel Samuel Park at Humber College Cottages C-M"}}, {"type": "Feature", "geometry": {"type": "Point", "coordinates": [-79.52476501464844, 43.6163444519043]}, "properties": {"stop_id": "4307", "stop_name": "Kipling Ave at Evans Ave North Side"}}, {"type": "Feature", "geometry": {"type": "Point", "coordinates": [-79.5178451538086, 43.6005744934082]}, "properties": {"stop_id": "4289", "stop_name": "Kipling Ave at Birmingham St"}}, {"type": "Feature", "geometry": {"type": "Point", "coordinates": [-79.52051544189453, 43.607025146484375]}, "properties": {"stop_id": "4326", "stop_name": "Kipling Ave at Horner Ave"}}]}