{"type": "FeatureCollection", "features": [{"type": "Feature", "geometry": {"type": "Point", "coordinates": [-79.24636840820312, 43.773189544677734]}, "properties": {"stop_id": "7711", "stop_name": "Ellesmere Rd at Parkington Cres"}}, {"type": "Feature", "geometry": {"type": "Point", "coordinates": [-79.30455017089844, 43.760231018066406]}, "properties": {"stop_id": "7690", "stop_name": "Ellesmere Rd at Dewey Dr"}}, {"type": "Feature", "geometry": {"type": "Point", "coordinates": [-79.17357635498047, 43.78996276855469]}, "properties": {"stop_id": "10516", "stop_name": "Ellesmere Rd at Morrish Rd"}}, {"type": "Feature", "geometry": {"type": "Point", "coordinates": [-79.18842315673828, 43.78643798828125]}, "properties": {"stop_id": "7698", "stop_name": "Ellesmere Rd at Military Trail (East)"}}, {"type": "Feature", "geometry": {"type": "Point", "coordinates": [-79.15094757080078, 43.800392150878906]}, "properties": {"stop_id": "16127", "stop_name": "Durnford Rd at Durness Ave"}}, {"type": "Feature", "geometry": {"type": "Point", "coordinates": [-79.39379119873047, 43.74592971801758]}, "properties": {"stop_id": "3254", "stop_name": "York Mills Rd at Cedarwood Ave East Side"}}, {"type": "Feature", "geometry": {"type": "Point", "coordinates": [-79.37889099121094, 43.74959945678711]}, "properties": {"stop_id": "7468", "stop_name": "York Mills Rd at Harrison Rd"}}, {"type": "Feature", "geometry": {"type": "Point", "coordinates": [-79.23504638671875, 43.77562713623047]}, "properties": {"stop_id": "1044", "stop_name": "Ellesmere Rd at Dolly Varden Blvd"}}, {"type": "Feature", "geometry": {"type": "Point", "coordinates": [-79.31460571289062, 43.757877349853516]}, "properties": {"stop_id": "6371", "stop_name": "Ellesmere Rd at Victoria Park Ave East Side"}}, {"type": "Feature", "geometry": {"type": "Point", "coordinates": [-79.28788757324219, 43.76408767700195]}, "properties": {"stop_id": "14317", "stop_name": "740 Ellesmere Rd at Mondeo Dr"}}, {"type": "Feature", "geometry": {"type": "Point", "coordinates": [-79.15794372558594, 43.793731689453125]}, "properties": {"stop_id": "10520", "stop_name": "Ellesmere Rd at Muirbank Blvd"}}, {"type": "Feature", "geometry": {"type": "Point", "coordinates": [-79.32781982421875, 43.760562896728516]}, "properties": {"stop_id": "9072", "stop_name": "York Mills Rd at Fenside Dr"}}, {"type": "Feature", "geometry": {"type": "Point", "coordinates": [-79.30802154541016, 43.759437561035156]}, "properties": {"stop_id": "7687", "stop_name": "Ellesmere Rd at Claudius Gate"}}, {"type": "Feature", "geometry": {"type": "Point", "coordinates": [-79.14677429199219, 43.79945755004883]}, "properties": {"stop_id": "7198", "stop_name": "Sheppard Ave East at Kingston Rd North Side"}}, {"type": "Feature", "geometry": {"type": "Point", "coordinates": [-79.3750991821289, 43.75039291381836]}, "properties": {"stop_id": "7472", "stop_name": "York Mills Rd at Sandfield Rd"}}, {"type": "Feature", "geometry": {"type": "Point", "coordinates": [-79.25177764892578, 43.7719612121582]}, "properties": {"stop_id": "7694", "stop_name": "Ellesmere Rd at McCowan Rd"}}, {"type": "Feature", "geometry": {"type": "Point", "coordinates": [-79.26837158203125, 43.768394470214844]}, "properties": {"stop_id": "7706", "stop_name": "Ellesmere Rd at Oakley Blvd East Side"}}, {"type": "Feature", "geometry": {"type": "Point", "coordinates": [-79.26410675048828, 43.769344329833984]}, "properties": {"stop_id": "7688", "stop_name": "1299 Ellesmere Rd"}}, {"type": "Feature", "geometry": {"type": "Point", "coordinates": [-79.2173080444336, 43.779598236083984]}, "properties": {"stop_id": "1051", "stop_name": "Ellesmere Rd at Orton Park Rd"}}, {"type": "Feature", "geometry": {"type": "Point", "coordinates": [-79.386474609375, 43.74747848510742]}, "properties": {"stop_id": "3259", "stop_name": "York Mills Rd at Glenridge Ave"}}, {"type": "Feature", "geometry": {"type": "Point", "coordinates": [-79.14999389648438, 43.7977294921875]}, "properties": {"stop_id": "12748", "stop_name": "Rylander Blvd at Kingston Rd"}}, {"type": "Feature", "geometry": {"type": "Point", "coordinates": [-79.15015411376953, 43.79866409301758]}, "properties": {"stop_id": "16128", "stop_name": "Durnford Rd at Tallpines Park South Side"}}, {"type": "Feature", "geometry": {"type": "Point", "coordinates": [-79.29763793945312, 43.76177978515625]}, "properties": {"stop_id": "7673", "stop_name": "441 Ellesmere Rd"}}, {"type": "Feature", "geometry": {"type": "Point", "coordinates": [-79.30106353759766, 43.76095962524414]}, "properties": {"stop_id": "7719", "stop_name": "Ellesmere Rd at Warden Ave"}}, {"type": "Feature", "geometry": {"type": "Point", "coordinates": [-79.4043960571289, 43.744178771972656]}, "properties": {"stop_id": "11333", "stop_name": "York Mills Rd at Old York Mills Rd"}}, {"type": "Feature", "geometry": {"type": "Point", "coordinates": [-79.18351745605469, 43.78769302368164]}, "properties": {"stop_id": "9468", "stop_name": "Ellesmere Rd at Conlins Rd"}}, {"type": "Feature", "geometry": {"type": "Point", "coordinates": [-79.384521484375, 43.74787139892578]}, "properties": {"stop_id": "9188", "stop_name": "York Mills Rd at Bayview Ave"}}, {"type": "Feature", "geometry": {"type": "Point", "coordinates": [-79.38906860351562, 43.746925354003906]}, "properties": {"stop_id": "3257", "stop_name": "York Mills Rd at Fenn Ave"}}, {"type": "Feature", "geometry": {"type": "Point", "coordinates": [-79.25778198242188, 43.770694732666016]}, "properties": {"stop_id": "7709", "stop_name": "Ellesmere Rd at Packard Blvd"}}, {"type": "Feature", "geometry": {"type": "Point", "coordinates": [-79.36022186279297, 43.75278854370117]}, "properties": {"stop_id": "9076", "stop_name": "York Mills Rd at Leslie St"}}, {"type": "Feature", "geometry": {"type": "Point", "coordinates": [-79.29426574707031, 43.7625846862793]}, "properties": {"stop_id": "7715", "stop_name": "Ellesmere Rd at Principal Rd East Side"}}, {"type": "Feature", "geometry": {"type": "Point", "coordinates": [-79.2666244506836, 43.7687873840332]}, "properties": {"stop_id": "7680", "stop_name": "Ellesmere Rd at Birkdale Rd"}}, {"type": "Feature", "geometry": {"type": "Point", "coordinates": [-79.26178741455078, 43.76984405517578]}, "properties": {"stop_id": "7684", "stop_name": "Ellesmere Rd at Brimley Rd"}}, {"type": "Feature", "geometry": {"type": "Point", "coordinates": [-79.40623474121094, 43.745365142822266]}, "properties": {"stop_id": "14812", "stop_name": "York Mills Station"}}, {"type": "Feature", "geometry": {"type": "Point", "coordinates": [-79.36563110351562, 43.75236129760742]}, "properties": {"stop_id": "7465", "stop_name": "York Mills Rd at Banbury Rd (East)"}}, {"type": "Feature", "geometry": {"type": "Point", "coordinates": [-79.253173828125, 43.77165603637695]}, "properties": {"stop_id": "7717", "stop_name": "Ellesmere Rd at Saratoga Dr East Side"}}, {"type": "Feature", "geometry": {"type": "Point", "coordinates": [-79.1936264038086, 43.78515625]}, "properties": {"stop_id": "7702", "stop_name": "Ellesmere Rd at Morningside Ave"}}, {"type": "Feature", "geometry": {"type": "Point", "coordinates": [-79.1638412475586, 43.79231262207031]}, "properties": {"stop_id": "10519", "stop_name": "Ellesmere Rd at Meadowvale Rd"}}, {"type": "Feature", "geometry": {"type": "Point", "coordinates": [-79.35113525390625, 43.7547492980957]}, "properties": {"stop_id": "9086", "stop_name": "York Mills Rd at Upjohn Rd"}}, {"type": "Feature", "geometry": {"type": "Point", "coordinates": [-79.39653015136719, 43.74535369873047]}, "properties": {"stop_id": "3262", "stop_name": "York Mills Rd at Highland Cres"}}, {"type": "Feature", "geometry": {"type": "Point", "coordinates": [-79.23200225830078, 43.7762451171875]}, "properties": {"stop_id": "1048", "stop_name": "Ellesmere Rd at Markham Rd"}}, {"type": "Feature", "geometry": {"type": "Point", "coordinates": [-79.37054443359375, 43.75133514404297]}, "properties": {"stop_id": "7467", "stop_name": "York Mills Rd at Chipstead Rd"}}, {"type": "Feature", "geometry": {"type": "Point", "coordinates": [-79.33806610107422, 43.75763702392578]}, "properties": {"stop_id": "9075", "stop_name": "York Mills Rd at Laurentide Dr"}}, {"type": "Feature", "geometry": {"type": "Point", "coordinates": [-79.18090057373047, 43.788307189941406]}, "properties": {"stop_id": "9469", "stop_name": "Ellesmere Rd at Calthorpe Ave"}}, {"type": "Feature", "geometry": {"type": "Point", "coordinates": [-79.33279418945312, 43.759403228759766]}, "properties": {"stop_id": "16688", "stop_name": "York Mills Rd at Valley Woods Rd"}}, {"type": "Feature", "geometry": {"type": "Point", "coordinates": [-79.34742736816406, 43.75556945800781]}, "properties": {"stop_id": "9070", "stop_name": "York Mills Rd at Don Mills Rd"}}, {"type": "Feature", "geometry": {"type": "Point", "coordinates": [-79.24195861816406, 43.77415084838867]}, "properties": {"stop_id": "7676", "stop_name": "Ellesmere Rd at Bellamy Rd North"}}, {"type": "Feature", "geometry": {"type": "Point", "coordinates": [-79.22620391845703, 43.77755355834961]}, "properties": {"stop_id": "1046", "stop_name": "Ellesmere Rd at Gander Dr East Side"}}, {"type": "Feature", "geometry": {"type": "Point", "coordinates": [-79.29161834716797, 43.763214111328125]}, "properties": {"stop_id": "7678", "stop_name": "Ellesmere Rd at Birchmount Rd"}}, {"type": "Feature", "geometry": {"type": "Point", "coordinates": [-79.20509338378906, 43.782440185546875]}, "properties": {"stop_id": "7704", "stop_name": "Ellesmere Rd at Neilson Rd - Scarborough Health Network Centenary Hospital"}}, {"type": "Feature", "geometry": {"type": "Point", "coordinates": [-79.31942749023438, 43.758033752441406]}, "properties": {"stop_id": "8027", "stop_name": "Parkwoods Village Dr at Combermere Dr"}}, {"type": "Feature", "geometry": {"type": "Point", "coordinates": [-79.22237396240234, 43.77836990356445]}, "properties": {"stop_id": "1052", "stop_name": "Ellesmere Rd at Scarborough Golf Club Rd"}}, {"type": "Feature", "geometry": {"type": "Point", "coordinates": [-79.28414154052734, 43.764957427978516]}, "properties": {"stop_id": "7721", "stop_name": "Ellesmere Rd at Wye Valley Rd"}}, {"type": "Feature", "geometry": {"type": "Point", "coordinates": [-79.32373809814453, 43.760929107666016]}, "properties": {"stop_id": "8025", "stop_name": "Parkwoods Village Dr at Brookbanks Dr"}}, {"type": "Feature", "geometry": {"type": "Point", "coordinates": [-79.27897644042969, 43.766109466552734]}, "properties": {"stop_id": "9621", "stop_name": "Ellesmere Rd at West Service Rd East Side"}}, {"type": "Feature", "geometry": {"type": "Point", "coordinates": [-79.32109832763672, 43.7593879699707]}, "properties": {"stop_id": "8028", "stop_name": "Parkwoods Village Dr at Gailong Crt"}}, {"type": "Feature", "geometry": {"type": "Point", "coordinates": [-79.17041778564453, 43.790748596191406]}, "properties": {"stop_id": "10517", "stop_name": "Ellesmere Rd at Deep Dene Dr"}}, {"type": "Feature", "geometry": {"type": "Point", "coordinates": [-79.31044006347656, 43.758846282958984]}, "properties": {"stop_id": "6368", "stop_name": "Ellesmere Rd at Pharmacy Ave"}}, {"type": "Feature", "geometry": {"type": "Point", "coordinates": [-79.39208221435547, 43.74631118774414]}, "properties": {"stop_id": "3252", "stop_name": "York Mills Rd at Birchwood Ave"}}, {"type": "Feature", "geometry": {"type": "Point", "coordinates": [-79.27146911621094, 43.76771926879883]}, "properties": {"stop_id": "7696", "stop_name": "Ellesmere Rd at Midland Ave"}}, {"type": "Feature", "geometry": {"type": "Point", "coordinates": [-79.17913818359375, 43.78871154785156]}, "properties": {"stop_id": "10514", "stop_name": "3507 Ellesmere Rd"}}, {"type": "Feature", "geometry": {"type": "Point", "coordinates": [-79.17582702636719, 43.789459228515625]}, "properties": {"stop_id": "10515", "stop_name": "Ellesmere Rd at Watson St"}}, {"type": "Feature", "geometry": {"type": "Point", "coordinates": [-79.34154510498047, 43.7568473815918]}, "properties": {"stop_id": "9085", "stop_name": "York Mills Rd at Silverdale Cres"}}, {"type": "Feature", "geometry": {"type": "Point", "coordinates": [-79.16673278808594, 43.7916259765625]}, "properties": {"stop_id": "10518", "stop_name": "Ellesmere Rd at Zaph Ave"}}, {"type": "Feature", "geometry": {"type": "Point", "coordinates": [-79.39873504638672, 43.744876861572266]}, "properties": {"stop_id": "3260", "stop_name": "York Mills Rd at Hedgewood Rd East Side"}}, {"type": "Feature", "geometry": {"type": "Point", "coordinates": [-79.14925384521484, 43.7968864440918]}, "properties": {"stop_id": "16023", "stop_name": "Kingston Rd at Rylander Blvd"}}, {"type": "Feature", "geometry": {"type": "Point", "coordinates": [-79.27310180664062, 43.76737976074219]}, "properties": {"stop_id": "9622", "stop_name": "Ellesmere Rd at East Service Rd"}}, {"type": "Feature", "geometry": {"type": "Point", "coordinates": [-79.28144836425781, 43.76559066772461]}, "properties": {"stop_id": "7693", "stop_name": "Ellesmere Rd at Kennedy Rd"}}, {"type": "Feature", "geometry": {"type": "Point", "coordinates": [-79.25570678710938, 43.77112579345703]}, "properties": {"stop_id": "7683", "stop_name": "Ellesmere Rd at Borough Approach East"}}, {"type": "Feature", "geometry": {"type": "Point", "coordinates": [-79.35765838623047, 43.7532958984375]}, "properties": {"stop_id": "9084", "stop_name": "York Mills Rd at Scarsdale Rd"}}, {"type": "Feature", "geometry": {"type": "Point", "coordinates": [-79.15397644042969, 43.79385757446289]}, "properties": {"stop_id": "12544", "stop_name": "Kingston Rd at Ellesmere Rd"}}]}