{"type": "FeatureCollection", "features": [{"type": "Feature", "geometry": {"type": "Point", "coordinates": [-79.19012451171875, 43.767433166503906]}, "properties": {"stop_id": "5281", "stop_name": "Lawrence Ave East at Kingston Rd"}}, {"type": "Feature", "geometry": {"type": "Point", "coordinates": [-79.16903686523438, 43.772186279296875]}, "properties": {"stop_id": "11185", "stop_name": "Lawrence Ave East at Morning Dew Rd"}}, {"type": "Feature", "geometry": {"type": "Point", "coordinates": [-79.17584991455078, 43.7706413269043]}, "properties": {"stop_id": "5284", "stop_name": "Lawrence Ave East at Manse Rd East Side"}}, {"type": "Feature", "geometry": {"type": "Point", "coordinates": [-79.1865463256836, 43.768211364746094]}, "properties": {"stop_id": "4423", "stop_name": "Lawrence Ave East at Morningside Ave"}}, {"type": "Feature", "geometry": {"type": "Point", "coordinates": [-79.12310791015625, 43.78863525390625]}, "properties": {"stop_id": "9970", "stop_name": "Starspray Loop at Lawrence Ave East"}}, {"type": "Feature", "geometry": {"type": "Point", "coordinates": [-79.18033599853516, 43.7696418762207]}, "properties": {"stop_id": "4418", "stop_name": "Lawrence Ave East at Homestead Rd"}}, {"type": "Feature", "geometry": {"type": "Point", "coordinates": [-79.26331329345703, 43.73250198364258]}, "properties": {"stop_id": "14708", "stop_name": "Kennedy Station - Platform A"}}, {"type": "Feature", "geometry": {"type": "Point", "coordinates": [-79.14099884033203, 43.77847671508789]}, "properties": {"stop_id": "5250", "stop_name": "Lawrence Ave East at Bridgeport Dr"}}, {"type": "Feature", "geometry": {"type": "Point", "coordinates": [-79.21611785888672, 43.76164627075195]}, "properties": {"stop_id": "5316", "stop_name": "Lawrence Ave East at Scarborough Golf Club Rd"}}, {"type": "Feature", "geometry": {"type": "Point", "coordinates": [-79.12800598144531, 43.782981872558594]}, "properties": {"stop_id": "9967", "stop_name": "Lawrence Ave East at Stotts Ter"}}, {"type": "Feature", "geometry": {"type": "Point", "coordinates": [-79.20576477050781, 43.763877868652344]}, "properties": {"stop_id": "5299", "stop_name": "Lawrence Ave East at Orton Park Rd"}}, {"type": "Feature", "geometry": {"type": "Point", "coordinates": [-79.1361083984375, 43.779624938964844]}, "properties": {"stop_id": "16809", "stop_name": "Lawrence Ave East at Port Union Rd"}}, {"type": "Feature", "geometry": {"type": "Point", "coordinates": [-79.15067291259766, 43.776344299316406]}, "properties": {"stop_id": "5251", "stop_name": "Lawrence Ave East at Cherryhill Ave"}}, {"type": "Feature", "geometry": {"type": "Point", "coordinates": [-79.22555541992188, 43.7596321105957]}, "properties": {"stop_id": "9503", "stop_name": "Lawrence Ave East at Markham Rd"}}, {"type": "Feature", "geometry": {"type": "Point", "coordinates": [-79.26420593261719, 43.75157928466797]}, "properties": {"stop_id": "5294", "stop_name": "Lawrence Ave East at Midland Ave East Side"}}, {"type": "Feature", "geometry": {"type": "Point", "coordinates": [-79.1666488647461, 43.7727165222168]}, "properties": {"stop_id": "4414", "stop_name": "Lawrence Ave East at Bennett Rd"}}, {"type": "Feature", "geometry": {"type": "Point", "coordinates": [-79.17254638671875, 43.771392822265625]}, "properties": {"stop_id": "4425", "stop_name": "Lawrence Ave East at Valia Rd"}}, {"type": "Feature", "geometry": {"type": "Point", "coordinates": [-79.14604949951172, 43.777374267578125]}, "properties": {"stop_id": "16250", "stop_name": "Lawrence Ave East at Centennial Rd East Side"}}, {"type": "Feature", "geometry": {"type": "Point", "coordinates": [-79.2198257446289, 43.760841369628906]}, "properties": {"stop_id": "5264", "stop_name": "Lawrence Ave East at Fortune Gate East Side"}}, {"type": "Feature", "geometry": {"type": "Point", "coordinates": [-79.24592590332031, 43.75530242919922]}, "properties": {"stop_id": "5290", "stop_name": "Lawrence Ave East at McCowan Rd Scarborough General Hospital"}}, {"type": "Feature", "geometry": {"type": "Point", "coordinates": [-79.15604400634766, 43.77507019042969]}, "properties": {"stop_id": "5291", "stop_name": "Lawrence Ave East at Meadowvale Rd East Side"}}, {"type": "Feature", "geometry": {"type": "Point", "coordinates": [-79.18292999267578, 43.769004821777344]}, "properties": {"stop_id": "4419", "stop_name": "Lawrence Ave East at Ling Rd"}}, {"type": "Feature", "geometry": {"type": "Point", "coordinates": [-79.1249771118164, 43.786216735839844]}, "properties": {"stop_id": "9969", "stop_name": "Lawrence Ave East at Opposite Walkway to Ridgewood Rd"}}, {"type": "Feature", "geometry": {"type": "Point", "coordinates": [-79.22308349609375, 43.7601432800293]}, "properties": {"stop_id": "5274", "stop_name": "Lawrence Ave East at Greencrest Circt East Side"}}, {"type": "Feature", "geometry": {"type": "Point", "coordinates": [-79.1619873046875, 43.77370071411133]}, "properties": {"stop_id": "4413", "stop_name": "Lawrence Ave East at Beechgrove Dr"}}, {"type": "Feature", "geometry": {"type": "Point", "coordinates": [-79.27427673339844, 43.749481201171875]}, "properties": {"stop_id": "5279", "stop_name": "Lawrence Ave East at Kennedy Rd East Side"}}, {"type": "Feature", "geometry": {"type": "Point", "coordinates": [-79.15299224853516, 43.775814056396484]}, "properties": {"stop_id": "5303", "stop_name": "Lawrence Ave East at Paulander Ave"}}, {"type": "Feature", "geometry": {"type": "Point", "coordinates": [-79.12982177734375, 43.780906677246094]}, "properties": {"stop_id": "6530", "stop_name": "Rouge Hill GO Station Loop"}}, {"type": "Feature", "geometry": {"type": "Point", "coordinates": [-79.19656372070312, 43.7659797668457]}, "properties": {"stop_id": "5266", "stop_name": "Lawrence Ave East at Galloway Rd"}}, {"type": "Feature", "geometry": {"type": "Point", "coordinates": [-79.17069244384766, 43.77180480957031]}, "properties": {"stop_id": "4422", "stop_name": "Lawrence Ave East at Megan Ave"}}]}