{"type": "FeatureCollection", "features": [{"type": "Feature", "geometry": {"type": "Point", "coordinates": [-79.4867172241211, 43.7446174621582]}, "properties": {"stop_id": "6074", "stop_name": "Sheppard Ave West at Keele St"}}, {"type": "Feature", "geometry": {"type": "Point", "coordinates": [-79.43783569335938, 43.75548553466797]}, "properties": {"stop_id": "7264", "stop_name": "Sheppard Ave West at Bathurst St East Side"}}, {"type": "Feature", "geometry": {"type": "Point", "coordinates": [-79.4261474609375, 43.75804138183594]}, "properties": {"stop_id": "7276", "stop_name": "Sheppard Ave West at Easton Rd"}}, {"type": "Feature", "geometry": {"type": "Point", "coordinates": [-79.5389404296875, 43.73902130126953]}, "properties": {"stop_id": "4807", "stop_name": "Bradstock Rd at Weston Rd East Side"}}, {"type": "Feature", "geometry": {"type": "Point", "coordinates": [-79.53329467773438, 43.73469924926758]}, "properties": {"stop_id": "15386", "stop_name": "Sheppard Ave West at Abraham Welsh Rd East Side"}}, {"type": "Feature", "geometry": {"type": "Point", "coordinates": [-79.4124526977539, 43.76152038574219]}, "properties": {"stop_id": "14775", "stop_name": "Sheppard-Yonge Station"}}, {"type": "Feature", "geometry": {"type": "Point", "coordinates": [-79.45706176757812, 43.751468658447266]}, "properties": {"stop_id": "7299", "stop_name": "Sheppard Ave West at Wilson Heights Blvd"}}, {"type": "Feature", "geometry": {"type": "Point", "coordinates": [-79.50157165527344, 43.7413444519043]}, "properties": {"stop_id": "7291", "stop_name": "Sheppard Ave West at Northover St"}}, {"type": "Feature", "geometry": {"type": "Point", "coordinates": [-79.46210479736328, 43.749351501464844]}, "properties": {"stop_id": "14654", "stop_name": "Sheppard West Station"}}, {"type": "Feature", "geometry": {"type": "Point", "coordinates": [-79.45209503173828, 43.75251770019531]}, "properties": {"stop_id": "3110", "stop_name": "Sheppard Ave West at Faywood Blvd"}}, {"type": "Feature", "geometry": {"type": "Point", "coordinates": [-79.4804916381836, 43.754173278808594]}, "properties": {"stop_id": "15631", "stop_name": "Sheppard Ave West at Vitti St - Downsview Park Station"}}, {"type": "Feature", "geometry": {"type": "Point", "coordinates": [-79.51258087158203, 43.7393684387207]}, "properties": {"stop_id": "6069", "stop_name": "Sheppard Ave West at Jane St East Side"}}, {"type": "Feature", "geometry": {"type": "Point", "coordinates": [-79.49119567871094, 43.74370193481445]}, "properties": {"stop_id": "16240", "stop_name": "Sheppard Ave West at Sentinel Rd"}}, {"type": "Feature", "geometry": {"type": "Point", "coordinates": [-79.51349639892578, 43.73918914794922]}, "properties": {"stop_id": "6067", "stop_name": "Sheppard Ave West at Jane St"}}]}