{"type": "FeatureCollection", "features": [{"type": "Feature", "geometry": {"type": "Point", "coordinates": [-79.28807830810547, 43.78343200683594]}, "properties": {"stop_id": "7197", "stop_name": "Sheppard Ave East at Kennedy Rd"}}, {"type": "Feature", "geometry": {"type": "Point", "coordinates": [-79.20052337646484, 43.80197525024414]}, "properties": {"stop_id": "9319", "stop_name": "Sheppard Ave East at Morningside Ave West Side"}}, {"type": "Feature", "geometry": {"type": "Point", "coordinates": [-79.23963928222656, 43.79383850097656]}, "properties": {"stop_id": "9859", "stop_name": "Sheppard Ave East at Markham Rd West Side"}}, {"type": "Feature", "geometry": {"type": "Point", "coordinates": [-79.2681884765625, 43.78776550292969]}, "properties": {"stop_id": "7164", "stop_name": "Sheppard Ave East at Brimley Rd"}}, {"type": "Feature", "geometry": {"type": "Point", "coordinates": [-79.19181823730469, 43.8039436340332]}, "properties": {"stop_id": "7239", "stop_name": "8270 Sheppard Ave East"}}, {"type": "Feature", "geometry": {"type": "Point", "coordinates": [-79.25862121582031, 43.78982162475586]}, "properties": {"stop_id": "7211", "stop_name": "Sheppard Ave East at McCowan Rd"}}, {"type": "Feature", "geometry": {"type": "Point", "coordinates": [-79.19698333740234, 43.80276107788086]}, "properties": {"stop_id": "10676", "stop_name": "8150 Sheppard Ave East"}}, {"type": "Feature", "geometry": {"type": "Point", "coordinates": [-79.17160034179688, 43.808292388916016]}, "properties": {"stop_id": "11670", "stop_name": "Sheppard Ave East at Meadowvale Rd West Side"}}, {"type": "Feature", "geometry": {"type": "Point", "coordinates": [-79.18307495117188, 43.805824279785156]}, "properties": {"stop_id": "14123", "stop_name": "Sheppard Ave East at Ecopark Gate"}}, {"type": "Feature", "geometry": {"type": "Point", "coordinates": [-79.33171081542969, 43.77529525756836]}, "properties": {"stop_id": "7161", "stop_name": "Sheppard Ave East at Brian Dr West Side"}}, {"type": "Feature", "geometry": {"type": "Point", "coordinates": [-79.29312896728516, 43.782310485839844]}, "properties": {"stop_id": "16768", "stop_name": "Sheppard Ave East at Allanford Rd"}}, {"type": "Feature", "geometry": {"type": "Point", "coordinates": [-79.30760955810547, 43.77893829345703]}, "properties": {"stop_id": "7255", "stop_name": "Sheppard Ave East at Warden Ave"}}, {"type": "Feature", "geometry": {"type": "Point", "coordinates": [-79.34596252441406, 43.77571105957031]}, "properties": {"stop_id": "14630", "stop_name": "Don Mills Station"}}, {"type": "Feature", "geometry": {"type": "Point", "coordinates": [-79.18988800048828, 43.80437088012695]}, "properties": {"stop_id": "15245", "stop_name": "Sheppard Ave East at Conlins Rd"}}, {"type": "Feature", "geometry": {"type": "Point", "coordinates": [-79.21742248535156, 43.79831314086914]}, "properties": {"stop_id": "7223", "stop_name": "Sheppard Ave East at Neilson Rd"}}, {"type": "Feature", "geometry": {"type": "Point", "coordinates": [-79.31756591796875, 43.77667999267578]}, "properties": {"stop_id": "7229", "stop_name": "Sheppard Ave East at Pharmacy Ave"}}, {"type": "Feature", "geometry": {"type": "Point", "coordinates": [-79.18004608154297, 43.80648422241211]}, "properties": {"stop_id": "7176", "stop_name": "Sheppard Ave East at Rouge River Dr (East)"}}, {"type": "Feature", "geometry": {"type": "Point", "coordinates": [-79.3237075805664, 43.775211334228516]}, "properties": {"stop_id": "9513", "stop_name": "Sheppard Ave East at Victoria Park Ave West Side"}}, {"type": "Feature", "geometry": {"type": "Point", "coordinates": [-79.22734069824219, 43.79634475708008]}, "properties": {"stop_id": "7256", "stop_name": "Sheppard Ave East at Washburn Way"}}, {"type": "Feature", "geometry": {"type": "Point", "coordinates": [-79.24873352050781, 43.79188919067383]}, "properties": {"stop_id": "7248", "stop_name": "Sheppard Ave East at Shorting Rd"}}, {"type": "Feature", "geometry": {"type": "Point", "coordinates": [-79.19477844238281, 43.80326843261719]}, "properties": {"stop_id": "9779", "stop_name": "Sheppard Ave East at Water Tower Gate"}}, {"type": "Feature", "geometry": {"type": "Point", "coordinates": [-79.17072296142578, 43.809146881103516]}, "properties": {"stop_id": "9343", "stop_name": "Meadowvale Loop at Sheppard Ave East"}}, {"type": "Feature", "geometry": {"type": "Point", "coordinates": [-79.27967071533203, 43.78522872924805]}, "properties": {"stop_id": "15244", "stop_name": "Sheppard Ave East at Midland Ave"}}, {"type": "Feature", "geometry": {"type": "Point", "coordinates": [-79.29788970947266, 43.78123092651367]}, "properties": {"stop_id": "7155", "stop_name": "Sheppard Ave East at Birchmount Rd"}}, {"type": "Feature", "geometry": {"type": "Point", "coordinates": [-79.23481750488281, 43.7947883605957]}, "properties": {"stop_id": "4592", "stop_name": "Sheppard Ave East at Malvern St"}}, {"type": "Feature", "geometry": {"type": "Point", "coordinates": [-79.18706512451172, 43.804962158203125]}, "properties": {"stop_id": "7236", "stop_name": "8800 Sheppard Ave East"}}, {"type": "Feature", "geometry": {"type": "Point", "coordinates": [-79.20762634277344, 43.800472259521484]}, "properties": {"stop_id": "7160", "stop_name": "Sheppard Ave East at Brenyon Way West Side"}}, {"type": "Feature", "geometry": {"type": "Point", "coordinates": [-79.28466796875, 43.78425216674805]}, "properties": {"stop_id": "15018", "stop_name": "Sheppard Ave East at Reidmount Ave - Agincourt GO Station"}}, {"type": "Feature", "geometry": {"type": "Point", "coordinates": [-79.17543029785156, 43.807472229003906]}, "properties": {"stop_id": "7195", "stop_name": "Sheppard Ave East at Idagrove Gate"}}]}