{"type": "FeatureCollection", "features": [{"type": "Feature", "geometry": {"type": "Point", "coordinates": [-79.52931213378906, 43.73635482788086]}, "properties": {"stop_id": "11858", "stop_name": "Arrow Rd at Sheppard Ave West North Side"}}, {"type": "Feature", "geometry": {"type": "Point", "coordinates": [-79.52969360351562, 43.737823486328125]}, "properties": {"stop_id": "7513", "stop_name": "Arrow Rd at Bartor Rd North Side"}}, {"type": "Feature", "geometry": {"type": "Point", "coordinates": [-79.5235824584961, 43.73715591430664]}, "properties": {"stop_id": "6085", "stop_name": "Sheppard Ave West at Oakdale Rd"}}, {"type": "Feature", "geometry": {"type": "Point", "coordinates": [-79.51670837402344, 43.738712310791016]}, "properties": {"stop_id": "6057", "stop_name": "2002-2012 Sheppard Ave West"}}, {"type": "Feature", "geometry": {"type": "Point", "coordinates": [-79.5134048461914, 43.7395133972168]}, "properties": {"stop_id": "3921", "stop_name": "Jane St at Sheppard Ave West"}}, {"type": "Feature", "geometry": {"type": "Point", "coordinates": [-79.51997375488281, 43.73796844482422]}, "properties": {"stop_id": "6079", "stop_name": "Sheppard Ave West at Laura Rd"}}, {"type": "Feature", "geometry": {"type": "Point", "coordinates": [-79.53063201904297, 43.7414665222168]}, "properties": {"stop_id": "7500", "stop_name": "Arrow Rd at Lido Rd"}}, {"type": "Feature", "geometry": {"type": "Point", "coordinates": [-79.52931213378906, 43.74540710449219]}, "properties": {"stop_id": "10470", "stop_name": "Opposite 700 Arrow Rd"}}]}